tick,time,Steer,Brake,Throttle,Distance_Bicycle,Distance_Motorbike,Distance_SmallCar,Location_X,Location_Y,Location_Z,Rotation_Pitch,Rotation_Yaw,Rotation_Roll,Speed_kmh,Heading,GNSS_Latitude,GNSS_Longitude,Height,Reverse,Hand_Brake,Manual,Gear,Collision_History,Nearby_Vehicles_Count,Nearby_Vehicles_Details
0,22:04:09:171,0.0,0.6212635636329651,0.6212635636329651,162.8278333749754,366.86664781912236,581.1651783923402,-433.8999938964844,34.900001525878906,0.4866362512111664,0.0,0.0,0.0,19.477072334289552,N,,,,False,False,False,N,,,
1,22:04:09:200,0.0,0.6212635636329651,0.6212635636329651,162.82841153168278,366.8696539243732,581.1667061507678,-433.8999938964844,34.900001525878906,0.38233742117881775,0.0,0.0,0.0,20.140258598327637,N,,,,False,False,False,N,,,
2,22:04:09:224,0.0,0.6212635636329651,0.6212635636329651,162.82841153168278,366.8696539243732,581.1667061507678,-433.8999938964844,34.900001525878906,0.38233742117881775,0.0,0.0,0.0,20.140258598327637,N,,,,False,False,False,N,,,
3,22:04:09:247,0.0,0.6212635636329651,0.6212635636329651,162.8307799956589,366.87935635402516,581.1723630341472,-433.8999938964844,34.900001525878906,0.04143634811043739,0.0,0.0,0.0,22.17063331604004,N,,,,False,False,False,N,,,
4,22:04:09:275,0.0,0.6212635636329651,0.6212635636329651,162.83207223752063,366.8838014596517,581.1750758092923,-433.8999938964844,34.900001525878906,-0.10963226109743118,0.0,0.0,0.0,13.730185031890949,N,,,,False,False,False,N,,,
5,22:04:09:307,0.0,0.6212635636329651,0.6212635636329651,162.83147393849467,366.88295594176344,581.174611409283,-433.8995666503906,34.900360107421875,-0.09844524413347244,0.06772132217884064,-3.0517576306010596e-05,-0.1009826511144638,0.47134011582997676,N,,,,False,False,False,N,,,
6,22:04:09:340,0.0,0.6212635636329651,0.6212635636329651,162.83081151269863,366.88199366656687,581.1744046308221,-433.8990783691406,34.8996467590332,-0.09087913483381271,0.14347495138645172,-0.00039672848652116954,-0.2120055854320526,0.9159699960122438,N,,,,False,False,False,N,,,
7,22:04:09:371,0.0,0.6212635636329651,0.6212635636329651,162.83081151269863,366.88199366656687,581.1744046308221,-433.8990783691406,34.8996467590332,-0.09087913483381271,0.14347495138645172,-0.00039672848652116954,-0.2120055854320526,0.9159699960122438,N,,,,False,False,False,N,,,
8,22:04:09:396,0.0,0.6212635636329651,0.6212635636329651,162.83010036855015,366.8801949239753,581.1746734219881,-433.89874267578125,34.899410247802734,-0.07046401500701904,0.19384758174419403,-0.0008544921875,-0.2790527045726776,1.0875082221177887,N,,,,False,False,False,N,,,
9,22:04:09:422,0.0,0.6212635636329651,0.6212635636329651,162.83011224184244,366.8800120316722,581.1748376854783,-433.8988037109375,34.899356842041016,-0.06497329473495483,0.18684664368629456,-0.0007934569730423391,-0.267486572265625,1.0642652392682825,N,,,,False,False,False,N,,,
10,22:04:09:450,0.0,0.6212635636329651,0.6212635636329651,162.83012050223462,366.8796715259635,581.175255287388,-433.89898681640625,34.8992805480957,-0.05521125718951225,0.16522227227687836,-0.000579833984375,-0.23489384353160858,0.964176728423291,N,,,,False,False,False,N,,,
11,22:04:09:476,0.0,0.6212635636329651,0.6212635636329651,162.83012050223462,366.8796715259635,581.175255287388,-433.89898681640625,34.8992805480957,-0.05521125718951225,0.16522227227687836,-0.000579833984375,-0.23489384353160858,0.964176728423291,N,,,,False,False,False,N,,,
12,22:04:09:500,0.0,0.6212635636329651,0.6212635636329651,162.83016888532333,366.87953082529873,581.1754752537894,-433.8990783691406,34.899253845214844,-0.050298575311899185,0.15091301500797272,-0.00048828116268850863,-0.21408076584339142,0.8936274118103633,N,,,,False,False,False,N,,,
13,22:04:09:549,0.0,0.6212635636329651,0.6212635636329651,162.83038480327886,366.87885265154796,581.176442000322,-433.8995361328125,34.89920425415039,-0.035310324281454086,0.09750094264745712,-0.000152587890625,-0.138885498046875,0.5993466521281828,N,,,,False,False,False,N,,,
14,22:04:09:590,0.0,0.6212635636329651,0.6212635636329651,162.8305172312712,366.8785014984213,581.1769342616946,-433.8997497558594,34.89919662475586,-0.028891906142234802,0.06996845453977585,-6.103515261202119e-05,-0.100860595703125,0.43108685873183655,N,,,,False,False,False,N,,,
15,22:04:09:623,0.0,0.6212635636329651,0.6212635636329651,162.83058401709775,366.8783505074914,581.1771884065221,-433.8998718261719,34.899200439453125,-0.025758208706974983,0.055228907614946365,-3.2568893328782655e-12,-0.0805663987994194,0.3365284033145644,N,,,,False,False,False,N,,,
16,22:04:09:652,0.0,0.6212635636329651,0.6212635636329651,162.83068525699673,366.87812354490217,581.1774823055761,-433.8999938964844,34.89920425415039,-0.022821655496954918,0.040427885949611664,2.7725671316147782e-05,-0.060150131583213806,0.2385314900457881,N,,,,False,False,False,N,,,
17,22:04:09:691,0.0,0.6212635636329651,0.6212635636329651,162.8307336110088,366.8778908505619,581.177666840846,-433.9000549316406,34.89921188354492,-0.020867347717285156,0.029588377103209496,4.6745310100959614e-05,-0.0451049767434597,0.16377343306837164,N,,,,False,False,False,N,,,
18,22:04:09:699,0.0,0.6212635636329651,0.6212635636329651,162.8307336110088,366.8778908505619,581.177666840846,-433.9000549316406,34.89921188354492,-0.020867347717285156,0.029588377103209496,4.6745310100959614e-05,-0.0451049767434597,0.16377343306837164,N,,,,False,False,False,N,,,
19,22:04:09:727,0.0,0.6212635636329651,0.6212635636329651,162.83081830797678,366.8777475416642,581.1778597692548,-433.900146484375,34.89921569824219,-0.01962883025407791,0.021952226758003235,5.686566510121338e-05,-0.0343627855181694,0.1117201076936288,N,,,,False,False,False,N,,,
20,22:04:09:751,0.0,0.6212635636329651,0.6212635636329651,162.83081830797678,366.8777475416642,581.1778597692548,-433.900146484375,34.89921569824219,-0.01962883025407791,0.021952226758003235,5.686566510121338e-05,-0.0343627855181694,0.1117201076936288,N,,,,False,False,False,N,,,
21,22:04:09:793,0.0,0.6212635636329651,0.6212635636329651,162.83090945302365,366.8772033879426,581.1781207845889,-433.9002380371094,34.899227142333984,-0.018476370722055435,0.012403623200953007,6.560956535395235e-05,-0.02062988094985485,0.04304745962501134,N,,,,False,False,False,N,,,
22,22:04:09:815,0.0,0.6212635636329651,0.6212635636329651,162.83088247704248,366.8767852691531,581.1782289514155,-433.9002685546875,34.899227142333984,-0.018161125481128693,0.008728981018066406,6.783082790207118e-05,-0.01519775576889515,0.02266141543371795,N,,,,False,False,False,N,,,
23,22:04:09:842,0.0,0.6212635636329651,0.6212635636329651,162.83088312182377,366.87670473424754,581.1782322381863,-433.9002685546875,34.899227142333984,-0.01808990351855755,0.00716486806049943,6.856731488369405e-05,-0.0128173828125,0.01014292051427141,N,,,,False,False,False,N,,,
24,22:04:09:881,0.0,0.6212635636329651,0.6212635636329651,162.83091682308887,366.8765344028931,581.1782883328347,-433.9002990722656,34.89923095703125,-0.01803283579647541,0.005027018953114748,6.939942977624014e-05,-0.009490965865552425,0.003197653304048729,N,,,,False,False,False,N,,,
25,22:04:09:907,0.0,0.6212635636329651,0.6212635636329651,162.83091832764836,366.8764470877599,581.1783324930769,-433.9002990722656,34.89923095703125,-0.018079794943332672,0.0040229810401797295,6.969578680582345e-05,-0.007904052734375,0.010927708026580277,N,,,,False,False,False,N,,,
26,22:04:09:932,0.0,0.6212635636329651,0.6212635636329651,162.83091832764836,366.8764470877599,581.1783324930769,-433.9002990722656,34.89923095703125,-0.018079794943332672,0.0040229810401797295,6.969578680582345e-05,-0.007904052734375,0.010927708026580277,N,,,,False,False,False,N,,,
27,22:04:09:964,-0.01581130363047123,0.0,0.44020307064056396,162.83093199893597,366.8755862239954,581.1784329399546,-433.9002990722656,34.899234771728516,-0.018314016982913017,0.0017007170245051384,7.102642121026292e-05,-0.003997802268713713,0.012199167978587585,N,,,,False,False,False,N,,,
28,22:04:10:004,-0.01581130363047123,0.0,0.5495340824127197,162.82645347838513,366.8708322985239,581.1739482021602,-433.89581298828125,34.899169921875,-0.018616141751408577,0.02342754788696766,-0.0029296875,-0.0015258787898346782,0.8686233686429294,N,,,,False,False,False,1,,,
29,22:04:10:030,-0.01581130363047123,0.0,0.707983136177063,162.81199979513715,366.8561668780517,581.1595026278335,-433.88134765625,34.89900207519531,-0.019094962626695633,0.07348600029945374,-0.010925293900072575,0.0014387465780600905,1.765680781201494,N,,,,False,False,False,1,,,
30,22:04:10:056,-0.01581130363047123,0.0,0.707983136177063,162.80095881422008,366.8450549806142,581.1484647468056,-433.87030029296875,34.89887619018555,-0.019367676228284836,0.10161954909563065,-0.01666259765625,0.002861828776076436,2.1662249378464575,N,,,,False,False,False,1,,,
31,22:04:10:084,-0.01581130363047123,0.0,0.7907447814941406,162.7893378999891,366.83337519475936,581.1368462597512,-433.8586730957031,34.898746490478516,-0.019581755623221397,0.12497196346521378,-0.02252197079360485,0.003971542231738567,2.4894167972647443,N,,,,False,False,False,1,,,
32,22:04:10:112,-0.01581130363047123,0.0,0.7907447814941406,162.77506360881006,366.8189370773795,581.1225766478503,-433.8443908691406,34.89858627319336,-0.019796600565314293,0.14684906601905823,-0.02947997860610485,0.004972315393388271,2.8021189315760693,N,,,,False,False,False,1,,,
33,22:04:10:137,-0.01581130363047123,0.0,0.9724549651145935,162.75965908054695,366.8034654037044,581.1071741280676,-433.8289794921875,34.89841842651367,-0.01997394487261772,0.16458022594451904,-0.0368957556784153,0.005764727480709553,3.0809052960850156,N,,,,False,False,False,1,,,
34,22:04:10:161,-0.01581130363047123,0.0,0.9906898140907288,162.70850343518202,366.75182863880514,581.0560280665954,-433.7778015136719,34.89785385131836,-0.02029884234070778,0.19544585049152374,-0.06097412109375,0.007183348294347525,3.776592922954626,N,,,,False,False,False,1,,,
35,22:04:10:188,-0.01581130363047123,0.0,0.9906898140907288,162.6844030835267,366.7276400603907,581.0319133793516,-433.7536926269531,34.8975830078125,-0.020353201776742935,0.20116272568702698,-0.0721435397863388,0.007500023581087589,4.036041110519829,N,,,,False,False,False,1,,,
36,22:04:10:205,-0.01581130363047123,0.0,0.9906898140907288,162.6671968976813,366.71038944120784,581.0147072692464,-433.7364807128906,34.89738464355469,-0.020378418266773224,0.2031366378068924,-0.080047607421875,0.0076493253000080585,4.203985295254246,N,,,,False,False,False,1,,,
37,22:04:10:239,-0.01581130363047123,0.0,0.9906898140907288,162.61966693631447,366.66260821451203,580.9671797620532,-433.6889343261719,34.89683532714844,-0.020421447232365608,0.20281562209129333,-0.1017761155962944,0.007857405580580235,4.613850141654384,N,,,,False,False,False,1,,,
38,22:04:10:267,-0.01581130363047123,0.0,0.9906898140907288,162.59526094514598,366.638132485521,580.942758421778,-433.6645202636719,34.89654541015625,-0.020441321656107903,0.20058216154575348,-0.1128845065832138,0.007893207482993603,4.801106503265824,N,,,,False,False,False,1,,,
39,22:04:10:296,-0.0573098249733448,0.0,0.9906898140907288,162.57531047753213,366.6181379533753,580.9227913896523,-433.6445617675781,34.89619445800781,-0.020426254719495773,0.19820524752140045,-0.1274413913488388,0.010397026315331459,4.943759942764739,N,,,,False,False,False,1,,,
40,22:04:10:328,-0.05811578780412674,0.0,0.9906898140907288,162.49756907042155,366.539944617856,580.8450716642268,-433.5667724609375,34.893672943115234,-0.02040359377861023,0.18617728352546692,-0.2354736179113388,0.030671635642647743,5.445345132220061,N,,,,False,False,False,1,,,
41,22:04:10:354,-0.05811578780412674,0.0,0.9906898140907288,162.44798131088777,366.4901710781245,580.795473980957,-433.51715087890625,34.89176559448242,-0.020352095365524292,0.1782747507095337,-0.3139037787914276,0.03789592534303665,5.730970021122321,N,,,,False,False,False,1,,,
42,22:04:10:380,-0.05811578780412674,0.0,0.9906898140907288,162.41900974017472,366.46112961778226,580.766495509654,-433.4881591796875,34.89059829711914,-0.020334091037511826,0.17384196817874908,-0.3603210151195526,0.040176454931497574,5.888230817377301,N,,,,False,False,False,1,,,
43,22:04:10:407,-0.05811578780412674,0.0,0.9906898140907288,162.36128159220124,366.40318889777035,580.7087539928251,-433.4303894042969,34.88818359375,-0.020290756598114967,0.16570037603378296,-0.45303335785865784,0.04206615313887596,6.1842727188423,N,,,,False,False,False,1,,,
44,22:04:10:431,-0.05811578780412674,0.0,0.9906898140907288,162.36128159220124,366.40318889777035,580.7087539928251,-433.4303894042969,34.88818359375,-0.020290756598114967,0.16570037603378296,-0.45303335785865784,0.04206615313887596,6.1842727188423,N,,,,False,False,False,1,,,
45,22:04:10:457,-0.05811578780412674,0.0,0.9906898140907288,162.32581585169467,366.36764126450663,580.6732788723739,-433.3948974609375,34.88665771484375,-0.020235976204276085,0.1612471044063568,-0.5098876357078552,0.04217848554253578,6.356500932496119,NW,,,,False,False,False,1,,,
46,22:04:10:481,-0.05811578780412674,0.0,0.9906898140907288,162.22228854715502,366.2635680992066,580.56974172342,-433.2912902832031,34.88197708129883,-0.020204123109579086,0.15029147267341614,-0.675750732421875,0.04048055410385132,6.827350815599418,NW,,,,False,False,False,1,,,
47,22:04:10:510,-0.05811578780412674,0.0,0.9906898140907288,162.18578773927007,366.22698756644326,580.5332299972738,-433.2547607421875,34.8802604675293,-0.020192641764879227,0.14719057083129883,-0.7340392470359802,0.03967819735407829,6.984344297151277,NW,,,,False,False,False,1,,,
48,22:04:10:539,-0.05700759217143059,0.0,0.9906898140907288,162.11723964059937,366.1582155052745,580.4646615848003,-433.1861572265625,34.87696075439453,-0.020151328295469284,0.1423206478357315,-0.8424071669578552,0.0378723219037056,7.270004996455832,NW,,,,False,False,False,1,,,
49,22:04:10:567,-0.0509631521999836,0.0,0.9906898140907288,162.07887944094523,366.1197769689313,580.4262895357101,-433.14776611328125,34.875118255615234,-0.020141830667853355,0.14008717238903046,-0.9001767039299011,0.03591958060860634,7.42524540589968,NW,,,,False,False,False,1,,,
50,22:04:10:612,-0.04562424495816231,0.0,0.9906898140907288,161.96943866780424,366.00995719113314,580.316832774052,-433.0382385253906,34.870025634765625,-0.020087584853172302,0.13539482653141022,-1.0474853515625,0.02749430015683174,7.852793274406804,NW,,,,False,False,False,1,,,
51,22:04:10:662,-0.027695488184690475,0.0,0.9906898140907288,161.86416800201465,365.904301014453,580.2115358254823,-432.9328918457031,34.865665435791016,-0.020082663744688034,0.13271740078926086,-1.1516419649124146,0.013247487135231495,8.246201090958197,NW,,,,False,False,False,1,,,
52,22:04:10:707,-0.011178640648722649,0.0,0.9906898140907288,161.7428788532183,365.78251922068625,580.0902205852461,-432.8115234375,34.86125564575195,-0.020057715475559235,0.1311669498682022,-1.233489990234375,-0.0024719233624637127,8.68262609160607,NW,,,,False,False,False,1,,,
53,22:04:10:736,-0.011178640648722649,0.0,0.9906898140907288,161.69722113384358,365.7367891129596,580.0445534567417,-432.7658386230469,34.85978698730469,-0.020060958340764046,0.13090740144252777,-1.2533262968063354,-0.007995604537427425,8.842956211469602,NW,,,,False,False,False,1,,,
54,22:04:10:761,-0.010372966527938843,0.0,0.9906898140907288,161.65199010699257,365.69138986622477,579.9993142705531,-432.7205810546875,34.85837936401367,-0.020059814676642418,0.13078445196151733,-1.270294189453125,-0.012176512740552425,9.000248775585295,NW,,,,False,False,False,1,,,
55,22:04:10:785,-0.010372966527938843,0.0,0.9906898140907288,161.65199010699257,365.69138986622477,579.9993142705531,-432.7205810546875,34.85837936401367,-0.020059814676642418,0.13078445196151733,-1.270294189453125,-0.012176512740552425,9.000248775585295,NW,,,,False,False,False,1,,,
56,22:04:10:810,-0.010372966527938843,0.0,0.9906898140907288,161.5024479379169,365.5412898835769,579.849745671637,-432.5709533691406,34.85386657714844,-0.020084494724869728,0.13112597167491913,-1.3179322481155396,-0.01736450009047985,9.507786779071367,NW,,,,False,False,False,1,,,
57,22:04:10:836,-0.010372966527938843,0.0,0.9906898140907288,161.40274266307463,365.44118296400876,579.7500222171191,-432.47119140625,34.85087966918945,-0.020034674555063248,0.13180215656757355,-1.34735107421875,-0.01629638671875,9.837561305357784,NW,,,,False,False,False,1,,,
58,22:04:10:861,-0.010372966527938843,0.0,0.9906898140907288,161.35470441758997,365.3930837686576,579.7019895601763,-432.4231262207031,34.84943389892578,-0.02003631554543972,0.13225294649600983,-1.361267328262329,-0.015106200240552425,9.994096884080172,NW,,,,False,False,False,1,,,
59,22:04:10:889,-0.010372966527938843,0.0,0.9906898140907288,161.2607330276874,365.2989256987251,579.6079995844163,-432.3291015625,34.846595764160156,-0.020040243864059448,0.13325698673725128,-1.388336181640625,-0.012237548828125,10.296496276541925,NW,,,,False,False,False,1,,,
60,22:04:10:915,-0.010372966527938843,0.0,0.9906898140907288,161.20930997240552,365.247438620976,579.5565660577248,-432.27764892578125,34.84503173828125,-0.020047606900334358,0.13387170433998108,-1.403045654296875,-0.010528564453125,10.459980799223723,NW,,,,False,False,False,1,,,
61,22:04:10:941,-0.010372966527938843,0.0,0.9906898140907288,161.20930997240552,365.247438620976,579.5565660577248,-432.27764892578125,34.84503173828125,-0.020047606900334358,0.13387170433998108,-1.403045654296875,-0.010528564453125,10.459980799223723,NW,,,,False,False,False,1,,,
62,22:04:10:988,-0.010372966527938843,0.0,0.9906898140907288,160.9919084512328,365.02920090570825,579.3391221296165,-432.06011962890625,34.838294982910156,-0.0200846865773201,0.13691113889217377,-1.4649962186813354,-0.0038452146109193563,11.137524824108203,NW,,,,False,False,False,1,,,
63,22:04:11:014,-0.010372966527938843,0.0,0.9906898140907288,160.88122621884656,364.9180487032839,579.2284171416951,-431.9493713378906,34.83478927612305,-0.020096663385629654,0.13862551748752594,-1.4963990449905396,-0.0010070799617096782,11.474836251367742,NW,,,,False,False,False,1,,,
64,22:04:11:041,-0.010372966527938843,0.0,0.9906898140907288,160.7796946048625,364.8163455095127,579.1268629517767,-431.8477783203125,34.83152389526367,-0.0200839601457119,0.1402784138917923,-1.5251768827438354,0.001190180773846805,11.780695116183285,NW,,,,False,False,False,1,,,
65,22:04:11:067,-0.010372966527938843,0.0,0.9906898140907288,160.7796946048625,364.8163455095127,579.1268629517767,-431.8477783203125,34.83152389526367,-0.0200839601457119,0.1402784138917923,-1.5251768827438354,0.001190180773846805,11.780695116183285,NW,,,,False,False,False,1,,,
66,22:04:11:092,-0.010372966527938843,0.0,0.9906898140907288,160.7796946048625,364.8163455095127,579.1268629517767,-431.8477783203125,34.83152389526367,-0.0200839601457119,0.1402784138917923,-1.5251768827438354,0.001190180773846805,11.780695116183285,NW,,,,False,False,False,1,,,
67,22:04:11:115,-0.010372966527938843,0.0,0.9906898140907288,160.57773083837222,364.6137982957874,578.9248539380847,-431.64569091796875,34.82490539550781,-0.02012653276324272,0.14366619288921356,-1.5821839570999146,0.00463994313031435,12.37797300653333,NW,,,,False,False,False,1,,,
68,22:04:11:143,-0.010372966527938843,0.0,0.9906898140907288,160.4625074802198,364.498201749859,578.8096037027436,-431.5303955078125,34.821044921875,-0.020132025703787804,0.14564694464206696,-1.6146240234375,0.006151162553578615,12.71321315645293,NW,,,,False,False,False,1,,,
69,22:04:11:174,-0.010372966527938843,0.0,0.9906898140907288,160.34072812357346,364.3762208118891,578.687794785992,-431.4085388183594,34.81690216064453,-0.020149536430835724,0.14776431024074554,-1.64886474609375,0.007481727283447981,13.063405914472863,NW,,,,False,False,False,1,,,
70,22:04:11:200,-0.010372966527938843,0.0,0.9906898140907288,160.34072812357346,364.3762208118891,578.687794785992,-431.4085388183594,34.81690216064453,-0.020149536430835724,0.14776431024074554,-1.64886474609375,0.007481727283447981,13.063405914472863,NW,,,,False,False,False,1,,,
71,22:04:11:222,-0.010372966527938843,0.0,0.9906898140907288,160.27311406504862,364.30853695970427,578.6201638389484,-431.34088134765625,34.8145751953125,-0.020166434347629547,0.14895275235176086,-1.6678467988967896,0.008124344050884247,13.256042220121529,NW,,,,False,False,False,1,,,
72,22:04:11:257,-0.010372966527938843,0.0,0.9906898140907288,160.00083212922453,364.03561747060434,578.3478124806578,-431.06842041015625,34.80497741699219,-0.020163994282484055,0.15369974076747894,-1.744110107421875,0.010207037441432476,14.02142837536264,NW,,,,False,False,False,1,,,
73,22:04:11:283,-0.010372966527938843,0.0,0.9906898140907288,159.9245278062407,363.9592356989117,578.2714876862065,-430.9920654296875,34.80222702026367,-0.020195921882987022,0.15503846108913422,-1.7654417753219604,0.01068834587931633,14.232612700945973,NW,,,,False,False,False,1,,,
74,22:04:11:311,-0.010372966527938843,0.0,0.9906898140907288,159.79610561163608,363.83063202513756,578.1430306466962,-430.8635559082031,34.797542572021484,-0.020199507474899292,0.1572582721710205,-1.801238775253296,0.011422493495047092,14.58555129849898,NW,,,,False,False,False,1,,,
75,22:04:11:336,-0.010372966527938843,0.0,0.9906898140907288,159.72102270721933,363.75547859410955,578.0679268134695,-430.7884216308594,34.79476547241211,-0.020216941833496094,0.158112034201622,-1.8221439123153687,0.01180329080671072,14.761455242802693,NW,,,,False,False,False,1,,,
76,22:04:11:362,-0.010372966527938843,0.0,0.9906898140907288,159.72102270721933,363.75547859410955,578.0679268134695,-430.7884216308594,34.79476547241211,-0.020216941833496094,0.158112034201622,-1.8221439123153687,0.01180329080671072,14.761455242802693,NW,,,,False,False,False,1,,,
77,22:04:11:392,-0.010372966527938843,0.0,0.9906898140907288,159.4856814543823,363.51959201329475,577.8325181762449,-430.55291748046875,34.78591537475586,-0.02008182555437088,0.1372799575328827,-1.8866580724716187,0.012173942290246487,14.770603335641074,NW,,,,False,False,False,N,,,
78,22:04:11:418,-0.010372966527938843,0.0,0.9906898140907288,159.35360259708168,363.38732301884676,577.7003995264089,-430.4207458496094,34.780845642089844,-0.019945144653320312,0.11756803840398788,-1.922363519668579,0.012171805836260319,14.765673133018387,NW,,,,False,False,False,N,,,
79,22:04:11:445,-0.010372966527938843,0.0,0.9906898140907288,159.2819067871937,363.3155606341481,577.6286817066976,-430.3489990234375,34.77806091308594,-0.01988300308585167,0.10799894481897354,-1.941711664199829,0.012217509560286999,14.864896361099147,NW,,,,False,False,False,N,,,
80,22:04:11:470,-0.010372966527938843,0.0,0.9906898140907288,159.14510489461279,363.1785710796372,577.4918379894677,-430.21209716796875,34.772666931152344,-0.0198877714574337,0.11021875590085983,-1.979308843612671,0.012918216176331043,15.540510801282107,NW,,,,False,False,False,2,,,
81,22:04:11:496,-0.010372966527938843,0.0,0.9906898140907288,159.14510489461279,363.1785710796372,577.4918379894677,-430.21209716796875,34.772666931152344,-0.0198877714574337,0.11021875590085983,-1.979308843612671,0.012918216176331043,15.540510801282107,NW,,,,False,False,False,2,,,
82,22:04:11:525,-0.010372966527938843,0.0,0.9906898140907288,158.8838584549904,362.9167718737451,577.2305109647988,-429.9506530761719,34.76211929321289,-0.020162848755717278,0.1487000435590744,-2.05224609375,0.014856169000267982,16.72079504166604,NW,,,,False,False,False,2,,,
83,22:04:11:549,-0.010372966527938843,0.0,0.9906898140907288,158.81454560028055,362.8474119926064,577.1611759372878,-429.88128662109375,34.759273529052734,-0.020228233188390732,0.16037283837795258,-2.071686267852783,0.015350152738392353,17.012216930599156,NW,,,,False,False,False,2,,,
84,22:04:11:587,-0.010372966527938843,0.0,0.9906898140907288,158.59682009442534,362.62934095322197,576.943379460664,-429.66339111328125,34.75019454956055,-0.020472105592489243,0.1942300796508789,-2.132507562637329,0.016773976385593414,17.876050609473356,NW,,,,False,False,False,2,,,
85,22:04:11:630,-0.010372966527938843,0.0,0.9906898140907288,158.44407858514703,362.47643155272084,576.790585939259,-429.5105285644531,34.743709564208984,-0.0205264650285244,0.21470698714256287,-2.175018548965454,0.017740482464432716,18.445579415518537,NW,,,,False,False,False,2,,,
86,22:04:11:657,-0.010372966527938843,0.0,0.9906898140907288,158.2373663325951,362.2694430292196,576.583801144626,-429.30364990234375,34.73476791381836,-0.020578650757670403,0.23532049357891083,-2.232239246368408,0.018899455666542053,19.173426702848673,NW,,,,False,False,False,2,,,
87,22:04:11:685,-0.010372966527938843,0.0,0.9906898140907288,158.06590687707276,362.09779540128454,576.4122797392512,-429.1320495605469,34.72721862792969,-0.02061901055276394,0.2467542290687561,-2.279419183731079,0.019767744466662407,19.745466738665908,NW,,,,False,False,False,2,,,
88,22:04:11:712,-0.010372966527938843,0.0,0.9906898140907288,157.96171468435105,361.993522027018,576.3080489627197,-429.02777099609375,34.72256851196289,-0.020641440525650978,0.2518632113933563,-2.307952880859375,0.020292293280363083,20.0807480937067,NW,,,,False,False,False,2,,,
89,22:04:11:739,-0.010372966527938843,0.0,0.9906898140907288,157.96171468435105,361.993522027018,576.3080489627197,-429.02777099609375,34.72256851196289,-0.020641440525650978,0.2518632113933563,-2.307952880859375,0.020292293280363083,20.0807480937067,NW,,,,False,False,False,2,,,
90,22:04:11:785,-0.008056660182774067,0.0,0.9906898140907288,157.51586763110748,361.5466818595939,575.8620317208456,-428.58154296875,34.702213287353516,-0.020708808675408363,0.26221778988838196,-2.426819324493408,0.02151501551270485,21.42584037622951,NW,,,,False,False,False,2,,,
91,22:04:11:818,-0.003625490004196763,0.0,0.9906898140907288,157.29919890446646,361.32976475627794,575.6452772737873,-428.36468505859375,34.692176818847656,-0.02072647027671337,0.26311254501342773,-2.476501941680908,0.019592897966504097,22.035562051110826,NW,,,,False,False,False,2,,,
92,22:04:11:846,-0.003625490004196763,0.0,0.9906898140907288,157.18815072835514,361.2186379389543,575.5341848865073,-428.2535400390625,34.68705749511719,-0.0207325741648674,0.26301008462905884,-2.497131586074829,0.017483515664935112,22.338214110094693,NW,,,,False,False,False,2,,,
93,22:04:11:891,-0.0006042480817995965,0.0,0.9906898140907288,156.97672578027345,361.00699218099345,575.3226759627659,-428.04193115234375,34.67739486694336,-0.02073982171714306,0.26205384731292725,-2.526184320449829,0.011933475732803345,22.898413567970017,NW,,,,False,False,False,2,,,
94,22:04:11:914,-0.0006042480817995965,0.0,0.9906898140907288,156.97672578027345,361.00699218099345,575.3226759627659,-428.04193115234375,34.67739486694336,-0.02073982171714306,0.26205384731292725,-2.526184320449829,0.011933475732803345,22.898413567970017,NW,,,,False,False,False,2,,,
95,22:04:11:938,0.00020141601271461695,0.0,0.9906898140907288,156.59805725474072,360.6277236691703,574.9438563802977,-427.6629333496094,34.66025924682617,-0.02074127085506916,0.2589324712753296,-2.553406000137329,0.002933156443759799,23.854398811997488,NW,,,,False,False,False,2,,,
96,22:04:11:964,0.00020141601271461695,0.0,0.9906898140907288,156.3755956601698,360.40504456596113,574.7213050703999,-427.4402770996094,34.650238037109375,-0.020737266167998314,0.2567877769470215,-2.561462879180908,-3.051812745979987e-05,24.391252558157774,NW,,,,False,False,False,2,,,
97,22:04:11:990,0.00020141601271461695,0.0,0.9906898140907288,156.2486926468734,360.27805591015505,574.5943504215904,-427.3132629394531,34.64453125,-0.020733756944537163,0.2554968595504761,-2.5645751953125,-0.0011596678523346782,24.69004202922767,NW,,,,False,False,False,2,,,
98,22:04:12:018,0.00020141601271461695,0.0,0.9906898140907288,156.03111082851015,360.0602701756031,574.3766794377124,-427.0954895019531,34.63474655151367,-0.020726623013615608,0.2533316910266876,-2.568268060684204,-0.0022888181265443563,25.191293879095625,NW,,,,False,False,False,2,,,
99,22:04:12:043,0.00020141601271461695,0.0,0.9906898140907288,156.03111082851015,360.0602701756031,574.3766794377124,-427.0954895019531,34.63474655151367,-0.020726623013615608,0.2533316910266876,-2.568268060684204,-0.0022888181265443563,25.191293879095625,NW,,,,False,False,False,2,,,
100,22:04:12:067,0.00020141601271461695,0.0,0.9906898140907288,155.61683591328995,359.6453991853693,573.962232522868,-426.68084716796875,34.61613464355469,-0.020709991455078125,0.2493087202310562,-2.571838617324829,-0.002899169921875,26.109363033504398,NW,,,,False,False,False,2,,,
101,22:04:12:093,0.00020141601271461695,0.0,0.9906898140907288,155.49923496010103,359.5277300551958,573.8445820855419,-426.5631408691406,34.6108512878418,-0.020704878494143486,0.2482568770647049,-2.572357654571533,-0.0028686525765806437,26.362212864779668,NW,,,,False,False,False,2,,,
102,22:04:12:120,0.00020141601271461695,0.0,0.9906898140907288,155.264185957756,359.2924746638052,573.6094333777276,-426.327880859375,34.60029602050781,-0.020694885402917862,0.24626928567886353,-2.572998285293579,-0.0026855464093387127,26.859039083642113,NW,,,,False,False,False,2,,,
103,22:04:12:154,0.00020141601271461695,0.0,0.9906898140907288,155.12103437710437,359.14922897437987,573.4662202608885,-426.1846008300781,34.593868255615234,-0.02066848799586296,0.24210287630558014,-2.573150873184204,-0.0025024409405887127,27.008318070953283,NW,,,,False,False,False,N,,,
104,22:04:12:179,0.00020141601271461695,0.0,0.9906898140907288,155.12103437710437,359.14922897437987,573.4662202608885,-426.1846008300781,34.593868255615234,-0.02066848799586296,0.24210287630558014,-2.573150873184204,-0.0025024409405887127,27.008318070953283,NW,,,,False,False,False,N,,,
105,22:04:12:202,0.0024169927928596735,0.0,0.9906898140907288,154.7024644050523,358.73008290000104,573.0474686898907,-425.7656555175781,34.57522964477539,-0.020375289022922516,0.19819842278957367,-2.565155506134033,-0.0045166015625,27.00244035709099,NW,,,,False,False,False,N,,,
106,22:04:12:236,0.0024169927928596735,0.0,0.9906898140907288,154.43875556914148,358.4661255177593,572.783644447426,-425.501708984375,34.56357955932617,-0.02015255019068718,0.16512665152549744,-2.555420160293579,-0.005889893043786287,27.097884411005605,NW,,,,False,False,False,N,,,
107,22:04:12:267,0.0024169927928596735,0.0,0.9906898140907288,154.18154179141388,358.2086773972353,572.526318109356,-425.2442626953125,34.552284240722656,-0.020093001425266266,0.15633618831634521,-2.544006586074829,-0.006988524924963713,27.74918232161239,NW,,,,False,False,False,3,,,
108,22:04:12:314,0.0024169927928596735,0.0,0.9906898140907288,153.90466410992238,357.9315444617672,572.2493194820412,-424.9671325683594,34.54019546508789,-0.020169943571090698,0.16774260997772217,-2.530609369277954,-0.007812498603016138,28.447524825289946,NW,,,,False,False,False,3,,,
109,22:04:12:350,0.0024169927928596735,0.0,0.9906898140907288,153.90466410992238,357.9315444617672,572.2493194820412,-424.9671325683594,34.54019546508789,-0.020169943571090698,0.16774260997772217,-2.530609369277954,-0.007812498603016138,28.447524825289946,NW,,,,False,False,False,3,,,
110,22:04:12:375,0.0024169927928596735,0.0,0.9906898140907288,153.30270919298775,357.3289356142414,571.647099606477,-424.3646240234375,34.51413345336914,-0.020444029942154884,0.20836174488067627,-2.499420404434204,-0.008728024549782276,29.859648982363474,NW,,,,False,False,False,3,,,
111,22:04:12:400,0.0024169927928596735,0.0,0.9906898140907288,153.14922494324654,357.17536134688544,571.4935470194649,-424.21099853515625,34.50754165649414,-0.02050582878291607,0.21750053763389587,-2.491241455078125,-0.008880614303052425,30.199240511981504,NW,,,,False,False,False,3,,,
112,22:04:12:440,0.0024169927928596735,0.0,0.9906898140907288,152.87457671765503,356.9004920108597,571.2187759173436,-423.93609619140625,34.49578857421875,-0.020597189664840698,0.23101747035980225,-2.476532220840454,-0.009094239212572575,30.788484945167138,NW,,,,False,False,False,3,,,
113,22:04:12:469,0.0024169927928596735,0.0,0.9906898140907288,152.87457671765503,356.9004920108597,571.2187759173436,-423.93609619140625,34.49578857421875,-0.020597189664840698,0.23101747035980225,-2.476532220840454,-0.009094239212572575,30.788484945167138,NW,,,,False,False,False,3,,,
114,22:04:12:495,0.0024169927928596735,0.0,0.9906898140907288,152.2229896041956,356.24793651931384,570.5668934229502,-423.2839050292969,34.468162536621094,-0.020731773227453232,0.2508386969566345,-2.441315174102783,-0.009521485306322575,32.10374120866422,NW,,,,False,False,False,3,,,
115,22:04:12:521,0.0024169927928596735,0.0,0.9906898140907288,152.06148790402085,356.08634419573207,570.4053174837923,-423.12225341796875,34.46136474609375,-0.020750122144818306,0.25352978706359863,-2.43255615234375,-0.009643553756177425,32.41380502443195,NW,,,,False,False,False,3,,,
116,22:04:12:549,0.0024169927928596735,0.0,0.9906898140907288,151.76873115416976,355.79336099134184,570.1124257492208,-422.8292236328125,34.4491081237793,-0.020771559327840805,0.25665801763534546,-2.416717767715454,-0.009857176803052425,32.96147287887895,NW,,,,False,False,False,3,,,
117,22:04:12:585,0.0024169927928596735,0.0,0.9906898140907288,151.59110097860088,355.6156271339734,569.9347130243001,-422.65142822265625,34.441707611083984,-0.02077888511121273,0.2577098608016968,-2.407104969024658,-0.010009766556322575,33.28530365299336,NW,,,,False,False,False,3,,,
118,22:04:12:633,0.0024169927928596735,0.0,0.9906898140907288,150.9951024749678,355.01889398068636,569.3384357806648,-422.05487060546875,34.41706466674805,-0.020779991522431374,0.2578396201133728,-2.374908685684204,-0.010467528365552425,34.329997760373445,NW,,,,False,False,False,3,,,
119,22:04:12:666,0.0014099122490733862,0.0,0.9906898140907288,150.75649648169568,354.7801350185919,569.0997167058279,-421.8160400390625,34.40726089477539,-0.02077392488718033,0.2568902373313904,-2.362945795059204,-0.01031494140625,34.731752032600916,NW,,,,False,False,False,3,,,
120,22:04:12:697,0.001712036319077015,0.0,0.9906898140907288,150.3890461019218,354.41238395341946,568.7320908722148,-421.4482421875,34.392234802246094,-0.020760001614689827,0.2548685073852539,-2.346039295196533,-0.009887694381177425,35.333989962831645,NW,,,,False,False,False,3,,,
121,22:04:12:737,0.001712036319077015,0.0,0.9906898140907288,149.97278543805376,353.9957634256653,568.3156294518219,-421.0315856933594,34.37531280517578,-0.020741041749715805,0.2520066499710083,-2.328155517578125,-0.00958251766860485,35.99402858353749,NW,,,,False,False,False,3,,,
122,22:04:12:764,0.001712036319077015,0.0,0.9906898140907288,149.77223135003862,353.79509289693146,568.1149776778835,-420.8308410644531,34.36720275878906,-0.020730437710881233,0.2504357099533081,-2.319916248321533,-0.009521484375,36.30421321658725,NW,,,,False,False,False,3,,,
123,22:04:12:790,0.001712036319077015,0.0,0.9906898140907288,149.77223135003862,353.79509289693146,568.1149776778835,-420.8308410644531,34.36720275878906,-0.020730437710881233,0.2504357099533081,-2.319916248321533,-0.009521484375,36.30421321658725,NW,,,,False,False,False,3,,,
124,22:04:12:813,0.001712036319077015,0.0,0.9906898140907288,149.26603347089983,353.28839967507827,567.6085316189683,-420.32415771484375,34.34684371948242,-0.020704153925180435,0.24652883410453796,-2.29974365234375,-0.009490965865552425,37.067011591525144,NW,,,,False,False,False,3,,,
125,22:04:12:857,0.001712036319077015,0.0,0.9906898140907288,148.72898387453586,352.7508147702246,567.0712150551288,-419.7865905761719,34.32542037963867,-0.020676344633102417,0.24245120584964752,-2.279114007949829,-0.009613036178052425,37.84718827349317,NW,,,,False,False,False,3,,,
126,22:04:12:885,0.001712036319077015,0.0,0.9906898140907288,148.53882985348335,352.5605586812569,566.8809656434217,-419.59625244140625,34.31787872314453,-0.02066703699529171,0.2410578578710556,-2.271911859512329,-0.009674073196947575,38.11686531124152,NW,,,,False,False,False,3,,,
127,22:04:12:932,0.001712036319077015,0.0,0.9906898140907288,148.37514008532784,352.3967096801412,566.7171934209998,-419.4324035644531,34.3114013671875,-0.02065933123230934,0.23991721868515015,-2.265778064727783,-0.009735106490552425,38.346485292545765,NW,,,,False,False,False,3,,,
128,22:04:12:950,0.001712036319077015,0.0,0.9906898140907288,147.73181526875206,351.75268360134663,566.0735409537799,-418.7884521484375,34.28611373901367,-0.02058483101427555,0.22887279093265533,-2.241852045059204,-0.009979248046875,38.96015030257362,NW,,,,False,False,False,3,,,
129,22:04:12:977,0.001712036319077015,0.0,0.9906898140907288,147.57135815376304,351.5921490504555,565.9130010266017,-418.6278381347656,34.279842376708984,-0.02052413858473301,0.2198774367570877,-2.235809564590454,-0.010040283203125,38.96929763928902,NW,,,,False,False,False,N,,,
130,22:04:13:012,0.001712036319077015,0.0,0.9906898140907288,147.0471831215354,351.0675578124848,565.3885526805833,-418.1031494140625,34.25946044921875,-0.020233115181326866,0.17682676017284393,-2.215912103652954,-0.010223387740552425,38.95003261477742,NW,,,,False,False,False,N,,,
131,22:04:13:039,0.001712036319077015,0.0,0.9906898140907288,146.82867870152964,350.848932504603,565.1699334029125,-417.8844299316406,34.251014709472656,-0.02012122981250286,0.16027721762657166,-2.207550048828125,-0.010345458984375,39.110191766401144,NW,,,,False,False,False,N,,,
132,22:04:13:063,0.001712036319077015,0.0,0.9906898140907288,146.82867870152964,350.848932504603,565.1699334029125,-417.8844299316406,34.251014709472656,-0.02012122981250286,0.16027721762657166,-2.207550048828125,-0.010345458984375,39.110191766401144,NW,,,,False,False,False,N,,,
133,22:04:13:090,0.001712036319077015,0.0,0.9906898140907288,146.60700468724366,350.62713668357594,564.9481426706493,-417.66253662109375,34.24248123168945,-0.0200680922716856,0.15249761939048767,-2.19915771484375,-0.010467529296875,39.43717770611756,NW,,,,False,False,False,4,,,
134,22:04:13:117,0.001712036319077015,0.0,0.9906898140907288,145.9637246744761,349.9831454518309,564.304521887865,-417.01861572265625,34.217891693115234,-0.02013389579951763,0.16238774359226227,-2.175262451171875,-0.0108642578125,40.41391864806683,NW,,,,False,False,False,4,,,
135,22:04:13:145,0.001712036319077015,0.0,0.9906898140907288,145.56422467254512,349.5833520775964,563.9048082468753,-416.61871337890625,34.20273971557617,-0.020227469503879547,0.17628717422485352,-2.160736322402954,-0.011047362349927425,40.993432053474606,NW,,,,False,False,False,4,,,
136,22:04:13:171,0.001712036319077015,0.0,0.9906898140907288,145.3530115947788,349.37202448595207,563.6934813799281,-416.40728759765625,34.19477462768555,-0.020280303433537483,0.18409407138824463,-2.153106927871704,-0.011138916946947575,41.29054903825148,NW,,,,False,False,False,4,,,
137,22:04:13:199,0.0018127443036064506,0.0,0.9906898140907288,145.13042779418785,349.1493160690401,563.4707770706552,-416.1844787597656,34.186405181884766,-0.020332183688879013,0.19178487360477448,-2.145080804824829,-0.011260987259447575,41.59716566076431,NW,,,,False,False,False,4,,,
138,22:04:13:225,0.0018127443036064506,0.0,0.9906898140907288,145.13042779418785,349.1493160690401,563.4707770706552,-416.1844787597656,34.186405181884766,-0.020332183688879013,0.19178487360477448,-2.145080804824829,-0.011260987259447575,41.59716566076431,NW,,,,False,False,False,4,,,
139,22:04:13:248,0.0040283226408064365,0.0,0.9906898140907288,144.4915169367388,348.50977353941033,562.8315187701558,-415.544921875,34.1627082824707,-0.020447425544261932,0.20877838134765625,-2.114257574081421,-0.01425170712172985,42.44252784171832,NW,,,,False,False,False,4,,,
140,22:04:13:277,0.004934696946293116,0.0,0.9906898140907288,144.1031455102004,348.1209718123554,562.442935198144,-415.1561584472656,34.1485481262207,-0.02049228549003601,0.21539683640003204,-2.089507818222046,-0.0168762169778347,42.933661310785794,NW,,,,False,False,False,4,,,
141,22:04:13:306,0.0057403636164963245,0.0,0.9906898140907288,143.688371475615,347.7058972231561,562.0279342479753,-414.740966796875,34.13365936279297,-0.02052341401576996,0.2199457436800003,-2.057312250137329,-0.02020263485610485,43.44106568280215,NW,,,,False,False,False,4,,,
142,22:04:13:332,0.0060424888506531715,0.0,0.9906898140907288,143.47084665613474,347.48825832519583,561.8102903230586,-414.5232238769531,34.125953674316406,-0.020533598959445953,0.22143472731113434,-2.038208484649658,-0.022003173828125,43.70067881404289,NW,,,,False,False,False,4,,,
143,22:04:13:359,0.0060424888506531715,0.0,0.9906898140907288,143.47084665613474,347.48825832519583,561.8102903230586,-414.5232238769531,34.125953674316406,-0.020533598959445953,0.22143472731113434,-2.038208484649658,-0.022003173828125,43.70067881404289,NW,,,,False,False,False,4,,,
144,22:04:13:401,0.008157368749380112,0.0,0.9906898140907288,142.53994695780028,346.5562498512781,560.8788846678414,-413.5914001464844,34.09403610229492,-0.020543022081255913,0.22273245453834534,-1.9313353300094604,-0.0323181115090847,44.76557587802293,NW,,,,False,False,False,4,,,
145,22:04:13:427,0.010574384592473507,0.0,0.9906898140907288,142.313087537757,346.3292743576872,560.6519031894512,-413.36431884765625,34.086544036865234,-0.020539473742246628,0.22219286859035492,-1.899261474609375,-0.0352477952837944,45.0147295741194,NW,,,,False,False,False,4,,,
146,22:04:13:455,0.011682188138365746,0.0,0.9906898140907288,141.88201618806087,345.897908284355,560.2206025105664,-412.9328308105469,34.07269287109375,-0.02052871696650982,0.2205604612827301,-1.8298951387405396,-0.04168701171875,45.47820005063512,NW,,,,False,False,False,4,,,
147,22:04:13:482,0.011682188138365746,0.0,0.9906898140907288,141.66124898861216,345.677034435117,559.9997192475743,-412.71185302734375,34.065799713134766,-0.0205216221511364,0.2195017784833908,-1.79046630859375,-0.0451354943215847,45.710869869762405,NW,,,,False,False,False,4,,,
148,22:04:13:508,0.011682188138365746,0.0,0.9906898140907288,141.66124898861216,345.677034435117,559.9997192475743,-412.71185302734375,34.065799713134766,-0.0205216221511364,0.2195017784833908,-1.79046630859375,-0.0451354943215847,45.710869869762405,NW,,,,False,False,False,4,,,
149,22:04:13:534,0.011682188138365746,0.0,0.9906898140907288,140.9093865777614,344.9244601713753,559.2474693051769,-411.95928955078125,34.043365478515625,-0.020492782816290855,0.21521241962909698,-1.641571044921875,-0.0558471605181694,46.48121211586285,NW,,,,False,False,False,4,,,
150,22:04:13:561,0.011782897636294365,0.0,0.9906898140907288,140.4949077053404,344.5097277936138,558.8327823401985,-411.54443359375,34.03169250488281,-0.020475959405303,0.21272623538970947,-1.552734375,-0.0606994591653347,46.89246837615101,NW,,,,False,False,False,4,,,
151,22:04:13:588,0.011782897636294365,0.0,0.9906898140907288,140.274676023045,344.28940004891217,558.6124419442075,-411.3240051269531,34.025699615478516,-0.020466994494199753,0.21137385070323944,-1.5040584802627563,-0.06314084678888321,47.10750098218441,NW,,,,False,False,False,4,,,
152,22:04:13:616,0.011782897636294365,0.0,0.9906898140907288,139.80584778196624,343.82027347613194,558.1433867071387,-410.8547668457031,34.01346206665039,-0.0204473864287138,0.2084915190935135,-1.3977965116500854,-0.0681152269244194,47.557488697504695,NW,,,,False,False,False,4,,,
153,22:04:13:640,0.011782897636294365,0.0,0.9906898140907288,139.80584778196624,343.82027347613194,558.1433867071387,-410.8547668457031,34.01346206665039,-0.0204473864287138,0.2084915190935135,-1.3977965116500854,-0.0681152269244194,47.557488697504695,NW,,,,False,False,False,4,,,
154,22:04:13:674,0.011782897636294365,0.0,0.9906898140907288,139.00009731124632,343.01381204602325,557.3372624062165,-410.04833984375,33.994110107421875,-0.02041534334421158,0.20373770594596863,-1.2094115018844604,-0.0758972018957138,48.30845686323385,NW,,,,False,False,False,4,,,
155,22:04:13:708,0.011782897636294365,0.0,0.9906898140907288,138.57041962725992,342.5839026645768,556.9073945483951,-409.6183166503906,33.984683990478516,-0.0203995518386364,0.20141543447971344,-1.1070860624313354,-0.0796813815832138,48.69837369303914,NW,,,,False,False,False,4,,,
156,22:04:13:733,0.011782897636294365,0.0,0.9906898140907288,138.32787220260792,342.34126221773585,556.6647427342415,-409.3755798339844,33.979652404785156,-0.020390968769788742,0.20013819634914398,-1.048919677734375,-0.08178708702325821,48.91551376197706,NW,,,,False,False,False,4,,,
157,22:04:13:760,0.011782897636294365,0.0,0.9906898140907288,138.11761493270177,342.13085407322586,556.4543966989789,-409.1651611328125,33.9754524230957,-0.020383795723319054,0.19908633828163147,-0.99835205078125,-0.0835266038775444,49.10206294028598,NW,,,,False,False,False,4,,,
158,22:04:13:785,0.011782897636294365,0.0,0.9906898140907288,138.11761493270177,342.13085407322586,556.4543966989789,-409.1651611328125,33.9754524230957,-0.020383795723319054,0.19908633828163147,-0.99835205078125,-0.0835266038775444,49.10206294028598,NW,,,,False,False,False,4,,,
159,22:04:13:812,0.011782897636294365,0.0,0.9906898140907288,137.0681724003055,341.0804060344825,555.4045378200199,-408.1149597167969,33.956886291503906,-0.020351141691207886,0.194271057844162,-0.7446290254592896,-0.0919799730181694,50.0118389023863,NW,,,,False,False,False,4,,,
160,22:04:13:859,0.011782897636294365,0.0,0.9906898140907288,136.55511650153613,340.5670874052053,554.8912958429546,-407.6015625,33.94929504394531,-0.020336799323558807,0.19216053187847137,-0.6202391386032104,-0.0958862155675888,50.44481448559971,NW,,,,False,False,False,4,,,
161,22:04:13:885,0.01107793115079403,0.0,0.9906898140907288,136.0592132362055,340.0709507376776,554.3952237323294,-407.1053466796875,33.94287109375,-0.020324477925896645,0.19033004343509674,-0.50079345703125,-0.09912109375,50.85661435218185,NW,,,,False,False,False,4,,,
162,22:04:13:912,0.01107793115079403,0.0,0.9906898140907288,136.0592132362055,340.0709507376776,554.3952237323294,-407.1053466796875,33.94287109375,-0.020324477925896645,0.19033004343509674,-0.50079345703125,-0.09912109375,50.85661435218185,NW,,,,False,False,False,4,,,
163,22:04:13:937,0.01107793115079403,0.0,0.9906898140907288,136.0592132362055,340.0709507376776,554.3952237323294,-407.1053466796875,33.94287109375,-0.020324477925896645,0.19033004343509674,-0.50079345703125,-0.09912109375,50.85661435218185,NW,,,,False,False,False,4,,,
164,22:04:13:962,0.005841071717441082,0.0,0.9906898140907288,134.99632778693015,339.00717633103204,553.3320051533682,-406.0418395996094,33.93151092529297,-0.02030200883746147,0.18698324263095856,-0.2802734076976776,-0.0958557203412056,51.72032830920712,N,,,,False,False,False,4,,,
165,22:04:13:994,0.002316284691914916,0.0,0.9906898140907288,134.49720912815764,338.50785567636154,552.8327421376414,-405.5424499511719,33.92719650268555,-0.020292891189455986,0.18561720848083496,-0.197998046875,-0.091461181640625,52.11743095978516,N,,,,False,False,False,4,,,
166,22:04:14:020,-0.0014099122490733862,0.0,0.9906898140907288,134.22434298748308,338.23492323264543,552.5597994564192,-405.2694396972656,33.925045013427734,-0.020288122817873955,0.18491369485855103,-0.1613464206457138,-0.0877075046300888,52.332423918795804,N,,,,False,False,False,4,,,
167,22:04:14:047,-0.0014099122490733862,0.0,0.9906898140907288,134.22434298748308,338.23492323264543,552.5597994564192,-405.2694396972656,33.925045013427734,-0.020288122817873955,0.18491369485855103,-0.1613464206457138,-0.0877075046300888,52.332423918795804,N,,,,False,False,False,4,,,
168,22:04:14:090,-0.0033233657013624907,0.0,0.9906898140907288,133.13438666427348,337.14411350653626,551.4695480758468,-404.1789245605469,33.91748809814453,-0.020271796733140945,0.18248897790908813,-0.0797729417681694,-0.067901611328125,53.17698306950857,N,,,,False,False,False,4,,,
169,22:04:14:117,-0.0033233657013624907,0.0,0.9906898140907288,132.8339683700969,336.8436314631784,551.1690513075198,-403.87835693359375,33.91568374633789,-0.02026798203587532,0.18193574249744415,-0.0709228366613388,-0.0632324144244194,53.4060554136104,N,,,,False,False,False,4,,,
170,22:04:14:144,-0.003121949266642332,0.0,0.9906898140907288,132.34988986323143,336.3593898342164,550.6848485777653,-403.39404296875,33.91300964355469,-0.020262107253074646,0.18106147646903992,-0.06573486328125,-0.056182846426963806,53.77194823880243,N,,,,False,False,False,4,,,
171,22:04:14:170,-0.003121949266642332,0.0,0.9906898140907288,132.08729020439145,336.09673958681316,550.4221825362739,-403.1313171386719,33.91166305541992,-0.020259132608771324,0.18061068654060364,-0.0667419284582138,-0.052703846246004105,53.968852831805165,N,,,,False,False,False,4,,,
172,22:04:14:201,-0.003121949266642332,0.0,0.9906898140907288,132.08729020439145,336.09673958681316,550.4221825362739,-403.1313171386719,33.91166305541992,-0.020259132608771324,0.18061068654060364,-0.0667419284582138,-0.052703846246004105,53.968852831805165,N,,,,False,False,False,4,,,
173,22:04:14:225,-0.003121949266642332,0.0,0.9906898140907288,131.20041182259916,335.20934340968967,549.5350830193258,-402.2440185546875,33.90752029418945,-0.020250091329216957,0.1792583018541336,-0.0848998874425888,-0.0420532152056694,54.62616264049894,N,,,,False,False,False,4,,,
174,22:04:14:251,-0.003121949266642332,0.0,0.9906898140907288,130.70165329433198,334.7104216423836,549.0362009670143,-401.7450256347656,33.9053840637207,-0.02024555206298828,0.17859578132629395,-0.1026306077837944,-0.0364990234375,54.990785644698555,N,,,,False,False,False,4,,,
175,22:04:14:277,-0.003121949266642332,0.0,0.9906898140907288,130.4366410962364,334.4455496409479,548.7711230171683,-401.4798889160156,33.9042854309082,-0.020243452861905098,0.1782747507095337,-0.1136779636144638,-0.0335998497903347,55.18314965145858,N,,,,False,False,False,4,,,
176,22:04:14:305,-0.003121949266642332,0.0,0.9906898140907288,129.89764928874453,333.9085489895584,548.2319968936285,-400.9406433105469,33.902095794677734,-0.02023925818502903,0.17766687273979187,-0.1388244777917862,-0.02795410342514515,55.57158080579832,N,,,,False,False,False,4,,,
177,22:04:14:337,-0.003121949266642332,0.0,0.9906898140907288,129.89764928874453,333.9085489895584,548.2319968936285,-400.9406433105469,33.902095794677734,-0.02023925818502903,0.17766687273979187,-0.1388244777917862,-0.02795410342514515,55.57158080579832,N,,,,False,False,False,4,,,
178,22:04:14:398,-0.003121949266642332,0.0,0.9906898140907288,128.4598603256087,332.4768068075998,546.7938385139414,-399.5021667480469,33.89616775512695,-0.020230064168572426,0.17628717422485352,-0.21783447265625,-0.012817381881177425,56.59002533297223,N,,,,False,False,False,4,,,
179,22:04:14:424,-0.003121949266642332,0.0,0.9906898140907288,128.1958297329872,332.2128456343725,546.5297376680433,-399.2380065917969,33.895023345947266,-0.02022865228354931,0.17606177926063538,-0.233551025390625,-0.01016235165297985,56.774425310680314,N,,,,False,False,False,4,,,
180,22:04:14:470,-0.003121949266642332,0.0,0.9906898140907288,127.624550406295,331.64130458976206,545.9583029436387,-398.66644287109375,33.8924446105957,-0.02022571489214897,0.17562463879585266,-0.2683410048484802,-0.004608153831213713,57.17071419609187,N,,,,False,False,False,4,,,
181,22:04:14:496,-0.003121949266642332,0.0,0.9906898140907288,127.624550406295,331.64130458976206,545.9583029436387,-398.66644287109375,33.8924446105957,-0.02022571489214897,0.17562463879585266,-0.2683410048484802,-0.004608153831213713,57.17071419609187,N,,,,False,False,False,4,,,
182,22:04:14:526,-0.003121949266642332,0.0,0.9906898140907288,126.3936209320895,330.40930237608666,544.7270211581659,-397.43487548828125,33.88630676269531,-0.02022048830986023,0.1748596578836441,-0.345458984375,0.0060315788723528385,58.01298770265643,N,,,,False,False,False,4,,,
183,22:04:14:557,-0.003121949266642332,0.0,0.9906898140907288,126.1094712577529,330.12493639818763,544.442786133658,-397.15057373046875,33.88475036621094,-0.02021961100399494,0.17470256984233856,-0.363494873046875,0.008328721858561039,58.205654894183695,N,,,,False,False,False,4,,,
184,22:04:14:579,-0.003121949266642332,0.0,0.9906898140907288,125.56856841353401,329.5836513780579,543.901716141338,-396.609375,33.88162612915039,-0.020186537876725197,0.16978482902050018,-0.39794921875,0.012367974035441875,58.38715675497506,N,,,,False,False,False,N,,,
185,22:04:14:622,-0.003121949266642332,0.0,0.9906898140907288,125.26371471353893,329.2786186155923,543.5967653844086,-396.3043518066406,33.87976837158203,-0.020133666694164276,0.1619642674922943,-0.4174193739891052,0.01455782912671566,58.40828469850412,N,,,,False,False,False,N,,,
186,22:04:14:657,-0.003121949266642332,0.0,0.9906898140907288,124.28667737674397,328.3010714465095,542.6194027042958,-395.3267517089844,33.87331008911133,-0.019875792786478996,0.12381765991449356,-0.4801330864429474,0.020804699510335922,58.451271659202796,N,,,,False,False,False,N,,,
187,22:04:14:666,-0.003121949266642332,0.0,0.9906898140907288,124.28667737674397,328.3010714465095,542.6194027042958,-395.3267517089844,33.87331008911133,-0.019875792786478996,0.12381765991449356,-0.4801330864429474,0.020804699510335922,58.451271659202796,N,,,,False,False,False,N,,,
188,22:04:14:712,-0.003121949266642332,0.0,0.9906898140907288,123.48793705235013,327.5020336674051,541.8203802460569,-394.52752685546875,33.8674201965332,-0.019818343222141266,0.11540970206260681,-0.5315245985984802,0.025074999779462814,59.004935083678994,NW,,,,False,False,False,5,,,
189,22:04:14:761,-0.0027191168628633022,0.0,0.9906898140907288,122.90737128372292,326.92129468409985,541.239599839861,-393.94659423828125,33.86277770996094,-0.019864730536937714,0.12232185155153275,-0.568115234375,0.027584010735154152,59.43041546995609,NW,,,,False,False,False,5,,,
190,22:04:14:786,-0.0027191168628633022,0.0,0.9906898140907288,122.90737128372292,326.92129468409985,541.239599839861,-393.94659423828125,33.86277770996094,-0.019864730536937714,0.12232185155153275,-0.568115234375,0.027584010735154152,59.43041546995609,NW,,,,False,False,False,5,,,
191,22:04:14:815,0.0008056641090661287,0.0,0.9906898140907288,121.64245523017281,325.6560575692361,539.974194054552,-392.68084716796875,33.852046966552734,-0.02001323737204075,0.1443355530500412,-0.6235352158546448,0.025655176490545273,60.32169543149081,NW,,,,False,False,False,5,,,
192,22:04:14:872,0.004229739308357239,0.0,0.9906898140907288,120.75392737319436,324.7673551708848,539.0853059734471,-391.7917175292969,33.844173431396484,-0.02012680098414421,0.15481989085674286,-0.6358641982078552,0.019135622307658195,60.917465441578464,NW,,,,False,False,False,5,,,
193,22:04:14:896,0.004229739308357239,0.0,0.9906898140907288,120.45490845144656,324.46829843244757,538.7861636012013,-391.49249267578125,33.84149932861328,-0.02018146403133869,0.15591271221637726,-0.6341552138328552,0.016519559547305107,61.11285965973454,NW,,,,False,False,False,5,,,
194,22:04:14:924,0.004229739308357239,0.0,0.9906898140907288,120.45490845144656,324.46829843244757,538.7861636012013,-391.49249267578125,33.84149932861328,-0.02018146403133869,0.15591271221637726,-0.6341552138328552,0.016519559547305107,61.11285965973454,NW,,,,False,False,False,5,,,
195,22:04:14:959,0.004229739308357239,0.0,0.9906898140907288,119.18803347358609,323.2012167684766,537.5187544360356,-390.2247314453125,33.83014678955078,-0.020470885559916496,0.151835098862648,-0.601593017578125,0.006879971828311682,61.915334197416286,NW,,,,False,False,False,5,,,
196,22:04:14:999,0.004229739308357239,0.0,0.9906898140907288,118.60065038133962,322.6137603350324,536.9311182794467,-389.6369323730469,33.824920654296875,-0.020627327263355255,0.14742963016033173,-0.5759581923484802,0.002632603282108903,62.27486411706386,NW,,,,False,False,False,5,,,
197,22:04:15:024,0.004229739308357239,0.0,0.9906898140907288,118.28218222661357,322.29525712596484,536.61251194651,-389.3182373046875,33.82211685180664,-0.020732345059514046,0.1457015872001648,-0.5599669218063354,0.0002675452269613743,62.46679099830431,NW,,,,False,False,False,5,,,
198,22:04:15:056,0.004229739308357239,0.0,0.9906898140907288,118.28218222661357,322.29525712596484,536.61251194651,-389.3182373046875,33.82211685180664,-0.020732345059514046,0.1457015872001648,-0.5599669218063354,0.0002675452269613743,62.46679099830431,NW,,,,False,False,False,5,,,
199,22:04:15:080,0.004229739308357239,0.0,0.9906898140907288,117.26603454620174,321.2789713427169,535.5959197290864,-388.3013610839844,33.813377380371094,-0.021139182150363922,0.1426963061094284,-0.5013427138328552,-0.006591796409338713,63.06587951208611,NW,,,,False,False,False,5,,,
200,22:04:15:106,0.004229739308357239,0.0,0.9906898140907288,116.67533415647692,320.6882021347871,535.0049593095656,-387.7102355957031,33.808494567871094,-0.021399153396487236,0.1418425291776657,-0.4632873237133026,-0.010681151412427425,63.40561596189574,N,,,,False,False,False,5,,,
201,22:04:15:135,0.004229739308357239,0.0,0.9906898140907288,116.11939540928375,320.13220009175967,534.4487764067287,-387.1539001464844,33.804134368896484,-0.02160041779279709,0.14428773522377014,-0.4254455268383026,-0.0234375,63.71984379523212,N,,,,False,False,False,5,,,
202,22:04:15:184,0.004229739308357239,0.0,0.9906898140907288,115.77616290417181,319.78893799301386,534.1053930222151,-386.8104248046875,33.801536560058594,-0.02168174646794796,0.14831072092056274,-0.4013061225414276,-0.03106689639389515,63.91136832669053,N,,,,False,False,False,5,,,
203,22:04:15:209,0.004229739308357239,0.0,0.9906898140907288,115.77616290417181,319.78893799301386,534.1053930222151,-386.8104248046875,33.801536560058594,-0.02168174646794796,0.14831072092056274,-0.4013061225414276,-0.03106689639389515,63.91136832669053,N,,,,False,False,False,5,,,
204,22:04:15:234,0.004229739308357239,0.0,0.9906898140907288,114.37401535191802,318.38663749452564,532.7026260643195,-385.40728759765625,33.79154586791992,-0.021837959066033363,0.16927939653396606,-0.2986754775047302,-0.0317687951028347,64.6771756831523,N,,,,False,False,False,5,,,
205,22:04:15:260,0.004229739308357239,0.0,0.9906898140907288,114.05017429520164,318.06275743155237,532.3786435390577,-385.0832214355469,33.78948211669922,-0.021864699199795723,0.17262619733810425,-0.2742919623851776,-0.0334777794778347,64.8505233221133,N,,,,False,False,False,5,,,
206,22:04:15:287,0.0040283226408064365,0.0,0.9906898140907288,113.44441957317004,317.4569469046332,531.7726261849037,-384.47705078125,33.78589630126953,-0.0218511950224638,0.17401954531669617,-0.2283935695886612,-0.0412902906537056,65.17150955423783,N,,,,False,False,False,5,,,
207,22:04:15:312,0.0040283226408064365,0.0,0.9906898140907288,113.11441310890865,317.12690949333955,531.4424771847039,-384.1468200683594,33.78406524658203,-0.02180633507668972,0.1722368746995926,-0.203338623046875,-0.0439148023724556,65.34480253059125,N,,,,False,False,False,5,,,
208,22:04:15:349,0.0040283226408064365,0.0,0.9906898140907288,113.11441310890865,317.12690949333955,531.4424771847039,-384.1468200683594,33.78406524658203,-0.02180633507668972,0.1722368746995926,-0.203338623046875,-0.0439148023724556,65.34480253059125,N,,,,False,False,False,5,,,
209,22:04:15:376,0.0040283226408064365,0.0,0.9906898140907288,111.7773845310211,315.7897685721248,530.1048791859129,-382.80889892578125,33.77766418457031,-0.021579397842288017,0.16206671297550201,-0.101837158203125,-0.0466918908059597,66.03559547337957,N,,,,False,False,False,5,,,
210,22:04:15:401,0.0040283226408064365,0.0,0.9906898140907288,111.43248510978245,315.4448429966656,529.7598360425374,-382.4637756347656,33.77631759643555,-0.021536903455853462,0.1602977067232132,-0.0756835862994194,-0.0480346716940403,66.21104081352328,N,,,,False,False,False,5,,,
211,22:04:15:432,0.0040283226408064365,0.0,0.9906898140907288,110.82938837767225,314.8417017473973,529.1564909419092,-381.86029052734375,33.774253845214844,-0.02147907204926014,0.1579071283340454,-0.029998769983649254,-0.050506580621004105,66.51533874962512,N,,,,False,False,False,5,,,
