tick,time,Steer,Brake,Throttle,Distance_Bicycle,Distance_Motorbike,Distance_SmallCar,Location_X,Location_Y,Location_Z,Rotation_Pitch,Rotation_Yaw,Rotation_Roll,Speed_kmh,Heading,GNSS_Latitude,GNSS_Longitude,Height,Reverse,Hand_Brake,Manual,Gear,Collision_History,Nearby_Vehicles_Count,Nearby_Vehicles_Details
0,22:03:27:401,0.0,0.6212635636329651,0.6212635636329651,162.81973608266028,366.9127435861275,581.1855527766812,-433.8999938964844,34.900001525878906,0.7396619319915771,0.0,0.0,0.0,17.767735290527344,N,,,,False,False,False,N,,,
1,22:03:27:439,0.0,0.6212635636329651,0.6212635636329651,162.821835640644,366.9210810879473,581.1895413058678,-433.8999938964844,34.900001525878906,0.4926329553127289,0.0,0.0,0.0,19.44147663116455,N,,,,False,False,False,N,,,
2,22:03:27:466,0.0,0.6212635636329651,0.6212635636329651,162.82287727647784,366.9247991237854,581.1913280251835,-433.8999938964844,34.900001525878906,0.38403013348579407,0.0,0.0,0.0,20.132537269592287,N,,,,False,False,False,N,,,
3,22:03:27:491,0.0,0.6212635636329651,0.6212635636329651,162.82287727647784,366.9247991237854,581.1913280251835,-433.8999938964844,34.900001525878906,0.38403013348579407,0.0,0.0,0.0,20.132537269592287,N,,,,False,False,False,N,,,
4,22:03:27:515,0.0,0.6212635636329651,0.6212635636329651,162.82619108729722,366.9354159604464,581.196455997058,-433.8999938964844,34.900001525878906,0.07893310487270355,0.0,0.0,0.0,21.9621883392334,N,,,,False,False,False,N,,,
5,22:03:27:540,0.0,0.6212635636329651,0.6212635636329651,162.82742143156446,366.9390075449177,581.1981991207299,-433.8999938964844,34.900001525878906,-0.02266261912882328,0.0,0.0,0.0,18.655698394777037,N,,,,False,False,False,N,,,
6,22:03:27:549,0.0,0.6212635636329651,0.6212635636329651,162.828241622402,366.94131953473806,581.199323371557,-433.8999938964844,34.900001525878906,-0.0876455307006836,0.0,0.0,0.0,14.899960327149978,N,,,,False,False,False,N,,,
7,22:03:27:576,0.0,0.6212635636329651,0.6212635636329651,162.82838800589374,366.94172582468383,581.1995211104983,-433.8999938964844,34.900001525878906,-0.09903182834386826,0.0,0.0,0.0,0.6011319623716663,N,,,,False,False,False,N,,,
8,22:03:27:602,0.0,0.6212635636329651,0.6212635636329651,162.82706664978107,366.9402057113177,581.1981565997985,-433.8987731933594,34.89934158325195,-0.09049827605485916,0.18476343154907227,-0.00033569338847883046,-0.29107666015625,1.167506139042323,N,,,,False,False,False,N,,,
9,22:03:27:629,0.0,0.6212635636329651,0.6212635636329651,162.8265979493148,366.93960456870366,581.1976607752797,-433.89837646484375,34.89920425415039,-0.08473457396030426,0.2503742277622223,-0.0011291502742096782,-0.3938293755054474,1.2028778415906727,N,,,,False,False,False,N,,,
10,22:03:27:656,0.0,0.6212635636329651,0.6212635636329651,162.8265979493148,366.93960456870366,581.1976607752797,-433.89837646484375,34.89920425415039,-0.08473457396030426,0.2503742277622223,-0.0011291502742096782,-0.3938293755054474,1.2028778415906727,N,,,,False,False,False,N,,,
11,22:03:27:680,0.0,0.6212635636329651,0.6212635636329651,162.82605024425476,366.9386652211214,581.1970324940062,-433.8980407714844,34.89884567260742,-0.06772308051586151,0.3062315285205841,-0.001983642578125,-0.473541259765625,1.1446854791906458,N,,,,False,False,False,N,,,
12,22:03:27:716,0.0,0.6212635636329651,0.6212635636329651,162.82611819184575,366.9384065715383,581.1970328780624,-433.8982849121094,34.898616790771484,-0.05355960875749588,0.27524977922439575,-0.0015258787898346782,-0.42071533203125,0.96736539401715,N,,,,False,False,False,N,,,
13,22:03:27:742,0.0,0.6212635636329651,0.6212635636329651,162.82624185138135,366.93841999361945,581.1971336887704,-433.8984680175781,34.8985595703125,-0.04878173768520355,0.2549436390399933,-0.001251220703125,-0.388641357421875,0.8894983040768635,N,,,,False,False,False,N,,,
14,22:03:27:769,0.0,0.6212635636329651,0.6212635636329651,162.82645251977326,366.93845554316124,581.1973080360802,-433.8987731933594,34.898494720458984,-0.04119117558002472,0.2152738869190216,-0.0007629393367096782,-0.3275756537914276,0.7405384779787102,N,,,,False,False,False,N,,,
15,22:03:27:812,0.0,0.6212635636329651,0.6212635636329651,162.82645251977326,366.93845554316124,581.1973080360802,-433.8987731933594,34.898494720458984,-0.04119117558002472,0.2152738869190216,-0.0007629393367096782,-0.3275756537914276,0.7405384779787102,N,,,,False,False,False,N,,,
16,22:03:27:832,0.0,0.6212635636329651,0.6212635636329651,162.82673735509218,366.9385329285822,581.1975497482249,-433.899169921875,34.8984489440918,-0.0322016142308712,0.15686894953250885,-0.00018310546875,-0.2397155910730362,0.5275248151246912,N,,,,False,False,False,N,,,
17,22:03:27:846,0.0,0.6212635636329651,0.6212635636329651,162.82685900335275,366.93859727939207,581.1976594876613,-433.8993225097656,34.89844512939453,-0.029719047248363495,0.13833864033222198,-6.1035138060105965e-05,-0.2121581733226776,0.45884816504402187,N,,,,False,False,False,N,,,
18,22:03:27:898,0.0,0.6212635636329651,0.6212635636329651,162.82715690536062,366.9387687430849,581.1979311021305,-433.8996887207031,34.8984489440918,-0.02424091286957264,0.0929042249917984,0.00022352450469043106,-0.14483642578125,0.2898383745735621,N,,,,False,False,False,N,,,
19,22:03:27:927,0.0,0.6212635636329651,0.6212635636329651,162.82730778860906,366.93886001446026,581.1980695871941,-433.8998718261719,34.89845657348633,-0.02165813371539116,0.06843849271535873,0.00032682414166629314,-0.1086425632238388,0.20152614259796295,N,,,,False,False,False,N,,,
20,22:03:27:954,0.0,0.6212635636329651,0.6212635636329651,162.82730778860906,366.93886001446026,581.1980695871941,-433.8998718261719,34.89845657348633,-0.02165813371539116,0.06843849271535873,0.00032682414166629314,-0.1086425632238388,0.20152614259796295,N,,,,False,False,False,N,,,
21,22:03:27:978,0.0,0.6212635636329651,0.6212635636329651,162.82746640973653,366.93897356925066,581.1982188774102,-433.9000549316406,34.89847183227539,-0.019704284146428108,0.04600132256746292,0.0003956089203711599,-0.0751342624425888,0.11398412980724029,N,,,,False,False,False,N,,,
22,22:03:28:005,0.0,0.6212635636329651,0.6212635636329651,162.82757739106867,366.9390641377847,581.1983256356633,-433.9001770019531,34.89847946166992,-0.018820075318217278,0.03367283195257187,0.00042255231528542936,-0.056518543511629105,0.0698814225135025,N,,,,False,False,False,N,,,
23,22:03:28:031,0.0,0.6212635636329651,0.6212635636329651,162.82763449908987,366.93911416927654,581.1983813092252,-433.9002380371094,34.89848709106445,-0.018512457609176636,0.02829747274518013,0.00043188693234696984,-0.0483093224465847,0.05082588485904225,N,,,,False,False,False,N,,,
24,22:03:28:059,0.0,0.6212635636329651,0.6212635636329651,162.8276603808348,366.93913165839575,581.1984054769871,-433.9002685546875,34.898494720458984,-0.018147200345993042,0.02066132053732872,0.0004426220548339188,-0.0364990234375,0.027076897848412912,N,,,,False,False,False,N,,,
25,22:03:28:074,0.0,0.6212635636329651,0.6212635636329651,162.82768960918168,366.9391584804262,581.198434203561,-433.9002990722656,34.898494720458984,-0.01804359443485737,0.01766969822347164,0.0004460324125830084,-0.0317687951028347,0.019106601667078935,N,,,,False,False,False,N,,,
26,22:03:28:101,0.0,0.6212635636329651,0.6212635636329651,162.82768886072094,366.93915646058747,581.1984332100476,-433.9002990722656,34.89849853515625,-0.017987364903092384,0.014807849191129208,0.0004488346166908741,-0.0272216796875,0.009803145274265972,N,,,,False,False,False,N,,,
27,22:03:28:143,0.0,0.6212635636329651,0.6212635636329651,162.82778033276642,366.93924788950767,581.1985247039578,-433.900390625,34.898502349853516,-0.01798625849187374,0.008435282856225967,0.00045358232455328107,-0.01678466796875,0.011669318257352998,N,,,,False,False,False,N,,,
28,22:03:28:175,0.0,0.6212635636329651,0.6212635636329651,162.8277817969391,366.93925220340606,581.198526787723,-433.900390625,34.89850616455078,-0.018108557909727097,0.005771509371697903,0.000454900786280632,-0.01223754696547985,0.0173474530443868,N,,,,False,False,False,N,,,
29,22:03:28:203,0.002517700893804431,0.0,0.11275610327720642,162.82781347203752,366.93928602909097,581.1985589170652,-433.9004211425781,34.89850616455078,-0.018202362582087517,0.004658188670873642,0.0004552686878014356,-0.010284423828125,0.019862444367874592,N,,,,False,False,False,N,,,
30,22:03:28:231,0.002517700893804431,0.0,0.3681296706199646,162.82781510283618,366.9392906968569,581.1985611849353,-433.9004211425781,34.89850616455078,-0.018333930522203445,0.003182868007570505,0.00045565346954390407,-0.007568358443677425,0.014721814314851808,N,,,,False,False,False,N,,,
31,22:03:28:283,0.002517700893804431,0.0,0.5286369919776917,162.82781522435093,366.9392910446531,581.1985613539151,-433.9004211425781,34.89850616455078,-0.018343733623623848,0.0031009058002382517,0.00042846365249715745,-0.007415770553052425,0.004711506761023384,N,,,,False,False,False,N,,,
32,22:03:28:290,0.002517700893804431,0.0,0.5286369919776917,162.82781522435093,366.9392910446531,581.1985613539151,-433.9004211425781,34.89850616455078,-0.018343733623623848,0.0031009058002382517,0.00042846365249715745,-0.007415770553052425,0.004711506761023384,N,,,,False,False,False,N,,,
33,22:03:28:321,0.002517700893804431,0.0,0.6287944912910461,162.805274338715,366.91677705639046,581.176024098936,-433.87786865234375,34.89855194091797,-0.019023513421416283,0.08524758368730545,0.001998653868213296,-0.006103515625,1.913994663071283,N,,,,False,False,False,1,,,
34,22:03:28:349,0.002517700893804431,0.0,0.676366925239563,162.7826083856454,366.89413231206356,581.1533605468975,-433.8551940917969,34.89859390258789,-0.01945541426539421,0.13243736326694489,0.0035953999031335115,-0.00531005859375,2.5689374491925028,N,,,,False,False,False,1,,,
35,22:03:28:375,0.002517700893804431,0.0,0.676366925239563,162.7681781644341,366.87971394049384,581.1389315068855,-433.84075927734375,34.89862060546875,-0.019658774137496948,0.1527230143547058,0.004608882591128349,-0.0048828125,2.862035089448286,N,,,,False,False,False,1,,,
36,22:03:28:403,0.002517700893804431,0.0,0.7617592811584473,162.7346476300142,366.8462064591074,581.1054027707467,-433.8072204589844,34.898681640625,-0.019937438890337944,0.18166252970695496,0.0069573563523590565,-0.004058837424963713,3.371241333855893,N,,,,False,False,False,1,,,
37,22:03:28:423,0.002517700893804431,0.0,0.7907447814941406,162.716158235362,366.82772909648594,581.0869142063,-433.7887268066406,34.898712158203125,-0.020062560215592384,0.18998169898986816,0.008244560100138187,-0.0036926271859556437,3.5895946300258212,N,,,,False,False,False,1,,,
38,22:03:28:450,0.002517700893804431,0.0,0.7907447814941406,162.6984920295058,366.8100734435453,581.0692486250914,-433.77105712890625,34.898746490478516,-0.020139655098319054,0.19468086957931519,0.009478176012635231,-0.0033569333609193563,3.773709507193006,N,,,,False,False,False,1,,,
39,22:03:28:477,0.002517700893804431,0.0,0.82808917760849,162.66129767403734,366.77289981648886,581.0320552505889,-433.7338562011719,34.8988151550293,-0.02023845538496971,0.1972626894712448,0.012065400369465351,-0.0028076167218387127,4.1040284941620815,N,,,,False,False,False,1,,,
40,22:03:28:504,0.002517700893804431,0.0,0.855181097984314,162.6390236143526,366.7506377692353,581.0097816763647,-433.7115783691406,34.89885330200195,-0.020281104370951653,0.19563709199428558,0.013607705011963844,-0.002532958984375,4.275510040221667,N,,,,False,False,False,1,,,
41,22:03:28:545,0.002517700893804431,0.0,0.8844196200370789,162.5756171611683,366.6872628468961,580.9463761207335,-433.6481628417969,34.89897537231445,-0.020282821729779243,0.18511177599430084,0.017993031069636345,-0.001953125,4.700748356798825,N,,,,False,False,False,1,,,
42,22:03:28:573,0.002517700893804431,0.0,0.9618786573410034,162.53472892135463,366.6463941072227,580.9054883121946,-433.6072692871094,34.8990592956543,-0.020246123895049095,0.17649208009243011,0.020817046985030174,-0.0017089842585846782,4.9426371683182975,N,,,,False,False,False,1,,,
43,22:03:28:601,0.002517700893804431,0.0,0.9618786573410034,162.50741961264734,366.6190984306871,580.8781794019117,-433.5799560546875,34.899112701416016,-0.02024867944419384,0.17068642377853394,0.02269727550446987,-0.0015563963679596782,5.0956160863473094,N,,,,False,False,False,1,,,
44,22:03:28:629,-0.03998344764113426,0.0,0.9855148196220398,162.4622672134361,366.5739632668616,580.8330232557142,-433.5347900390625,34.898624420166016,-0.020197676494717598,0.16169105470180511,-0.0020446775015443563,0.009362427517771721,5.335078609521114,N,,,,False,False,False,1,,,
45,22:03:28:655,-0.03998344764113426,0.0,0.9855148196220398,162.4622672134361,366.5739632668616,580.8330232557142,-433.5347900390625,34.898624420166016,-0.020197676494717598,0.16169105470180511,-0.0020446775015443563,0.009362427517771721,5.335078609521114,N,,,,False,False,False,1,,,
46,22:03:28:696,-0.04129289090633392,0.0,0.9906898140907288,162.35513989315655,366.46686882584726,580.7258779486232,-433.4276123046875,34.896175384521484,-0.020121345296502113,0.14503222703933716,-0.11511228233575821,0.031269870698451996,5.869347222410157,N,,,,False,False,False,1,,,
47,22:03:28:722,-0.04129289090633392,0.0,0.9932669997215271,162.30286003958238,366.4146034143649,580.6735878019276,-433.37530517578125,34.894779205322266,-0.02007633075118065,0.13929487764835358,-0.1744689643383026,0.03461761027574539,6.1135302301986965,N,,,,False,False,False,1,,,
48,22:03:28:748,-0.04129289090633392,0.0,0.9932669997215271,162.27287753503492,366.384629338807,580.6435992378127,-433.3453063964844,34.89394760131836,-0.02006649039685726,0.1365901082754135,-0.2086181491613388,0.035275328904390335,6.249044823766818,N,,,,False,False,False,1,,,
49,22:03:28:776,-0.040889982134103775,0.0,0.9932669997215271,162.21260842647024,366.3243767257012,580.5833174648947,-433.2850036621094,34.8922119140625,-0.020047377794981003,0.132198303937912,-0.2772216796875,0.035004012286663055,6.513190586611343,N,,,,False,False,False,1,,,
50,22:03:28:801,-0.040889982134103775,0.0,0.9932669997215271,162.21260842647024,366.3243767257012,580.5833174648947,-433.2850036621094,34.8922119140625,-0.020047377794981003,0.132198303937912,-0.2772216796875,0.035004012286663055,6.513190586611343,N,,,,False,False,False,1,,,
51,22:03:28:831,-0.03605520352721214,0.0,0.9932669997215271,162.11238307725736,366.2241784692212,580.4830710647936,-433.1847229003906,34.88935089111328,-0.019995002076029778,0.12733520567417145,-0.3821715712547302,0.029877919703722,6.9321447974623736,N,,,,False,False,False,1,,,
52,22:03:28:840,-0.03605520352721214,0.0,0.9932669997215271,162.11238307725736,366.2241784692212,580.4830710647936,-433.1847229003906,34.88935089111328,-0.019995002076029778,0.12733520567417145,-0.3821715712547302,0.029877919703722,6.9321447974623736,N,,,,False,False,False,1,,,
53,22:03:28:886,-0.03343644365668297,0.0,0.9932669997215271,162.00709611393307,366.1189212117892,580.3777619332221,-433.0793762207031,34.88630676269531,-0.020008087158203125,0.12451434135437012,-0.4848022162914276,0.024325257167220116,7.350711902478677,N,,,,False,False,False,1,,,
54,22:03:28:920,-0.02638617902994156,0.0,0.9932669997215271,161.93541893143092,366.0472646189523,580.3060702860998,-433.0076599121094,34.88433837890625,-0.020002441480755806,0.12355128675699234,-0.544708251953125,0.018940135836601257,7.6259449182037615,NW,,,,False,False,False,1,,,
55,22:03:28:946,-0.02638617902994156,0.0,0.9932669997215271,161.93541893143092,366.0472646189523,580.3060702860998,-433.0076599121094,34.88433837890625,-0.020002441480755806,0.12355128675699234,-0.544708251953125,0.018940135836601257,7.6259449182037615,NW,,,,False,False,False,1,,,
56,22:03:28:971,-0.019436918199062347,0.0,0.9932669997215271,161.83052207477203,365.94239962489246,580.2011542839758,-432.9027099609375,34.88175582885742,-0.019979476928710938,0.12309366464614868,-0.6125487685203552,0.00942069198936224,8.016880077546364,NW,,,,False,False,False,1,,,
57,22:03:29:000,-0.017724815756082535,0.0,0.9932669997215271,161.75945099898163,365.87135116107544,580.1300709769391,-432.83160400390625,34.880104064941406,-0.019979171454906464,0.1232575848698616,-0.6512451767921448,0.004846108146011829,8.274879162358998,NW,,,,False,False,False,1,,,
58,22:03:29:026,-0.017624104395508766,0.0,0.9932669997215271,161.68407883735793,365.7960029824811,580.0546859015295,-432.7561950683594,34.87836837768555,-0.019974861294031143,0.12372203916311264,-0.6895446181297302,0.0021183867938816547,8.543056375632084,NW,,,,False,False,False,1,,,
59,22:03:29:051,-0.017624104395508766,0.0,0.9932669997215271,161.64009433534673,365.7520328271729,580.0106938633787,-432.7121887207031,34.87734603881836,-0.019990844652056694,0.12410452961921692,-0.7113645672798157,0.0014021712122485042,8.697354825493825,NW,,,,False,False,False,1,,,
60,22:03:29:078,-0.017624104395508766,0.0,0.9932669997215271,161.64009433534673,365.7520328271729,580.0106938633787,-432.7121887207031,34.87734603881836,-0.019990844652056694,0.12410452961921692,-0.7113645672798157,0.0014021712122485042,8.697354825493825,NW,,,,False,False,False,1,,,
61,22:03:29:103,-0.017624104395508766,0.0,0.9932669997215271,161.51061189780643,365.6225915749627,579.8811886782933,-432.5826416015625,34.874290466308594,-0.020008429884910583,0.12555935978889465,-0.7747191786766052,0.0015738088404759765,9.142558258485666,NW,,,,False,False,False,1,,,
62,22:03:29:130,-0.013998514972627163,0.0,0.9932669997215271,161.42694406126114,365.53895001577325,579.7975059586424,-432.4989318847656,34.87230682373047,-0.020009536296129227,0.1266999989748001,-0.8128662109375,0.001675369800068438,9.423958343489302,NW,,,,False,False,False,1,,,
63,22:03:29:159,-0.012286446057260036,0.0,0.9932669997215271,161.38051922155967,365.49254015652275,579.7510731146772,-432.4524841308594,34.871238708496094,-0.020017853006720543,0.12739668786525726,-0.8316650986671448,0.0012016105465590954,9.57813584636776,NW,,,,False,False,False,1,,,
64,22:03:29:179,-0.011984316632151604,0.0,0.9932669997215271,161.2915125176454,365.4035620172244,579.6620511013059,-432.3634338378906,34.86920928955078,-0.020022239536046982,0.12879687547683716,-0.8645934462547302,0.0003258628130424768,9.870304609015236,NW,,,,False,False,False,1,,,
65,22:03:29:233,-0.011984316632151604,0.0,0.9932669997215271,161.14869949113648,365.2607949250947,579.5192133904802,-432.2205505371094,34.86594772338867,-0.020037803798913956,0.13119426369667053,-0.9135130047798157,0.0002531992504373193,10.330066912529842,NW,,,,False,False,False,1,,,
66,22:03:29:272,-0.011984316632151604,0.0,0.9932669997215271,161.0469126744213,365.15903973085415,579.417408427303,-432.11871337890625,34.863582611083984,-0.020015105605125427,0.13296328485012054,-0.9473877549171448,0.001070857048034668,10.651997147726703,NW,,,,False,False,False,1,,,
67,22:03:29:281,-0.011984316632151604,0.0,0.9932669997215271,161.0056735824371,365.11781342364463,579.3761618712286,-432.07745361328125,34.86260986328125,-0.020009726285934448,0.13370095193386078,-0.9609984755516052,0.0015235890168696642,10.781014908804583,NW,,,,False,False,False,1,,,
68,22:03:29:327,-0.011984316632151604,0.0,0.9932669997215271,160.89842878807494,365.01060276591727,579.2688975688455,-431.97015380859375,34.860042572021484,-0.020047225058078766,0.13564755022525787,-0.9962769746780396,0.00287259416654706,11.113228625912988,NW,,,,False,False,False,1,,,
69,22:03:29:352,-0.011984316632151604,0.0,0.9932669997215271,160.8479787217195,364.96016835626887,579.2184381144676,-431.919677734375,34.85881805419922,-0.020053405314683914,0.13656961917877197,-1.012847900390625,0.0035307712387293577,11.26805829830051,NW,,,,False,False,False,1,,,
70,22:03:29:377,-0.011984316632151604,0.0,0.9932669997215271,160.8479787217195,364.96016835626887,579.2184381144676,-431.919677734375,34.85881805419922,-0.020053405314683914,0.13656961917877197,-1.012847900390625,0.0035307712387293577,11.26805829830051,NW,,,,False,False,False,1,,,
71,22:03:29:401,-0.011984316632151604,0.0,0.9932669997215271,160.62345739281824,364.7357159796522,578.9938736840627,-431.6950378417969,34.85321044921875,-0.020104484632611275,0.14073604345321655,-1.086212158203125,0.0063275839202106,11.94551264251425,NW,,,,False,False,False,1,,,
72,22:03:29:427,-0.011984316632151604,0.0,0.9932669997215271,160.55656875761295,364.66884789279646,578.9269718135428,-431.62811279296875,34.85148620605469,-0.02013862505555153,0.14199279248714447,-1.1080323457717896,0.007077230140566826,12.144023077309424,NW,,,,False,False,False,1,,,
73,22:03:29:448,-0.011984316632151604,0.0,0.9932669997215271,160.50648587679052,364.6187794838165,578.8768787544843,-431.5780029296875,34.85018539428711,-0.02012832649052143,0.14291487634181976,-1.12432861328125,0.007600916083902121,12.292050914634315,NW,,,,False,False,False,1,,,
74,22:03:29:480,-0.011984316632151604,0.0,0.9932669997215271,160.3906438420515,364.50297117554965,578.7610128017315,-431.46209716796875,34.84711837768555,-0.020135726779699326,0.14506638050079346,-1.1620177030563354,0.008725556544959545,12.631202994368548,NW,,,,False,False,False,1,,,
75,22:03:29:508,-0.011984316632151604,0.0,0.9932669997215271,160.27181397734145,364.3841754090695,578.6421577430127,-431.34320068359375,34.84389877319336,-0.02014789544045925,0.147272527217865,-1.2005921602249146,0.009751830250024796,12.97525347209089,NW,,,,False,False,False,1,,,
76,22:03:29:531,-0.011984316632151604,0.0,0.9932669997215271,160.27181397734145,364.3841754090695,578.6421577430127,-431.34320068359375,34.84389877319336,-0.02014789544045925,0.147272527217865,-1.2005921602249146,0.009751830250024796,12.97525347209089,NW,,,,False,False,False,1,,,
77,22:03:29:556,-0.011984316632151604,0.0,0.9932669997215271,160.0701782529012,364.1825967774915,578.4404778712717,-431.1414489746094,34.83827590942383,-0.020193099975585938,0.15099498629570007,-1.265838623046875,0.011255312711000443,13.550308005854442,NW,,,,False,False,False,1,,,
78,22:03:29:589,-0.011984316632151604,0.0,0.9932669997215271,159.9994189768719,364.1118571277427,578.3697026401288,-431.0706481933594,34.83625411987305,-0.02020893059670925,0.15229271352291107,-1.288665771484375,0.011724070645868778,13.749567602680541,NW,,,,False,False,False,1,,,
79,22:03:29:616,-0.011984316632151604,0.0,0.9932669997215271,159.86549580753064,363.9779699443348,578.2357484509603,-430.9366455078125,34.83235168457031,-0.020216254517436028,0.15472427010536194,-1.3318787813186646,0.01255001313984394,14.12420535979915,NW,,,,False,False,False,1,,,
80,22:03:29:643,-0.011984316632151604,0.0,0.9932669997215271,159.7438039472953,363.85630972461985,578.1140275924321,-430.81488037109375,34.828731536865234,-0.020204734057188034,0.15690310299396515,-1.37103271484375,0.013241072185337543,14.461179330510339,NW,,,,False,False,False,1,,,
81,22:03:29:658,-0.011984316632151604,0.0,0.9932669997215271,159.7438039472953,363.85630972461985,578.1140275924321,-430.81488037109375,34.828731536865234,-0.020204734057188034,0.15690310299396515,-1.37103271484375,0.013241072185337543,14.461179330510339,NW,,,,False,False,False,1,,,
82,22:03:29:698,-0.01097722165286541,0.0,0.9932669997215271,159.52302282208106,363.63558487400877,577.8931923737566,-430.5939636230469,34.822017669677734,-0.020191725343465805,0.15182143449783325,-1.4389342069625854,0.013217240571975708,14.73534970191418,NW,,,,False,False,False,1,,,
83,22:03:29:727,-0.008862330578267574,0.0,0.9932669997215271,159.38346004284955,363.49605439076083,577.7535940626437,-430.4543151855469,34.81770324707031,-0.02007141150534153,0.13466399908065796,-1.4788817167282104,0.01231540646404028,14.730370202728956,NW,,,,False,False,False,N,,,
84,22:03:29:758,-0.008862330578267574,0.0,0.9932669997215271,159.3117878136357,363.4243983930859,577.6819033905738,-430.3825988769531,34.81547927856445,-0.019999122247099876,0.12396109849214554,-1.4977415800094604,0.01147418562322855,14.727718046124291,NW,,,,False,False,False,N,,,
85,22:03:29:785,-0.004833988379687071,0.0,0.9932669997215271,159.16368569980338,363.2763312338316,577.5337636010796,-430.2344055175781,34.81093215942383,-0.019899634644389153,0.10775988548994064,-1.5303955078125,0.008445583283901215,15.04256680780654,NW,,,,False,False,False,N,,,
86,22:03:29:804,-0.004833988379687071,0.0,0.9932669997215271,159.09051961597984,363.2031839791425,577.4605793071958,-430.16119384765625,34.808712005615234,-0.019911574199795723,0.11021875590085983,-1.543884038925171,0.006955630145967007,15.405220223591584,NW,,,,False,False,False,2,,,
87,22:03:29:831,-0.004833988379687071,0.0,0.9932669997215271,159.09051961597984,363.2031839791425,577.4605793071958,-430.16119384765625,34.808712005615234,-0.019911574199795723,0.11021875590085983,-1.543884038925171,0.006955630145967007,15.405220223591584,NW,,,,False,False,False,2,,,
88,22:03:29:872,-0.004229739308357239,0.0,0.9932669997215271,158.79224654241222,362.9049925227865,577.1622326536004,-429.86273193359375,34.7996940612793,-0.020174140110611916,0.15257275104522705,-1.588836431503296,0.0029779435135424137,16.756575068477037,NW,,,,False,False,False,2,,,
89,22:03:29:901,-0.004229739308357239,0.0,0.9932669997215271,158.63127785308708,362.74406831649094,577.0012238852032,-429.70166015625,34.7948112487793,-0.02034992165863514,0.1788826435804367,-1.609832763671875,0.002350206021219492,17.415887164736283,NW,,,,False,False,False,2,,,
90,22:03:29:948,-0.004229739308357239,0.0,0.9932669997215271,158.38085878312532,362.49371509257776,576.7507408347244,-429.4510803222656,34.78714370727539,-0.020516127347946167,0.2140171378850937,-1.6407164335250854,0.00264562270604074,18.369181427210155,NW,,,,False,False,False,2,,,
91,22:03:29:974,-0.004229739308357239,0.0,0.9932669997215271,158.38085878312532,362.49371509257776,576.7507408347244,-429.4510803222656,34.78714370727539,-0.020516127347946167,0.2140171378850937,-1.6407164335250854,0.00264562270604074,18.369181427210155,NW,,,,False,False,False,2,,,
92,22:03:30:000,-0.004229739308357239,0.0,0.9932669997215271,158.10646926244283,362.219393969871,576.4762791463927,-429.176513671875,34.778648376464844,-0.02058769203722477,0.24016310274600983,-1.6731873750686646,0.003810909343883395,19.32976700771334,NW,,,,False,False,False,2,,,
93,22:03:30:031,-0.004229739308357239,0.0,0.9932669997215271,158.01000511690015,362.12295346671567,576.379789170381,-429.0799865722656,34.775630950927734,-0.02061084657907486,0.24624879658222198,-1.684417724609375,0.0042939321137964725,19.65027405417559,NW,,,,False,False,False,2,,,
94,22:03:30:058,-0.004229739308357239,0.0,0.9932669997215271,157.82363474066872,361.93662813714775,576.1933682279284,-428.89349365234375,34.76976013183594,-0.020649870857596397,0.25457480549812317,-1.705902099609375,0.00522531196475029,20.247514807631234,NW,,,,False,False,False,2,,,
95,22:03:30:085,-0.004229739308357239,0.0,0.9932669997215271,157.64989139713228,361.7629260372995,576.0195769667308,-428.7196350097656,34.76424026489258,-0.020678939297795296,0.25925347208976746,-1.7257384061813354,0.006054277531802654,20.780846998290276,NW,,,,False,False,False,2,,,
96,22:03:30:110,-0.004229739308357239,0.0,0.9932669997215271,157.54583501748402,361.65889400793156,575.9154915085124,-428.6155090332031,34.76091003417969,-0.020693816244602203,0.26106348633766174,-1.7375487089157104,0.006548895966261625,21.090593647349458,NW,,,,False,False,False,2,,,
97,22:03:30:136,-0.004229739308357239,0.0,0.9932669997215271,157.54583501748402,361.65889400793156,575.9154915085124,-428.6155090332031,34.76091003417969,-0.020693816244602203,0.26106348633766174,-1.7375487089157104,0.006548895966261625,21.090593647349458,NW,,,,False,False,False,2,,,
98,22:03:30:168,-0.004229739308357239,0.0,0.9932669997215271,157.1412937609681,361.254444828375,575.5108344603381,-428.210693359375,34.7477912902832,-0.020730361342430115,0.26314669847488403,-1.783081293106079,0.008226477541029453,22.234025854360386,NW,,,,False,False,False,2,,,
99,22:03:30:192,-0.0040283226408064365,0.0,0.9932669997215271,157.03013372027922,361.14330937740226,575.3996418208322,-428.0994567871094,34.744136810302734,-0.020735854282975197,0.26283249258995056,-1.7954102754592896,0.008604018948972225,22.53322939561616,NW,,,,False,False,False,2,,,
100,22:03:30:202,-0.0040283226408064365,0.0,0.9932669997215271,156.93980317402492,361.0529986109172,575.3092845545491,-428.0090637207031,34.741153717041016,-0.020739173516631126,0.26242950558662415,-1.8052978515625,0.008858994580805302,22.772205806199956,NW,,,,False,False,False,2,,,
101,22:03:30:230,-0.003625490004196763,0.0,0.9932669997215271,156.81537804081697,360.92860043445495,575.184822287083,-427.8845520019531,34.73702621459961,-0.02074207179248333,0.26160988211631775,-1.818573236465454,0.009086956270039082,23.095370183559837,NW,,,,False,False,False,2,,,
102,22:03:30:277,-0.0024169927928596735,0.0,0.9932669997215271,156.47522319330213,360.5885183063508,574.8445646958842,-427.5441589355469,34.7257194519043,-0.020742492750287056,0.2587548792362213,-1.849670171737671,0.008196805603802204,23.947315503962642,NW,,,,False,False,False,2,,,
103,22:03:30:304,-0.0024169927928596735,0.0,0.9932669997215271,156.2479365604766,360.3612792642583,574.6172081650984,-427.31671142578125,34.718116760253906,-0.02073821984231472,0.25656238198280334,-1.8675537109375,0.00756080960854888,24.49353133385104,NW,,,,False,False,False,2,,,
104,22:03:30:330,-0.0024169927928596735,0.0,0.9932669997215271,156.12186679694926,360.23523552256916,574.4910991589178,-427.1905517578125,34.7138786315918,-0.020734747871756554,0.255312442779541,-1.87689208984375,0.007330602500587702,24.789296763743852,NW,,,,False,False,False,2,,,
105,22:03:30:358,-0.0024169927928596735,0.0,0.9932669997215271,155.88830041279533,360.00171671075,574.2574592344965,-426.9568176269531,34.70599365234375,-0.020727194845676422,0.2530243396759033,-1.8934329748153687,0.007132507394999266,25.324622291535697,NW,,,,False,False,False,2,,,
106,22:03:30:400,-0.0024169927928596735,0.0,0.9932669997215271,155.88830041279533,360.00171671075,574.2574592344965,-426.9568176269531,34.70599365234375,-0.020727194845676422,0.2530243396759033,-1.8934329748153687,0.007132507394999266,25.324622291535697,NW,,,,False,False,False,2,,,
107,22:03:30:423,-0.0024169927928596735,0.0,0.9932669997215271,155.50835854099122,359.6218502028776,573.877395140556,-426.57659912109375,34.69304656982422,-0.02071201242506504,0.24946580827236176,-1.9190677404403687,0.007241904269903898,26.16435899245616,NW,,,,False,False,False,2,,,
108,22:03:30:457,-0.0024169927928596735,0.0,0.9932669997215271,155.1591296114064,359.2726883576701,573.5280510342019,-426.22711181640625,34.6810188293457,-0.02069576270878315,0.24628977477550507,-1.941802978515625,0.007578593213111162,26.880737623470296,NW,,,,False,False,False,2,,,
109,22:03:30:482,-0.0024169927928596735,0.0,0.9932669997215271,155.03394814827536,359.1475298676044,573.4028275363305,-426.1018371582031,34.67668151855469,-0.020664138719439507,0.24139253795146942,-1.949798583984375,0.007705685216933489,26.966367710834856,NW,,,,False,False,False,N,,,
110,22:03:30:512,-0.0024169927928596735,0.0,0.9932669997215271,154.7812375183674,358.8948625348063,573.150030501721,-425.84893798828125,34.66787338256836,-0.020504722371697426,0.2174595445394516,-1.965606927871704,0.00789639726281166,26.965320760757642,NW,,,,False,False,False,N,,,
111,22:03:30:554,-0.0024169927928596735,0.0,0.9932669997215271,154.7812375183674,358.8948625348063,573.150030501721,-425.84893798828125,34.66787338256836,-0.020504722371697426,0.2174595445394516,-1.965606927871704,0.00789639726281166,26.965320760757642,NW,,,,False,False,False,N,,,
112,22:03:30:596,-0.0024169927928596735,0.0,0.9932669997215271,154.2332521509549,358.3469658089373,572.6018524122945,-425.300537109375,34.6485481262207,-0.020100975409150124,0.1574631780385971,-1.9990540742874146,0.008292038924992085,27.424873523697922,NW,,,,False,False,False,3,,,
113,22:03:30:631,-0.0024169927928596735,0.0,0.9932669997215271,153.85882107960288,357.9726001370023,572.2272870951527,-424.9258117675781,34.635169982910156,-0.02016609162092209,0.16716204583644867,-2.02215576171875,0.00878195557743311,28.376376953493946,NW,,,,False,False,False,3,,,
114,22:03:30:657,-0.0024169927928596735,0.0,0.9932669997215271,153.7148320614683,357.82863644641066,572.0832457031281,-424.7817077636719,34.62998580932617,-0.020228805020451546,0.17645110189914703,-2.031067132949829,0.008985244669020176,28.727185514133886,NW,,,,False,False,False,3,,,
115,22:03:30:696,-0.0024169927928596735,0.0,0.9932669997215271,153.58380325383743,357.69763048215515,571.9521688634329,-424.65057373046875,34.6252555847168,-0.02028934471309185,0.1853986382484436,-2.0391845703125,0.009161966852843761,29.039122612431463,NW,,,,False,False,False,3,,,
116,22:03:30:732,-0.0024169927928596735,0.0,0.9932669997215271,153.1089701154953,357.22287711018976,571.4771579398767,-424.17535400390625,34.60795211791992,-0.020500868558883667,0.21676969528198242,-2.068603754043579,0.00978530291467905,30.117609987903222,NW,,,,False,False,False,3,,,
117,22:03:30:759,-0.0024169927928596735,0.0,0.9932669997215271,152.83331884674402,356.94726954107637,571.2014008118407,-423.89947509765625,34.597808837890625,-0.02059371955692768,0.23047105967998505,-2.085601806640625,0.010113620199263096,30.71020385535513,NW,,,,False,False,False,3,,,
118,22:03:30:783,-0.0024169927928596735,0.0,0.9932669997215271,152.68509625554918,356.7990696702761,571.0531205053068,-423.7511291503906,34.59232711791992,-0.02063465118408203,0.23650211095809937,-2.094726800918579,0.01028637308627367,31.019778193460052,NW,,,,False,False,False,3,,,
119,22:03:30:811,-0.002316284691914916,0.0,0.9932669997215271,152.397556899692,356.51157273011256,570.7654674834789,-423.4633483886719,34.581626892089844,-0.020696334540843964,0.24560676515102386,-2.112243890762329,0.010558909736573696,31.603608094844475,NW,,,,False,False,False,3,,,
120,22:03:30:820,-0.002316284691914916,0.0,0.9932669997215271,152.397556899692,356.51157273011256,570.7654674834789,-423.4633483886719,34.581626892089844,-0.020696334540843964,0.24560676515102386,-2.112243890762329,0.010558909736573696,31.603608094844475,NW,,,,False,False,False,3,,,
121,22:03:30:845,-0.002316284691914916,0.0,0.9932669997215271,152.397556899692,356.51157273011256,570.7654674834789,-423.4633483886719,34.581626892089844,-0.020696334540843964,0.24560676515102386,-2.112243890762329,0.010558909736573696,31.603608094844475,NW,,,,False,False,False,3,,,
122,22:03:30:868,-0.002316284691914916,0.0,0.9932669997215271,151.92664446694099,356.04072549106934,570.2943643229399,-422.9920349121094,34.56394577026367,-0.020756835117936134,0.25448599457740784,-2.140381097793579,0.010953611694276333,32.51681868689601,NW,,,,False,False,False,3,,,
123,22:03:30:910,-0.002316284691914916,0.0,0.9932669997215271,151.48598638869584,355.60012378921124,569.8535225710411,-422.5509948730469,34.54722213745117,-0.020779380574822426,0.2577713131904602,-2.166321277618408,0.011333918198943138,33.328484324617015,NW,,,,False,False,False,3,,,
124,22:03:30:934,-0.002316284691914916,0.0,0.9932669997215271,151.32505587822612,355.4392127328161,569.6925236575424,-422.3899230957031,34.54106521606445,-0.020781783387064934,0.25812649726867676,-2.175720453262329,0.011483409442007542,33.61574778391371,NW,,,,False,False,False,3,,,
125,22:03:30:958,-0.002316284691914916,0.0,0.9932669997215271,151.17278549070826,355.2869602990652,569.54018798687,-422.2375183105469,34.53522491455078,-0.02078220248222351,0.25816065073013306,-2.184570550918579,0.011624504812061787,33.88325925992294,NW,,,,False,False,False,3,,,
126,22:03:30:985,-0.002316284691914916,0.0,0.9932669997215271,151.17278549070826,355.2869602990652,569.54018798687,-422.2375183105469,34.53522491455078,-0.02078220248222351,0.25816065073013306,-2.184570550918579,0.011624504812061787,33.88325925992294,NW,,,,False,False,False,3,,,
127,22:03:31:010,-0.0003021240117959678,0.0,0.9932669997215271,150.47638688568082,354.5906387757136,568.8434843885786,-421.5404968261719,34.508392333984375,-0.020765837281942368,0.2556881308555603,-2.216400623321533,0.009784361347556114,35.059189466028386,NW,,,,False,False,False,3,,,
128,22:03:31:036,-0.0003021240117959678,0.0,0.9932669997215271,150.29323378732747,354.4075046602815,568.6602493764033,-421.357177734375,34.50130844116211,-0.020758207887411118,0.25454747676849365,-2.222473621368408,0.009052441455423832,35.35659862333415,NW,,,,False,False,False,3,,,
129,22:03:31:051,0.0006042480817995965,0.0,0.9932669997215271,150.15069378932483,354.2649791581164,568.5176452231349,-421.2145080566406,34.49579620361328,-0.020752066746354103,0.25365954637527466,-2.226379632949829,0.008391378447413445,35.58492460093412,NW,,,,False,False,False,3,,,
130,22:03:31:083,0.0007049560663290322,0.0,0.9932669997215271,149.98296966554798,354.0972718099629,568.3498451928448,-421.046630859375,34.489315032958984,-0.02074432373046875,0.25249841809272766,-2.22991943359375,0.007463888265192509,35.850264621862046,NW,,,,False,False,False,3,,,
131,22:03:31:117,0.0007049560663290322,0.0,0.9932669997215271,149.46083690254312,353.5751888737533,567.8274727316228,-420.5240173339844,34.46912384033203,-0.02071819268167019,0.24860520660877228,-2.235656976699829,0.0047605000436306,36.65465224064883,NW,,,,False,False,False,3,,,
132,22:03:31:135,0.0007049560663290322,0.0,0.9932669997215271,149.29476194612258,353.40912900492026,567.6613204424253,-420.3577880859375,34.46269607543945,-0.020709838718175888,0.2473689466714859,-2.236236572265625,0.004085476975888014,36.90400135153004,NW,,,,False,False,False,3,,,
133,22:03:31:167,0.0007049560663290322,0.0,0.9932669997215271,148.92181968300412,353.036219355722,567.2882026769139,-419.9844970703125,34.44826126098633,-0.02069084160029888,0.24455490708351135,-2.23602294921875,0.0028356804978102446,37.45374028387117,NW,,,,False,False,False,3,,,
134,22:03:31:195,0.0008056641090661287,0.0,0.9932669997215271,148.72827634526365,352.8426922431708,567.0945672427473,-419.790771484375,34.44076919555664,-0.02068096026778221,0.24313423037528992,-2.2352294921875,0.002293124794960022,37.73360429999494,NW,,,,False,False,False,3,,,
135,22:03:31:228,0.0008056641090661287,0.0,0.9932669997215271,148.36966847698756,352.4841132470464,566.7357869466605,-419.43182373046875,34.4268913269043,-0.020663946866989136,0.2406138926744461,-2.232787847518921,0.0014374135062098503,38.243253815879335,NW,,,,False,False,False,3,,,
136,22:03:31:254,0.0008056641090661287,0.0,0.9932669997215271,148.36966847698756,352.4841132470464,566.7357869466605,-419.43182373046875,34.4268913269043,-0.020663946866989136,0.2406138926744461,-2.232787847518921,0.0014374135062098503,38.243253815879335,NW,,,,False,False,False,3,,,
137,22:03:31:285,0.0008056641090661287,0.0,0.9932669997215271,147.6603258538764,351.7748212938322,566.0260961878159,-418.7218017578125,34.399471282958984,-0.020549850538372993,0.22367502748966217,-2.225311517715454,0.00015702050586696714,38.80343200686516,NW,,,,False,False,False,N,,,
138,22:03:31:317,0.0005035400390625,0.0,0.9932669997215271,147.31221185913984,351.4267270203546,565.6778075267856,-418.37335205078125,34.38602828979492,-0.02037029154598713,0.19709192216396332,-2.22076416015625,-0.0002746582613326609,38.794398589545985,NW,,,,False,False,False,N,,,
139,22:03:31:343,0.0005035400390625,0.0,0.9932669997215271,147.12708855670422,351.241613143801,565.4925903325513,-418.18804931640625,34.37887954711914,-0.020257148891687393,0.18037162721157074,-2.218353033065796,-0.0004272459773346782,38.7856757909588,NW,,,,False,False,False,N,,,
140,22:03:31:369,0.0005035400390625,0.0,0.9932669997215271,147.12708855670422,351.241613143801,565.4925903325513,-418.18804931640625,34.37887954711914,-0.020257148891687393,0.18037162721157074,-2.218353033065796,-0.0004272459773346782,38.7856757909588,NW,,,,False,False,False,N,,,
141,22:03:31:415,0.0005035400390625,0.0,0.9932669997215271,146.33971722421987,350.4542845619173,564.7048140488257,-417.39990234375,34.34851837158203,-0.02008918672800064,0.15568731725215912,-2.209015130996704,-0.0009155275183729827,39.79095166702246,NW,,,,False,False,False,4,,,
142,22:03:31:444,0.0005035400390625,0.0,0.9932669997215271,145.93594753695416,350.05053772495665,564.3008330454155,-416.9957275390625,34.33298110961914,-0.02016727440059185,0.1673191338777542,-2.20477294921875,-0.00115966796875,40.39804146487709,NW,,,,False,False,False,4,,,
143,22:03:31:471,0.0005035400390625,0.0,0.9932669997215271,145.58599053525174,349.70059922954647,563.9506905027526,-416.6454162597656,34.31952667236328,-0.020250968635082245,0.1797364205121994,-2.201263666152954,-0.0013732907827943563,40.90480102288863,NW,,,,False,False,False,4,,,
144,22:03:31:498,0.0005035400390625,0.0,0.9932669997215271,145.3560001211803,349.4706201313856,563.7205769548293,-416.4151916503906,34.31069564819336,-0.020303955301642418,0.18762528896331787,-2.19903564453125,-0.0014953609788790345,41.22831669001298,NW,,,,False,False,False,4,,,
145,22:03:31:522,0.0005035400390625,0.0,0.9932669997215271,145.3560001211803,349.4706201313856,563.7205769548293,-416.4151916503906,34.31069564819336,-0.020303955301642418,0.18762528896331787,-2.19903564453125,-0.0014953609788790345,41.22831669001298,NW,,,,False,False,False,4,,,
146,22:03:31:555,0.0008056641090661287,0.0,0.9932669997215271,144.74923137929326,348.8638779214421,563.1134789234522,-415.80780029296875,34.28745651245117,-0.020425301045179367,0.20553404092788696,-2.192413091659546,-0.0021362302359193563,42.048706803974525,NW,,,,False,False,False,4,,,
147,22:03:31:641,0.001007080078125,0.0,0.9932669997215271,143.8686160346625,347.98329177052517,562.2323740947544,-414.92626953125,34.25388717651367,-0.02052326127886772,0.21993890404701233,-2.180023431777954,-0.0034179682843387127,43.16412890003733,NW,,,,False,False,False,4,,,
148,22:03:31:683,0.002920533064752817,0.0,0.9932669997215271,143.24113141916047,347.3558227143907,561.6045337211831,-414.2981262207031,34.23019790649414,-0.020547714084386826,0.22344963252544403,-2.163757801055908,-0.006195067428052425,43.91227345562551,NW,,,,False,False,False,4,,,
149,22:03:31:728,0.002920533064752817,0.0,0.9932669997215271,142.5325599281408,346.6472649808021,560.895554727028,-413.58880615234375,34.20376968383789,-0.020547179505228996,0.22331301867961884,-2.135925531387329,-0.009674073196947575,44.717217219600094,NW,,,,False,False,False,4,,,
150,22:03:31:780,0.002920533064752817,0.0,0.9932669997215271,141.92307041877248,346.0377840966744,560.2857096175073,-412.9786682128906,34.18128967285156,-0.020532913506031036,0.22116833925247192,-2.106995105743408,-0.011962890625,45.3801120068685,NW,,,,False,False,False,4,,,
151,22:03:31:805,0.002920533064752817,0.0,0.9932669997215271,141.69464616630117,345.8093624238,560.0571509808311,-412.75,34.17293167114258,-0.020525474101305008,0.22004136443138123,-2.095367670059204,-0.01272582821547985,45.62220006414376,NW,,,,False,False,False,4,,,
152,22:03:31:831,0.002920533064752817,0.0,0.9932669997215271,141.30834127932707,345.4230610579405,559.6706173887416,-412.36328125,34.15887451171875,-0.020511435344815254,0.21797864139080048,-2.074951410293579,-0.01382446475327015,46.02437709421626,NW,,,,False,False,False,4,,,
153,22:03:31:865,0.002920533064752817,0.0,0.9932669997215271,140.8629581508982,344.9776809644292,559.2249686357964,-411.91741943359375,34.1428108215332,-0.02049381285905838,0.21532852947711945,-2.050567865371704,-0.015014647506177425,46.47738145309735,NW,,,,False,False,False,4,,,
154,22:03:31:890,0.002920533064752817,0.0,0.9932669997215271,140.8629581508982,344.9776809644292,559.2249686357964,-411.91741943359375,34.1428108215332,-0.02049381285905838,0.21532852947711945,-2.050567865371704,-0.015014647506177425,46.47738145309735,NW,,,,False,False,False,4,,,
155,22:03:31:920,0.0030212411656975746,0.0,0.9932669997215271,140.13318576700786,344.24791122678056,558.4947565294706,-411.1868591308594,34.116817474365234,-0.02046382799744606,0.21088208258152008,-2.009093999862671,-0.01684570126235485,47.19734888612122,NW,,,,False,False,False,4,,,
156,22:03:31:944,0.0030212411656975746,0.0,0.9932669997215271,139.92104365770774,344.0357694441511,558.2824856527504,-410.9744873046875,34.109344482421875,-0.020455168560147285,0.20959118008613586,-1.996734619140625,-0.01736450009047985,47.401877026577694,NW,,,,False,False,False,4,,,
157,22:03:31:972,0.004833988379687071,0.0,0.9932669997215271,139.49407702937683,343.60880326107093,557.8552590063869,-410.54705810546875,34.09444808959961,-0.020438002422451973,0.20706400275230408,-1.9701539278030396,-0.0190124474465847,47.80737212223824,NW,,,,False,False,False,4,,,
158,22:03:32:001,0.004833988379687071,0.0,0.9932669997215271,139.26547315619436,343.3801997106096,557.6265156674037,-410.3182067871094,34.08656692504883,-0.020429039373993874,0.20573212206363678,-1.9543455839157104,-0.0202941857278347,48.021381888031264,NW,,,,False,False,False,4,,,
159,22:03:32:059,0.0063446140848100185,0.0,0.9932669997215271,138.2945049432034,342.4092347617526,556.6549545264842,-409.34619140625,34.05390930175781,-0.020393677055835724,0.2005411684513092,-1.8721619844436646,-0.027740478515625,48.90762015057205,NW,,,,False,False,False,4,,,
160,22:03:32:092,0.0063446140848100185,0.0,0.9932669997215271,137.8758560081604,341.9905885540061,556.2360500792865,-408.9270935058594,34.04025650024414,-0.020380020141601562,0.19851261377334595,-1.8301695585250854,-0.030975336208939552,49.27954114483246,NW,,,,False,False,False,4,,,
161,22:03:32:124,0.0063446140848100185,0.0,0.9932669997215271,137.44330414772807,341.5580404710326,555.8032344585675,-408.49407958984375,34.026424407958984,-0.020366745069622993,0.19653868675231934,-1.7837523221969604,-0.0340270921587944,49.65793408224677,NW,,,,False,False,False,4,,,
162,22:03:32:148,0.0063446140848100185,0.0,0.9932669997215271,137.18335724912708,341.29809647890994,555.5431293577681,-408.2338562011719,34.01825714111328,-0.02035900019109249,0.19537754356861115,-1.75469970703125,-0.0357666052877903,49.882589364950995,NW,,,,False,False,False,4,,,
163,22:03:32:176,0.0063446140848100185,0.0,0.9932669997215271,137.18335724912708,341.29809647890994,555.5431293577681,-408.2338562011719,34.01825714111328,-0.02035900019109249,0.19537754356861115,-1.75469970703125,-0.0357666052877903,49.882589364950995,NW,,,,False,False,False,4,,,
164,22:03:32:200,0.005841071717441082,0.0,0.9932669997215271,136.39558551602718,340.51033622191954,554.7548793108388,-407.44525146484375,33.994136810302734,-0.020337866619229317,0.19227664172649384,-1.664611577987671,-0.0397338792681694,50.55169236091048,NW,,,,False,False,False,4,,,
165,22:03:32:240,0.004330447409301996,0.0,0.9932669997215271,135.9346138677468,340.04937280015065,554.2936281761271,-406.9837951660156,33.98042678833008,-0.020327109843492508,0.1906852126121521,-1.6131592988967896,-0.0408020056784153,50.935821257534485,NW,,,,False,False,False,4,,,
166,22:03:32:280,0.001913452404551208,0.0,0.9932669997215271,135.19914893161217,339.31392176158704,553.5577162767117,-406.24755859375,33.959041595458984,-0.02031143195927143,0.18839026987552643,-1.5433043241500854,-0.039062488824129105,51.538144751187225,NW,,,,False,False,False,4,,,
167,22:03:32:310,-0.0005035400390625,0.0,0.9932669997215271,134.92956504980478,339.04434281078574,553.2879677885899,-405.9776916503906,33.95132064819336,-0.02030639536678791,0.18762528896331787,-1.5228577852249146,-0.0374755933880806,51.755936891077646,NW,,,,False,False,False,4,,,
168,22:03:32:354,-0.001913452404551208,0.0,0.9932669997215271,134.15441212308983,338.26920181968734,552.5123373326353,-405.20172119140625,33.92934036254883,-0.020292814821004868,0.18561720848083496,-1.4850157499313354,-0.030487051233649254,52.37356054502923,NW,,,,False,False,False,4,,,
169,22:03:32:394,-0.001913452404551208,0.0,0.9932669997215271,133.63533971001377,337.7501355842285,551.9929416852945,-404.6820983886719,33.9148063659668,-0.020284881815314293,0.18443559110164642,-1.47357177734375,-0.026031494140625,52.78057571613944,NW,,,,False,False,False,4,,,
170,22:03:32:434,-0.001913452404551208,0.0,0.9932669997215271,132.92171479532018,337.03651644871866,551.2788674857258,-403.96771240234375,33.895042419433594,-0.020275229588150978,0.18299442529678345,-1.470459222793579,-0.021148681640625,53.3321186320746,NW,,,,False,False,False,4,,,
171,22:03:32:465,-0.001913452404551208,0.0,0.9932669997215271,132.66707446892312,336.7818772995382,551.0240653338689,-403.7127990722656,33.88804244995117,-0.0202720258384943,0.18252313137054443,-1.472137689590454,-0.019622802734375,53.526812392366324,NW,,,,False,False,False,4,,,
172,22:03:32:494,-0.001913452404551208,0.0,0.9932669997215271,132.40642969636292,336.52123307758376,550.763253904201,-403.4518737792969,33.88089370727539,-0.02026897296309471,0.18207234144210815,-1.4750672578811646,-0.01812743954360485,53.72497573139969,NW,,,,False,False,False,4,,,
173,22:03:32:517,-0.001913452404551208,0.0,0.9932669997215271,132.40642969636292,336.52123307758376,550.763253904201,-403.4518737792969,33.88089370727539,-0.02026897296309471,0.18207234144210815,-1.4750672578811646,-0.01812743954360485,53.72497573139969,NW,,,,False,False,False,4,,,
174,22:03:32:542,-0.001712036319077015,0.0,0.9932669997215271,131.28890053279318,335.403698925657,549.6449987363566,-402.3331298828125,33.85044860839844,-0.020257415249943733,0.18033747375011444,-1.4969178438186646,-0.0126953125,54.56256763033034,NW,,,,False,False,False,4,,,
175,22:03:32:568,-0.001712036319077015,0.0,0.9932669997215271,130.97363484628912,335.08842913167786,549.3295242742947,-402.01751708984375,33.84188461303711,-0.02025444060564041,0.17992766201496124,-1.505004644393921,-0.01129150390625,54.7955304014537,NW,,,,False,False,False,4,,,
176,22:03:32:598,-0.001712036319077015,0.0,0.9932669997215271,130.49854569792203,334.6133312224474,548.8541168407845,-401.5419006347656,33.8289794921875,-0.020250702276825905,0.17933343350887299,-1.5183409452438354,-0.00906371884047985,55.144015627916225,NW,,,,False,False,False,4,,,
177,22:03:32:625,-0.001712036319077015,0.0,0.9932669997215271,130.22117666566254,334.3359555083463,548.5765598011315,-401.26422119140625,33.82143783569336,-0.02024848945438862,0.17900559306144714,-1.5266419649124146,-0.00775146484375,55.346068390047634,NW,,,,False,False,False,4,,,
178,22:03:32:651,-0.0016113283345475793,0.0,0.9932669997215271,129.9542652757468,334.0690365776591,548.3094659450268,-400.99700927734375,33.81417465209961,-0.020246505737304688,0.1787118911743164,-1.5348511934280396,-0.006500244606286287,55.539502098390614,NW,,,,False,False,False,4,,,
179,22:03:32:676,-0.0016113283345475793,0.0,0.9932669997215271,129.9542652757468,334.0690365776591,548.3094659450268,-400.99700927734375,33.81417465209961,-0.020246505737304688,0.1787118911743164,-1.5348511934280396,-0.006500244606286287,55.539502098390614,NW,,,,False,False,False,4,,,
180,22:03:32:699,-0.0016113283345475793,0.0,0.9932669997215271,128.88819383387727,333.0029230634052,547.2426493691479,-399.9297180175781,33.78504943847656,-0.02023960091173649,0.17767369747161865,-1.5692750215530396,-0.0017395018367096782,56.303389780230255,NW,,,,False,False,False,4,,,
181,22:03:32:733,-0.0014099122490733862,0.0,0.9932669997215271,128.5735271850659,332.6882401418216,546.9277575611991,-399.61468505859375,33.77640914916992,-0.020237846300005913,0.1774209886789322,-1.57965087890625,-0.00045776343904435635,56.5262810648085,NW,,,,False,False,False,4,,,
182,22:03:32:762,0.0013092041481286287,0.0,0.9932669997215271,127.94340945613368,332.05808478048664,546.2971820616845,-398.98382568359375,33.759071350097656,-0.020234527066349983,0.17692920565605164,-1.5975341796875,0.0009018065757118165,56.969227587750574,NW,,,,False,False,False,4,,,
183,22:03:32:817,0.0013092041481286287,0.0,0.9932669997215271,127.09054617011662,331.20516126697873,545.443686130146,-398.12994384765625,33.735633850097656,-0.020230751484632492,0.17634864151477814,-1.6096802949905396,0.00010450667468830943,57.56185041597457,NW,,,,False,False,False,4,,,
184,22:03:32:845,0.0030212411656975746,0.0,0.9932669997215271,126.59310075694039,330.70767602102654,544.9458650432364,-397.63189697265625,33.72200012207031,-0.02022884413599968,0.17606177926063538,-1.6097716093063354,-0.001251220703125,57.90399443215941,NW,,,,False,False,False,4,,,
185,22:03:32:871,0.0030212411656975746,0.0,0.9932669997215271,126.59310075694039,330.70767602102654,544.9458650432364,-397.63189697265625,33.72200012207031,-0.02022884413599968,0.17606177926063538,-1.6097716093063354,-0.001251220703125,57.90399443215941,NW,,,,False,False,False,4,,,
186,22:03:32:895,0.0030212411656975746,0.0,0.9932669997215271,126.2733299466475,330.3878778933127,544.6258503566889,-397.3117370605469,33.71326446533203,-0.02022434212267399,0.1754060834646225,-1.606628179550171,-0.0024414060171693563,58.094683089233634,NW,,,,False,False,False,4,,,
187,22:03:32:943,0.0030212411656975746,0.0,0.9932669997215271,125.14772956304964,329.26216635884015,543.4993756783491,-396.18475341796875,33.68266677856445,-0.02002742700278759,0.1462138444185257,-1.5810545682907104,-0.006134032271802425,58.19707720585155,NW,,,,False,False,False,N,,,
188,22:03:32:971,0.0030212411656975746,0.0,0.9932669997215271,124.62009551555336,328.73447340882234,542.9713237587616,-395.6564636230469,33.66843032836914,-0.01987762376666069,0.12409087270498276,-1.5629273653030396,-0.007629394065588713,58.230965875386204,NW,,,,False,False,False,N,,,
189,22:03:33:004,0.0030212411656975746,0.0,0.9932669997215271,124.37772310535411,328.4920733583254,542.728757765681,-395.4137878417969,33.66191482543945,-0.01983356475830078,0.11758170276880264,-1.553619384765625,-0.008331297896802425,58.3786080342195,NW,,,,False,False,False,5,,,
190,22:03:33:028,0.0030212411656975746,0.0,0.9932669997215271,124.37772310535411,328.4920733583254,542.728757765681,-395.4137878417969,33.66191482543945,-0.01983356475830078,0.11758170276880264,-1.553619384765625,-0.008331297896802425,58.3786080342195,NW,,,,False,False,False,5,,,
191,22:03:33:040,0.002920533064752817,0.0,0.9932669997215271,123.44210709021571,327.5563490670339,541.7923862879205,-394.47698974609375,33.636985778808594,-0.019835777580738068,0.1180393248796463,-1.5135496854782104,-0.010986328125,59.06499725560039,NW,,,,False,False,False,5,,,
192,22:03:33:082,0.002920533064752817,0.0,0.9932669997215271,122.6784953624398,326.79264444847274,541.0281481428351,-393.71240234375,33.61690902709961,-0.019924048334360123,0.1311669498682022,-1.4775999784469604,-0.01309203915297985,59.62440583895095,NW,,,,False,False,False,5,,,
193,22:03:33:110,0.002920533064752817,0.0,0.9932669997215271,122.4055305247278,326.51964524519894,540.7549574048815,-393.4390869140625,33.60980224609375,-0.019959334284067154,0.13639886677265167,-1.4642333984375,-0.01391601376235485,59.81958314256515,NW,,,,False,False,False,5,,,
194,22:03:33:158,0.002920533064752817,0.0,0.9932669997215271,121.45503595979994,325.5690262786052,539.8036688267919,-392.48736572265625,33.585384368896484,-0.020069275051355362,0.15264788269996643,-1.4162291288375854,-0.01690673641860485,60.47955756517638,NW,,,,False,False,False,5,,,
195,22:03:33:166,0.002920533064752817,0.0,0.9932669997215271,121.45503595979994,325.5690262786052,539.8036688267919,-392.48736572265625,33.585384368896484,-0.020069275051355362,0.15264788269996643,-1.4162291288375854,-0.01690673641860485,60.47955756517638,NW,,,,False,False,False,5,,,
196,22:03:33:193,0.002920533064752817,0.0,0.9932669997215271,120.90548647699984,325.01940211153857,539.2536554089269,-391.9371032714844,33.57151794433594,-0.020135534927248955,0.15802325308322906,-1.38775634765625,-0.019683837890625,60.84832175993169,NW,,,,False,False,False,5,,,
197,22:03:33:258,0.002920533064752817,0.0,0.9932669997215271,120.0215685939364,324.13536148453335,538.3689843131351,-391.0520324707031,33.549617767333984,-0.020301932469010353,0.1586584597826004,-1.3412474393844604,-0.023193359375,61.42415553536478,NW,,,,False,False,False,5,,,
198,22:03:33:282,0.002920533064752817,0.0,0.9932669997215271,120.0215685939364,324.13536148453335,538.3689843131351,-391.0520324707031,33.549617767333984,-0.020301932469010353,0.1586584597826004,-1.3412474393844604,-0.023193359375,61.42415553536478,NW,,,,False,False,False,5,,,
199,22:03:33:306,0.002920533064752817,0.0,0.9932669997215271,119.09477466308743,323.20843535883677,537.4413921656981,-390.1240234375,33.52722930908203,-0.020521316677331924,0.15294158458709717,-1.29193115234375,-0.02624511905014515,62.00710126385509,NW,,,,False,False,False,5,,,
200,22:03:33:332,0.002920533064752817,0.0,0.9932669997215271,118.52789332967956,322.64147184378345,536.8740188320061,-389.556396484375,33.51384735107422,-0.020677680149674416,0.14848147332668304,-1.261535406112671,-0.0283508263528347,62.354283373790246,NW,,,,False,False,False,5,,,
201,22:03:33:357,0.002920533064752817,0.0,0.9932669997215271,118.22007165307896,322.33360543880474,536.5659288225459,-389.2481689453125,33.50667953491211,-0.020783156156539917,0.14684222638607025,-1.2449949979782104,-0.0294494591653347,62.54002507437215,NW,,,,False,False,False,5,,,
202,22:03:33:384,0.002920533064752817,0.0,0.9932669997215271,117.67272940498671,321.7861834146479,536.018107579845,-388.7001037597656,33.49411392211914,-0.020996512845158577,0.14489562809467316,-1.2155150175094604,-0.03112792782485485,62.865728407288,NW,,,,False,False,False,5,,,
203,22:03:33:409,0.002920533064752817,0.0,0.9932669997215271,117.67272940498671,321.7861834146479,536.018107579845,-388.7001037597656,33.49411392211914,-0.020996512845158577,0.14489562809467316,-1.2155150175094604,-0.03112792782485485,62.865728407288,NW,,,,False,False,False,5,,,
204,22:03:33:433,0.0022155765909701586,0.0,0.9932669997215271,116.67643033104761,320.7897367309594,535.0209296333024,-387.7024841308594,33.4717903137207,-0.021431121975183487,0.14277143776416779,-1.1642760038375854,-0.0329589806497097,63.44501639970397,NW,,,,False,False,False,5,,,
205,22:03:33:467,0.0022155765909701586,0.0,0.9932669997215271,116.14402444497377,320.2572506132397,534.4880514593164,-387.16937255859375,33.460201263427734,-0.021641235798597336,0.14396671950817108,-1.1383363008499146,-0.0397033654153347,63.74762841010103,NW,,,,False,False,False,5,,,
206,22:03:33:493,0.001913452404551208,0.0,0.9932669997215271,115.82831049402303,319.9414883541724,534.1720568393351,-386.8532409667969,33.453453063964844,-0.02173515222966671,0.14654169976711273,-1.1234740018844604,-0.0468139611184597,63.92497362597583,NW,,,,False,False,False,5,,,
207,22:03:33:531,0.001913452404551208,0.0,0.9932669997215271,115.23382421440525,319.34690617552263,533.5770372905005,-386.2579650878906,33.440834045410156,-0.021836889907717705,0.1550794392824173,-1.096649169921875,-0.0495910607278347,64.2549358448291,NW,,,,False,False,False,5,,,
208,22:03:33:576,0.001913452404551208,0.0,0.9932669997215271,114.19327977458532,318.30618672680754,532.5355501528716,-385.2160339355469,33.419273376464844,-0.021928787231445312,0.17072056233882904,-1.05291748046875,-0.0420227013528347,64.8217259191695,NW,,,,False,False,False,5,,,
209,22:03:33:603,0.001913452404551208,0.0,0.9932669997215271,113.87223535563037,317.98508776815805,532.2142135850128,-384.8945617675781,33.412803649902344,-0.02194957621395588,0.1738351285457611,-1.0400389432907104,-0.0421142615377903,64.99393041054948,NW,,,,False,False,False,5,,,
210,22:03:33:629,0.0020141603890806437,0.0,0.9932669997215271,113.28104234514194,317.39379234546334,531.6224807522779,-384.3025817871094,33.40110397338867,-0.021929701790213585,0.1749962717294693,-1.0167235136032104,-0.0466918982565403,65.30803891477329,NW,,,,False,False,False,5,,,
211,22:03:33:657,0.002316284691914916,0.0,0.9932669997215271,112.96819605671008,317.08089031739627,531.3093473749743,-383.98931884765625,33.39500427246094,-0.021884536370635033,0.1732545644044876,-1.0043944120407104,-0.0476684607565403,65.47281861660218,NW,,,,False,False,False,5,,,
212,22:03:33:708,0.0030212411656975746,0.0,0.9932669997215271,112.67025352279707,316.7828938202926,531.0111303846053,-383.69097900390625,33.38924789428711,-0.021829528734087944,0.1708025336265564,-0.9923399090766907,-0.0472412109375,65.62879785382717,NW,,,,False,False,False,5,,,
