tick,time,Steer,Brake,Throttle,Distance_Bicycle,Distance_Motorbike,Distance_SmallCar,Location_X,Location_Y,Location_Z,Rotation_Pitch,Rotation_Yaw,Rotation_Roll,Speed_kmh,Heading,GNSS_Latitude,GNSS_Longitude,Height,Reverse,Hand_Brake,Manual,Gear,Collision_History,Nearby_Vehicles_Count,Nearby_Vehicles_Details
0,21:45:55:301,-0.011883607134222984,0.0,0.39274919033050537,162.8270139023094,366.8667765645651,581.1606075029416,-433.8999938964844,34.900001525878906,0.7184584140777588,0.0,0.0,0.0,17.910197067260743,N,,,,False,False,False,N,,,
1,21:45:55:322,-0.011883607134222984,0.0,0.39274919033050537,162.8273532916093,366.86930931595055,581.1617062117831,-433.8999938964844,34.900001525878906,0.6305593252182007,0.0,0.0,0.0,18.51805171966553,N,,,,False,False,False,N,,,
2,21:45:55:343,-0.011883607134222984,0.0,0.8640457987785339,162.8277661603721,366.87199091751256,581.162948851897,-433.8999938964844,34.900001525878906,0.5382840633392334,0.0,0.0,0.0,19.135491943359376,N,,,,False,False,False,N,,,
3,21:45:55:364,-0.011883607134222984,0.0,0.8640457987785339,162.8277661603721,366.87199091751256,581.162948851897,-433.8999938964844,34.900001525878906,0.5382840633392334,0.0,0.0,0.0,19.135491943359376,N,,,,False,False,False,N,,,
4,21:45:55:383,-0.011883607134222984,0.0,0.8640457987785339,162.8277661603721,366.87199091751256,581.162948851897,-433.8999938964844,34.900001525878906,0.5382840633392334,0.0,0.0,0.0,19.135491943359376,N,,,,False,False,False,N,,,
5,21:45:55:405,-0.011883607134222984,0.0,0.9618786573410034,162.83043965814952,366.8845168309292,581.1702900775371,-433.8999938964844,34.900001525878906,0.0946066677570343,0.0,0.0,0.0,21.86403579711914,N,,,,False,False,False,N,,,
6,21:45:55:434,-0.011883607134222984,0.0,0.9855148196220398,162.83138645065702,366.88797773470554,581.1722717391114,-433.8999938964844,34.900001525878906,-0.019013212993741035,0.0,0.0,0.0,18.66025428772182,N,,,,False,False,False,N,,,
7,21:45:55:449,-0.011883607134222984,0.0,0.9855148196220398,162.83203829774067,366.8903662623798,581.1737449956264,-433.8999938964844,34.900001525878906,-0.09744201600551605,0.0,0.0,0.0,14.411770820619374,N,,,,False,False,False,N,,,
8,21:45:55:481,-0.011883607134222984,0.0,0.9906898140907288,162.83157749990113,366.88988463876956,581.1735944650604,-433.8996276855469,34.90007400512695,-0.09662345796823502,0.053432565182447433,0.0004619963001459837,-0.0964660495519638,1.4835612411285322,N,,,,False,False,False,N,,,
9,21:45:55:490,-0.011883607134222984,0.0,0.9906898140907288,162.8307834520519,366.8888841155967,581.1730232908521,-433.89892578125,34.90008544921875,-0.0897655114531517,0.17099377512931824,-0.00030517575214616954,-0.3057250380516052,1.4869559006277788,N,,,,False,False,False,N,,,
10,21:45:55:523,-0.011883607134222984,0.0,0.9906898140907288,162.82981627783548,366.88746051308624,581.1726131636515,-433.898193359375,34.899749755859375,-0.0760691836476326,0.289156049489975,-0.00201416015625,-0.502166748046875,1.3780447979454873,N,,,,False,False,False,N,,,
11,21:45:55:549,-0.011883607134222984,0.0,0.9906898140907288,162.82957415033462,366.887037671633,581.1726526184713,-433.8980712890625,34.89957809448242,-0.06917888671159744,0.31116291880607605,-0.0024108882062137127,-0.5345458984375,1.298574873843162,N,,,,False,False,False,N,,,
12,21:45:55:571,-0.011883607134222984,0.0,0.9906898140907288,162.82957415033462,366.887037671633,581.1726526184713,-433.8980712890625,34.89957809448242,-0.06917888671159744,0.31116291880607605,-0.0024108882062137127,-0.5345458984375,1.298574873843162,N,,,,False,False,False,N,,,
13,21:45:55:591,-0.011883607134222984,0.0,0.9906898140907288,162.82957415033462,366.887037671633,581.1726526184713,-433.8980712890625,34.89957809448242,-0.06917888671159744,0.31116291880607605,-0.0024108882062137127,-0.5345458984375,1.298574873843162,N,,,,False,False,False,N,,,
14,21:45:55:619,-0.011883607134222984,0.0,0.9906898140907288,162.8294937500376,366.88562211803327,581.1738165308716,-433.8983459472656,34.899139404296875,-0.046347349882125854,0.27576205134391785,-0.0018005369929596782,-0.4620056450366974,0.9051496360097289,N,,,,False,False,False,N,,,
15,21:45:55:633,-0.011883607134222984,0.0,0.9906898140907288,162.82958272090568,366.8855957817704,581.1741129152837,-433.89849853515625,34.89908981323242,-0.04249671846628189,0.2573000490665436,-0.0014953612117096782,-0.4301147758960724,0.819549970395305,N,,,,False,False,False,N,,,
16,21:45:55:654,-0.011883607134222984,0.0,0.9906898140907288,162.82966983274363,366.88550251443763,581.1744079087006,-433.89862060546875,34.8990478515625,-0.03834548965096474,0.23333290219306946,-0.0011596678523346782,-0.389434814453125,0.7209610186393051,N,,,,False,False,False,N,,,
17,21:45:55:675,-0.011883607134222984,0.0,0.9906898140907288,162.82976340907518,366.8854421473575,581.1746827388495,-433.89874267578125,34.89902114868164,-0.03491149842739105,0.21076597273349762,-0.0008850099402479827,-0.351715087890625,0.6334453971649613,N,,,,False,False,False,N,,,
18,21:45:55:697,-0.011883607134222984,0.0,0.9906898140907288,162.829888556797,366.8854360762947,581.1750360956363,-433.89892578125,34.89900588989258,-0.031540412455797195,0.18638218939304352,-0.0005798339261673391,-0.311431884765625,0.5417258426270986,N,,,,False,False,False,N,,,
19,21:45:55:713,-0.011883607134222984,0.0,0.9906898140907288,162.829888556797,366.8854360762947,581.1750360956363,-433.89892578125,34.89900588989258,-0.031540412455797195,0.18638218939304352,-0.0005798339261673391,-0.311431884765625,0.5417258426270986,N,,,,False,False,False,N,,,
20,21:45:55:738,-0.011883607134222984,0.0,0.9906898140907288,162.829888556797,366.8854360762947,581.1750360956363,-433.89892578125,34.89900588989258,-0.031540412455797195,0.18638218939304352,-0.0005798339261673391,-0.311431884765625,0.5417258426270986,N,,,,False,False,False,N,,,
21,21:45:55:764,-0.011883607134222984,0.0,0.9932669997215271,162.83026601486043,366.8848806430013,581.176234894358,-433.89947509765625,34.89900207519531,-0.023500708863139153,0.1131967157125473,4.784862176165916e-05,-0.192047119140625,0.2880637251478883,N,,,,False,False,False,N,,,
22,21:45:55:779,-0.011883607134222984,0.0,0.9932669997215271,162.83026601486043,366.8848806430013,581.176234894358,-433.89947509765625,34.89900207519531,-0.023500708863139153,0.1131967157125473,4.784862176165916e-05,-0.192047119140625,0.2880637251478883,N,,,,False,False,False,N,,,
23,21:45:55:805,-0.011883607134222984,0.0,0.9932669997215271,162.83049098701284,366.8848823799096,581.1766970680331,-433.89971923828125,34.89901351928711,-0.02091682329773903,0.0831507220864296,0.00022394157713279128,-0.143310546875,0.18495098286067763,N,,,,False,False,False,N,,,
24,21:45:55:827,-0.011883607134222984,0.0,0.9932669997215271,162.83057633066298,366.88488274852176,581.176934063987,-433.89984130859375,34.89902114868164,-0.019911421462893486,0.06973622739315033,0.0002868029987439513,-0.12152097374200821,0.14537467099254014,N,,,,False,False,False,N,,,
25,21:45:55:846,-0.011883607134222984,0.0,0.9932669997215271,162.83063347114356,366.8848583162964,581.1770675625028,-433.89990234375,34.89902877807617,-0.01929759979248047,0.060208115726709366,0.00032536365324631333,-0.10595703125,0.11250422169025208,N,,,,False,False,False,N,,,
26,21:45:55:868,-0.011883607134222984,0.0,0.9932669997215271,162.83072252709894,366.8848731876242,581.1772183373291,-433.8999938964844,34.8990364074707,-0.018825339153409004,0.05206653103232384,0.00035441122599877417,-0.0926513597369194,0.0887587764216368,N,,,,False,False,False,N,,,
27,21:45:55:899,-0.011883607134222984,0.0,0.9932669997215271,162.83072252709894,366.8848731876242,581.1772183373291,-433.8999938964844,34.8990364074707,-0.018825339153409004,0.05206653103232384,0.00035441122599877417,-0.0926513597369194,0.0887587764216368,N,,,,False,False,False,N,,,
28,21:45:55:914,-0.011883607134222984,0.0,0.9932669997215271,162.82136346172595,366.874998972826,581.1681253603498,-433.8906555175781,34.898963928222656,-0.01821601763367653,0.07352698594331741,-0.004028320778161287,-0.056915268301963806,1.2939154441339065,N,,,,False,False,False,1,,,
29,21:45:55:945,-0.011883607134222984,0.0,0.9932669997215271,162.8119081802803,366.86546198858866,581.1587201307373,-433.8811950683594,34.89889144897461,-0.018274497240781784,0.09918799996376038,-0.007904052734375,-0.0465698279440403,1.8150194460813165,N,,,,False,False,False,1,,,
30,21:45:55:995,-0.011883607134222984,0.0,0.9932669997215271,162.7838188202283,366.8370661528026,581.130738299124,-433.85308837890625,34.89867401123047,-0.01861652359366417,0.15324895083904266,-0.018646234646439552,-0.02954101376235485,2.724638716525738,N,,,,False,False,False,1,,,
31,21:45:56:019,-0.011883607134222984,0.0,0.9932669997215271,162.73959222487514,366.7924648779287,581.0866072006977,-433.8088684082031,34.89832305908203,-0.019146308302879333,0.1987653225660324,-0.0346984826028347,-0.01605224609375,3.57250330112668,N,,,,False,False,False,1,,,
32,21:45:56:040,-0.011883607134222984,0.0,0.9932669997215271,162.72174695288894,366.7745616040691,581.0687649157557,-433.791015625,34.89817428588867,-0.019315680488944054,0.20909257233142853,-0.0410461388528347,-0.012573241256177425,3.830787828989514,N,,,,False,False,False,1,,,
33,21:45:56:073,-0.011883607134222984,0.0,0.9932669997215271,162.69990520251486,366.7526436299631,581.0469270467069,-433.7691650390625,34.89799499511719,-0.01951141282916069,0.21756882965564728,-0.0487365685403347,-0.00921630859375,4.10758427764781,N,,,,False,False,False,1,,,
34,21:45:56:094,-0.011883607134222984,0.0,0.9932669997215271,162.6573203175086,366.7098350320755,581.0043662916406,-433.7265625,34.89763641357422,-0.019774969667196274,0.22532109916210175,-0.0635986328125,-0.00457763671875,4.565022858887021,N,,,,False,False,False,1,,,
35,21:45:56:114,-0.011883607134222984,0.0,0.9932669997215271,162.63212187681614,366.6845623128016,580.9791707170714,-433.70135498046875,34.897422790527344,-0.019904213026165962,0.22613389790058136,-0.07232666015625,-0.0025939939077943563,4.798052714753267,N,,,,False,False,False,1,,,
36,21:45:56:137,-0.011883607134222984,0.0,0.9932669997215271,162.63212187681614,366.6845623128016,580.9791707170714,-433.70135498046875,34.897422790527344,-0.019904213026165962,0.22613389790058136,-0.07232666015625,-0.0025939939077943563,4.798052714753267,N,,,,False,False,False,1,,,
37,21:45:56:157,-0.011883607134222984,0.0,0.9932669997215271,162.63212187681614,366.6845623128016,580.9791707170714,-433.70135498046875,34.897422790527344,-0.019904213026165962,0.22613389790058136,-0.07232666015625,-0.0025939939077943563,4.798052714753267,N,,,,False,False,False,1,,,
38,21:45:56:176,-0.011883607134222984,0.0,0.9932669997215271,162.55064186298745,366.60254242659835,580.8977222520911,-433.6198425292969,34.896697998046875,-0.020124167203903198,0.21913978457450867,-0.100250244140625,0.00140748533885926,5.433383601166225,N,,,,False,False,False,1,,,
39,21:45:56:203,-0.011883607134222984,0.0,0.9932669997215271,162.49514937049688,366.54682850805597,580.8422347596653,-433.5643310546875,34.896183013916016,-0.02021160162985325,0.21038347482681274,-0.11907956749200821,0.002954215742647648,5.795939588268302,N,,,,False,False,False,1,,,
40,21:45:56:213,-0.011883607134222984,0.0,0.9932669997215271,162.49514937049688,366.54682850805597,580.8422347596653,-433.5643310546875,34.896183013916016,-0.02021160162985325,0.21038347482681274,-0.11907956749200821,0.002954215742647648,5.795939588268302,N,,,,False,False,False,1,,,
41,21:45:56:246,-0.011883607134222984,0.0,0.9932669997215271,162.437337816287,366.48880373893206,580.7844272846975,-433.5065002441406,34.8956298828125,-0.020254667848348618,0.20044554769992828,-0.13861083984375,0.004011447075754404,6.134204028940243,N,,,,False,False,False,1,,,
42,21:45:56:267,-0.011883607134222984,0.0,0.9932669997215271,162.40783628268642,366.459244338075,580.754910858423,-433.47698974609375,34.89533996582031,-0.02026321366429329,0.19539804756641388,-0.1485595703125,0.004409373737871647,6.295265190550386,N,,,,False,False,False,1,,,
43,21:45:56:285,-0.011883607134222984,0.0,0.9932669997215271,162.40783628268642,366.459244338075,580.754910858423,-433.47698974609375,34.89533996582031,-0.02026321366429329,0.19539804756641388,-0.1485595703125,0.004409373737871647,6.295265190550386,N,,,,False,False,False,1,,,
44,21:45:56:305,-0.011883607134222984,0.0,0.9932669997215271,162.40783628268642,366.459244338075,580.754910858423,-433.47698974609375,34.89533996582031,-0.02026321366429329,0.19539804756641388,-0.1485595703125,0.004409373737871647,6.295265190550386,N,,,,False,False,False,1,,,
45,21:45:56:324,-0.011883607134222984,0.0,0.9932669997215271,162.30282802130984,366.35392051113604,580.6499063009628,-433.3719482421875,34.8942756652832,-0.020265845581889153,0.17897826433181763,-0.1837463229894638,0.005356244742870331,6.820904932710398,N,,,,False,False,False,1,,,
46,21:45:56:352,-0.011883607134222984,0.0,0.9932669997215271,162.22616243116465,366.27699158426043,580.5732585670308,-433.2952575683594,34.89346694946289,-0.020230522379279137,0.16905400156974792,-0.209320068359375,0.005784325767308474,7.1707393931102175,N,,,,False,False,False,1,,,
47,21:45:56:381,-0.011883607134222984,0.0,0.9932669997215271,162.17972891841708,366.2304638737201,580.5268247183826,-433.2488098144531,34.89295959472656,-0.02020488679409027,0.16393819451332092,-0.2247619330883026,0.005988347809761763,7.372347315799404,N,,,,False,False,False,1,,,
48,21:45:56:402,-0.011883607134222984,0.0,0.9932669997215271,162.13814642052193,366.18881042646035,580.4852414269141,-433.20721435546875,34.89249038696289,-0.020171698182821274,0.15988789498806,-0.23858642578125,0.00614791177213192,7.547809012189165,N,,,,False,False,False,1,,,
49,21:45:56:419,-0.011883607134222984,0.0,0.9932669997215271,162.10071282232218,366.15131646652094,580.4478071473718,-433.1697692871094,34.892066955566406,-0.0201727282255888,0.15663671493530273,-0.2510071098804474,0.006279247812926769,7.701708215344632,N,,,,False,False,False,1,,,
50,21:45:56:451,-0.011883607134222984,0.0,0.9932669997215271,162.01944101453077,366.06980563444966,580.3665360984023,-433.0884704589844,34.89111328125,-0.020180854946374893,0.15076959133148193,-0.2778930366039276,0.006538554094731808,8.024858976123758,N,,,,False,False,False,1,,,
51,21:45:56:460,-0.011883607134222984,0.0,0.9932669997215271,162.01944101453077,366.06980563444966,580.3665360984023,-433.0884704589844,34.89111328125,-0.020180854946374893,0.15076959133148193,-0.2778930366039276,0.006538554094731808,8.024858976123758,N,,,,False,False,False,1,,,
52,21:45:56:494,-0.011883607134222984,0.0,0.9932669997215271,161.94329424258143,365.9934660336,580.2903886113403,-433.0122985839844,34.890193939208984,-0.020156631246209145,0.1465895175933838,-0.3030700087547302,0.006765543483197689,8.31688629631158,N,,,,False,False,False,1,,,
53,21:45:56:524,-0.011883607134222984,0.0,0.9932669997215271,161.94329424258143,365.9934660336,580.2903886113403,-433.0122985839844,34.890193939208984,-0.020156631246209145,0.1465895175933838,-0.3030700087547302,0.006765543483197689,8.31688629631158,N,,,,False,False,False,1,,,
54,21:45:56:548,-0.011883607134222984,0.0,0.9932669997215271,161.80174159676628,365.8513412675095,580.1488678450617,-432.8706970214844,34.88839340209961,-0.020140495151281357,0.1414395421743393,-0.3497009575366974,0.007179232779890299,8.837079712183439,N,,,,False,False,False,1,,,
55,21:45:56:563,-0.011883607134222984,0.0,0.9932669997215271,161.76519368712775,365.8147528137807,580.1123178960759,-432.8341369628906,34.88791275024414,-0.020120009779930115,0.14056529104709625,-0.3616942763328552,0.00728619983419776,8.96752546133693,N,,,,False,False,False,1,,,
56,21:45:56:584,-0.011883607134222984,0.0,0.9932669997215271,161.71992058533814,365.76941845853537,580.0670425859375,-432.7888488769531,34.887306213378906,-0.020120849832892418,0.13964320719242096,-0.3765868842601776,0.00742321228608489,9.12691730361071,N,,,,False,False,False,1,,,
57,21:45:56:610,-0.011883607134222984,0.0,0.9932669997215271,161.6389855656638,365.68831672980247,579.986104404289,-432.7078857421875,34.88619613647461,-0.02009502425789833,0.13852988183498383,-0.40313720703125,0.007668811362236738,9.407594163802257,N,,,,False,False,False,1,,,
58,21:45:56:630,-0.011883607134222984,0.0,0.9932669997215271,161.58852668220317,365.6377887480557,579.9356427754523,-432.65740966796875,34.8854866027832,-0.020109405741095543,0.13808593153953552,-0.4196777045726776,0.007826444692909718,9.579293257748988,N,,,,False,False,False,1,,,
59,21:45:56:648,-0.011883607134222984,0.0,0.9932669997215271,161.58852668220317,365.6377887480557,579.9356427754523,-432.65740966796875,34.8854866027832,-0.020109405741095543,0.13808593153953552,-0.4196777045726776,0.007826444692909718,9.579293257748988,N,,,,False,False,False,1,,,
60,21:45:56:670,-0.011883607134222984,0.0,0.9932669997215271,161.58852668220317,365.6377887480557,579.9356427754523,-432.65740966796875,34.8854866027832,-0.020109405741095543,0.13808593153953552,-0.4196777045726776,0.007826444692909718,9.579293257748988,N,,,,False,False,False,1,,,
61,21:45:56:692,-0.011883607134222984,0.0,0.9932669997215271,161.42455503365682,365.4732398526882,579.7717276194793,-432.4933776855469,34.88309097290039,-0.02009761705994606,0.1377512514591217,-0.4732666015625,0.00835371483117342,10.124612341022242,N,,,,False,False,False,1,,,
62,21:45:56:719,-0.011883607134222984,0.0,0.9932669997215271,161.34380411923112,365.3923567344693,579.6909712593576,-432.41259765625,34.881858825683594,-0.020069312304258347,0.13803811371326447,-0.499603271484375,0.008621162734925747,10.38687200905066,N,,,,False,False,False,1,,,
63,21:45:56:739,-0.011883607134222984,0.0,0.9932669997215271,161.2966714366261,365.34517621967876,579.6438348823325,-432.3654479980469,34.881126403808594,-0.020068740472197533,0.13830448687076569,-0.5149536728858948,0.008781380951404572,10.538196434879259,NW,,,,False,False,False,1,,,
64,21:45:56:758,-0.011883607134222984,0.0,0.9932669997215271,161.2381602405285,365.28659150872744,579.5853193217863,-432.3069152832031,34.88019561767578,-0.02009895257651806,0.13875529170036316,-0.534027099609375,0.008983703330159187,10.724303162242835,NW,,,,False,False,False,1,,,
65,21:45:56:777,-0.011883607134222984,0.0,0.9932669997215271,161.2381602405285,365.28659150872744,579.5853193217863,-432.3069152832031,34.88019561767578,-0.02009895257651806,0.13875529170036316,-0.534027099609375,0.008983703330159187,10.724303162242835,NW,,,,False,False,False,1,,,
66,21:45:56:806,-0.011883607134222984,0.0,0.9932669997215271,161.05588884799758,365.10375243066954,579.4030677888737,-432.12457275390625,34.8771858215332,-0.020104484632611275,0.14062675833702087,-0.5932310819625854,0.009624521248042583,11.293769749110487,NW,,,,False,False,False,1,,,
67,21:45:56:824,-0.011883607134222984,0.0,0.9932669997215271,161.00588962621842,365.0537082092723,579.3530637423377,-432.0745544433594,34.8763313293457,-0.020100172609090805,0.14124147593975067,-0.6094359159469604,0.009804005734622478,11.447373392241833,NW,,,,False,False,False,1,,,
68,21:45:56:844,-0.011883607134222984,0.0,0.9932669997215271,160.94664740491552,364.994403268391,579.2938159436457,-432.0152893066406,34.875301361083984,-0.02011646144092083,0.142020121216774,-0.62860107421875,0.010019171051681042,11.627835936060606,NW,,,,False,False,False,1,,,
69,21:45:56:870,-0.011883607134222984,0.0,0.9932669997215271,160.89234751993428,364.94005259049817,579.2395106852383,-431.9609680175781,34.87434387207031,-0.02011764422059059,0.142764613032341,-0.6462097764015198,0.010218636132776737,11.792482845560931,NW,,,,False,False,False,1,,,
70,21:45:56:892,-0.011883607134222984,0.0,0.9932669997215271,160.78335181266215,364.8308881998805,579.1305197792814,-431.8519287109375,34.872371673583984,-0.02012958563864231,0.14434921741485596,-0.681427001953125,0.01062234491109848,12.119372092224857,NW,,,,False,False,False,1,,,
71,21:45:56:910,-0.011883607134222984,0.0,0.9932669997215271,160.78335181266215,364.8308881998805,579.1305197792814,-431.8519287109375,34.872371673583984,-0.02012958563864231,0.14434921741485596,-0.681427001953125,0.01062234491109848,12.119372092224857,NW,,,,False,False,False,1,,,
72,21:45:56:930,-0.011883607134222984,0.0,0.9932669997215271,160.78335181266215,364.8308881998805,579.1305197792814,-431.8519287109375,34.872371673583984,-0.02012958563864231,0.14434921741485596,-0.681427001953125,0.01062234491109848,12.119372092224857,NW,,,,False,False,False,1,,,
73,21:45:56:947,-0.011883607134222984,0.0,0.9932669997215271,160.7174912911432,364.7649578051217,579.0646523538106,-431.7860412597656,34.87114715576172,-0.020154228433966637,0.14535324275493622,-0.7026978731155396,0.010869849473237991,12.314864487840444,NW,,,,False,False,False,1,,,
74,21:45:56:967,-0.011883607134222984,0.0,0.9932669997215271,160.52378668233447,364.5707682620215,578.8709293244709,-431.5922546386719,34.867427825927734,-0.020140495151281357,0.14842000603675842,-0.7651061415672302,0.011604702100157738,12.882469919487805,NW,,,,False,False,False,1,,,
75,21:45:56:987,-0.011883607134222984,0.0,0.9932669997215271,160.45786598514508,364.50478672055107,578.8050006609053,-431.52630615234375,34.86611557006836,-0.020158691331744194,0.14949917793273926,-0.786285400390625,0.011859340593218803,13.07288950204873,NW,,,,False,False,False,1,,,
76,21:45:57:013,-0.011883607134222984,0.0,0.9932669997215271,160.39267806689543,364.4395408563904,578.7398046266458,-431.4610900878906,34.86479568481445,-0.020171089097857475,0.15059199929237366,-0.807220458984375,0.012113558128476143,13.260099324980112,NW,,,,False,False,False,1,,,
77,21:45:57:046,-0.011883607134222984,0.0,0.9932669997215271,160.32450099448744,364.37130198835507,578.6716188653152,-431.39288330078125,34.8633918762207,-0.020187262445688248,0.1517394781112671,-0.8290709853172302,0.01238052174448967,13.4546351854091,NW,,,,False,False,False,1,,,
78,21:45:57:065,-0.011883607134222984,0.0,0.9932669997215271,160.32450099448744,364.37130198835507,578.6716188653152,-431.39288330078125,34.8633918762207,-0.020187262445688248,0.1517394781112671,-0.8290709853172302,0.01238052174448967,13.4546351854091,NW,,,,False,False,False,1,,,
79,21:45:57:083,-0.011883607134222984,0.0,0.9932669997215271,160.10697836443825,364.153257867667,578.4540699425139,-431.1752624511719,34.85875701904297,-0.020244751125574112,0.15542776882648468,-0.8987119793891907,0.013242499902844429,14.067720899505346,NW,,,,False,False,False,1,,,
80,21:45:57:097,-0.011883607134222984,0.0,0.9932669997215271,160.04408002418208,364.0903132611896,578.3911624178545,-431.1123352050781,34.85736846923828,-0.020235976204276085,0.15648645162582397,-0.9188231229782104,0.013494198210537434,14.24314339298213,NW,,,,False,False,False,1,,,
81,21:45:57:115,-0.011883607134222984,0.0,0.9932669997215271,159.97007838178362,364.0162484648921,578.3171499319654,-431.0382995605469,34.855712890625,-0.020247917622327805,0.15775004029273987,-0.9424134492874146,0.013792023062705994,14.447979240458466,NW,,,,False,False,False,1,,,
82,21:45:57:138,-0.011883607134222984,0.0,0.9932669997215271,159.90245260260335,363.948571713692,578.2495139372336,-430.97064208984375,34.85417556762695,-0.020245475694537163,0.1588975191116333,-0.9639891386032104,0.014064726419746876,14.634523636703628,NW,,,,False,False,False,1,,,
83,21:45:57:163,-0.011883607134222984,0.0,0.9932669997215271,159.81930085660576,363.86535043032586,578.1663491735127,-430.887451171875,34.852256774902344,-0.020206833258271217,0.1579412817955017,-0.9903869032859802,0.014303934760391712,14.722534407662542,NW,,,,False,False,False,1,,,
84,21:45:57:183,-0.011883607134222984,0.0,0.9932669997215271,159.74920484420693,363.795094667264,578.0962427392938,-430.81732177734375,34.85061264038086,-0.020171813666820526,0.15268203616142273,-1.0124207735061646,0.014346594922244549,14.721943896918884,NW,,,,False,False,False,N,,,
85,21:45:57:205,-0.011883607134222984,0.0,0.9932669997215271,159.74920484420693,363.795094667264,578.0962427392938,-430.81732177734375,34.85061264038086,-0.020171813666820526,0.15268203616142273,-1.0124207735061646,0.014346594922244549,14.721943896918884,NW,,,,False,False,False,N,,,
86,21:45:57:222,-0.011883607134222984,0.0,0.9932669997215271,159.51732253700033,363.5626824941466,577.8643231854398,-430.5853271484375,34.84499740600586,-0.019999846816062927,0.12098313122987747,-1.084442377090454,0.014158409088850021,14.71350392342929,NW,,,,False,False,False,N,,,
87,21:45:57:241,-0.011883607134222984,0.0,0.9932669997215271,159.4518337231688,363.49714458311786,577.7988225345492,-430.5198059082031,34.84336471557617,-0.01992572657763958,0.11209706217050552,-1.1046754121780396,0.01415181066840887,14.802271386826806,NW,,,,False,False,False,N,,,
88,21:45:57:261,-0.011883607134222984,0.0,0.9932669997215271,159.37542581919624,363.4206735204139,577.7224009777183,-430.443359375,34.8414192199707,-0.019916724413633347,0.11037585139274597,-1.1286011934280396,0.01447248924523592,15.182024542766154,NW,,,,False,False,False,2,,,
89,21:45:57:285,-0.011883607134222984,0.0,0.9932669997215271,159.30969461121813,363.35489930437694,577.6566579226021,-430.3775939941406,34.8397216796875,-0.019926872104406357,0.11424856632947922,-1.149383544921875,0.014907505363225937,15.504914571632677,NW,,,,False,False,False,2,,,
90,21:45:57:311,-0.011883607134222984,0.0,0.9932669997215271,159.14706188891896,363.1920739211734,577.4939960808787,-430.2148742675781,34.835418701171875,-0.020036468282341957,0.13562706112861633,-1.20123291015625,0.016214685514569283,16.259047891403434,NW,,,,False,False,False,2,,,
91,21:45:57:332,-0.011883607134222984,0.0,0.9932669997215271,159.14706188891896,363.1920739211734,577.4939960808787,-430.2148742675781,34.835418701171875,-0.020036468282341957,0.13562706112861633,-1.20123291015625,0.016214685514569283,16.259047891403434,NW,,,,False,False,False,2,,,
92,21:45:57:354,-0.011883607134222984,0.0,0.9932669997215271,159.14706188891896,363.1920739211734,577.4939960808787,-430.2148742675781,34.835418701171875,-0.020036468282341957,0.13562706112861633,-1.20123291015625,0.016214685514569283,16.259047891403434,NW,,,,False,False,False,2,,,
93,21:45:57:384,-0.011883607134222984,0.0,0.9932669997215271,158.8011549209387,362.84533609741135,577.1480254646576,-429.8687744140625,34.82583236694336,-0.020405234768986702,0.19125895202159882,-1.311859369277954,0.01888255774974823,17.694165371503942,NW,,,,False,False,False,2,,,
94,21:45:57:405,-0.011883607134222984,0.0,0.9932669997215271,158.70971539035153,362.7538347470814,577.0565671264798,-429.77728271484375,34.82319641113281,-0.02050548419356346,0.20365573465824127,-1.3410035371780396,0.019506044685840607,18.04297743596631,NW,,,,False,False,False,2,,,
95,21:45:57:420,-0.011883607134222984,0.0,0.9932669997215271,158.64078538460342,362.6848713668107,576.9876223728935,-429.70831298828125,34.82118606567383,-0.02052181214094162,0.2127877026796341,-1.3629149198532104,0.020004818215966225,18.300600356947314,NW,,,,False,False,False,2,,,
96,21:45:57:443,-0.011883607134222984,0.0,0.9932669997215271,158.54519822044045,362.589219070637,576.8920142903497,-429.6126708984375,34.818359375,-0.020548133179545403,0.22413264214992523,-1.3932191133499146,0.020674929022789,18.646804244884535,NW,,,,False,False,False,2,,,
97,21:45:57:475,-0.011883607134222984,0.0,0.9932669997215271,158.54519822044045,362.589219070637,576.8920142903497,-429.6126708984375,34.818359375,-0.020548133179545403,0.22413264214992523,-1.3932191133499146,0.020674929022789,18.646804244884535,NW,,,,False,False,False,2,,,
98,21:45:57:500,-0.011883607134222984,0.0,0.9932669997215271,158.23572108869848,362.27919274309585,576.5824682074441,-429.3030090332031,34.80890655517578,-0.020626753568649292,0.24842078983783722,-1.4907532930374146,0.02254418097436428,19.703709085388297,NW,,,,False,False,False,2,,,
99,21:45:57:519,-0.011883607134222984,0.0,0.9932669997215271,158.15084277302515,362.19426984912246,576.4975696333026,-429.21807861328125,34.806236267089844,-0.020643919706344604,0.25240278244018555,-1.5173646211624146,0.02299649268388748,19.978601390870608,NW,,,,False,False,False,2,,,
100,21:45:57:545,-0.011883607134222984,0.0,0.9932669997215271,157.95119881462625,361.9944117527959,576.2978769535459,-429.018310546875,34.7998161315918,-0.020679932087659836,0.25898027420043945,-1.579651117324829,0.024080317467451096,20.603253256463297,NW,,,,False,False,False,2,,,
101,21:45:57:554,-0.011883607134222984,0.0,0.9932669997215271,157.95119881462625,361.9944117527959,576.2978769535459,-429.018310546875,34.7998161315918,-0.020679932087659836,0.25898027420043945,-1.579651117324829,0.024080317467451096,20.603253256463297,NW,,,,False,False,False,2,,,
102,21:45:57:585,-0.011883607134222984,0.0,0.9932669997215271,157.75604156919536,361.7990603893655,576.102670062832,-428.8230285644531,34.793357849121094,-0.02070651948451996,0.2623817026615143,-1.640228271484375,0.02512058988213539,21.18691329909217,NW,,,,False,False,False,2,,,
103,21:45:57:611,-0.011883607134222984,0.0,0.9932669997215271,157.75604156919536,361.7990603893655,576.102670062832,-428.8230285644531,34.793357849121094,-0.02070651948451996,0.2623817026615143,-1.640228271484375,0.02512058988213539,21.18691329909217,NW,,,,False,False,False,2,,,
104,21:45:57:647,-0.011883607134222984,0.0,0.9932669997215271,157.39110953028035,361.43352999149107,575.7376404898772,-428.4578552246094,34.78079605102539,-0.020736731588840485,0.2638501822948456,-1.752807855606079,0.0270991288125515,22.217315020427662,NW,,,,False,False,False,2,,,
105,21:45:57:668,-0.011883607134222984,0.0,0.9932669997215271,157.18104859661761,361.223083065586,575.5275202386906,-428.2476501464844,34.773284912109375,-0.02074493281543255,0.2630237340927124,-1.817199468612671,0.028208225965499878,22.779527052651083,NW,,,,False,False,False,2,,,
106,21:45:57:695,-0.011883607134222984,0.0,0.9932669997215271,157.07187214767362,361.1138457877177,575.4183116196351,-428.1383972167969,34.7692985534668,-0.020747145637869835,0.26232022047042847,-1.8505858182907104,0.028784863650798798,23.063882969455392,NW,,,,False,False,False,2,,,
107,21:45:57:717,-0.011883607134222984,0.0,0.9932669997215271,156.97602338501028,361.0179512677171,575.322434108755,-428.04248046875,34.76575469970703,-0.02074817568063736,0.26160305738449097,-1.8798216581344604,0.029278267174959183,23.30941060543007,NW,,,,False,False,False,2,,,
108,21:45:57:736,-0.011883607134222984,0.0,0.9932669997215271,156.97602338501028,361.0179512677171,575.322434108755,-428.04248046875,34.76575469970703,-0.02074817568063736,0.26160305738449097,-1.8798216581344604,0.029278267174959183,23.30941060543007,NW,,,,False,False,False,2,,,
109,21:45:57:754,-0.011883607134222984,0.0,0.9932669997215271,156.97602338501028,361.0179512677171,575.322434108755,-428.04248046875,34.76575469970703,-0.02074817568063736,0.26160305738449097,-1.8798216581344604,0.029278267174959183,23.30941060543007,NW,,,,False,False,False,2,,,
110,21:45:57:776,-0.011883607134222984,0.0,0.9932669997215271,156.47035285690498,360.5116500128376,574.8166042389773,-427.53643798828125,34.746299743652344,-0.02074134722352028,0.25679460167884827,-2.033294439315796,0.03197556734085083,24.54752025213952,NW,,,,False,False,False,2,,,
111,21:45:57:801,-0.011883607134222984,0.0,0.9932669997215271,156.34410621510008,360.3853289174622,574.6903153722607,-427.41009521484375,34.74126052856445,-0.02073768526315689,0.2555310130119324,-2.071380376815796,0.03263695910573006,24.843197328216657,NW,,,,False,False,False,2,,,
112,21:45:57:822,-0.011883607134222984,0.0,0.9932669997215271,156.2008461447866,360.24198396127747,574.5470064432761,-427.2667236328125,34.735450744628906,-0.02073291689157486,0.2541581690311432,-2.11456298828125,0.0333494208753109,25.17324474220523,NW,,,,False,False,False,2,,,
113,21:45:57:843,-0.011883607134222984,0.0,0.9932669997215271,156.06877811121942,360.1098368117752,574.4148921287991,-427.1345520019531,34.73000717163086,-0.02072788216173649,0.2528262734413147,-2.154235601425171,0.03405681625008583,25.47209573771615,NW,,,,False,False,False,2,,,
114,21:45:57:865,-0.011883607134222984,0.0,0.9932669997215271,155.96003959537782,360.00104427598325,574.3061148770574,-427.0257263183594,34.7254638671875,-0.02072368562221527,0.2518017292022705,-2.186858892440796,0.03460881486535072,25.71480789353883,NW,,,,False,False,False,2,,,
115,21:45:57:885,-0.011883607134222984,0.0,0.9932669997215271,155.96003959537782,360.00104427598325,574.3061148770574,-427.0257263183594,34.7254638671875,-0.02072368562221527,0.2518017292022705,-2.186858892440796,0.03460881486535072,25.71480789353883,NW,,,,False,False,False,2,,,
116,21:45:57:902,-0.011883607134222984,0.0,0.9932669997215271,155.96003959537782,360.00104427598325,574.3061148770574,-427.0257263183594,34.7254638671875,-0.02072368562221527,0.2518017292022705,-2.186858892440796,0.03460881486535072,25.71480789353883,NW,,,,False,False,False,2,,,
117,21:45:57:921,-0.011883607134222984,0.0,0.9932669997215271,155.53524894832856,359.5758718510917,573.8811664191393,-426.6005859375,34.707176208496094,-0.02070526033639908,0.24790853261947632,-2.313781499862671,0.036841705441474915,26.634433449744176,NW,,,,False,False,False,2,,,
118,21:45:57:941,-0.011883607134222984,0.0,0.9932669997215271,155.2984519567572,359.33876773436765,573.6442770194499,-426.36358642578125,34.696624755859375,-0.020661430433392525,0.24101004004478455,-2.384155035018921,0.03786041587591171,26.898292685251576,NW,,,,False,False,False,N,,,
119,21:45:57:968,-0.011883607134222984,0.0,0.9932669997215271,155.1324280513118,359.17263385813794,573.4781857107221,-426.1974182128906,34.68907928466797,-0.020564384758472443,0.22641393542289734,-2.43316650390625,0.038304124027490616,26.897440320334795,NW,,,,False,False,False,N,,,
120,21:45:58:002,-0.011883607134222984,0.0,0.9932669997215271,154.88569825123398,358.92567898338325,573.23135218624,-425.9504699707031,34.6776237487793,-0.02035549096763134,0.19528192281723022,-2.505524158477783,0.03880976513028145,26.88706175432306,NW,,,,False,False,False,N,,,
121,21:45:58:040,-0.011883607134222984,0.0,0.9932669997215271,154.65992114833864,358.6997086361485,573.0054768822665,-425.7244873046875,34.66688919067383,-0.02016036957502365,0.16628777980804443,-2.571441650390625,0.0393022857606411,27.001353741135915,NW,,,,False,False,False,N,,,
122,21:45:58:084,-0.011883607134222984,0.0,0.9932669997215271,154.24164850521274,358.2808754038538,572.587015579221,-425.3058166503906,34.64630126953125,-0.020140837877988815,0.16337811946868896,-2.694031238555908,0.041520725935697556,28.073822871555183,NW,,,,False,False,False,3,,,
123,21:45:58:104,-0.011883607134222984,0.0,0.9932669997215271,154.08408958956747,358.12321866779484,572.4293830015931,-425.1481018066406,34.63833236694336,-0.02019725739955902,0.17174509167671204,-2.740265369415283,0.042403444647789,28.46682875423923,NW,,,,False,False,False,3,,,
124,21:45:58:127,-0.011883607134222984,0.0,0.9932669997215271,153.93994671498902,357.9789861144061,572.2851711589807,-425.0038146972656,34.63093566894531,-0.020263176411390305,0.1815464198589325,-2.782501697540283,0.04325230047106743,28.817159618030058,NW,,,,False,False,False,3,,,
125,21:45:58:145,-0.011883607134222984,0.0,0.9932669997215271,153.78751418694011,357.8264546108332,572.1326642812138,-424.8512268066406,34.62300491333008,-0.02033645659685135,0.19240641593933105,-2.8271484375,0.044118452817201614,29.1786347730217,NW,,,,False,False,False,3,,,
126,21:45:58:167,-0.011883607134222984,0.0,0.9932669997215271,153.64916875800574,357.68802598276557,571.9942500434602,-424.7127380371094,34.61571502685547,-0.020399779081344604,0.20179793238639832,-2.867584705352783,0.04485331103205681,29.499220494510084,NW,,,,False,False,False,3,,,
127,21:45:58:201,-0.011883607134222984,0.0,0.9932669997215271,153.3511744604701,357.3897599853734,571.6961031147906,-424.4144287109375,34.59971237182617,-0.020523833110928535,0.2201506495475769,-2.954468250274658,0.04639222100377083,30.16727838000415,NW,,,,False,False,False,3,,,
128,21:45:58:215,-0.011883607134222984,0.0,0.9932669997215271,153.3511744604701,357.3897599853734,571.6961031147906,-424.4144287109375,34.59971237182617,-0.020523833110928535,0.2201506495475769,-2.954468250274658,0.04639222100377083,30.16727838000415,NW,,,,False,False,False,3,,,
129,21:45:58:239,-0.011883607134222984,0.0,0.9932669997215271,153.3511744604701,357.3897599853734,571.6961031147906,-424.4144287109375,34.59971237182617,-0.020523833110928535,0.2201506495475769,-2.954468250274658,0.04639222100377083,30.16727838000415,NW,,,,False,False,False,3,,,
130,21:45:58:265,-0.011883607134222984,0.0,0.9932669997215271,152.7091558669707,356.7466934519113,571.0537350710064,-423.7716979980469,34.56385803222656,-0.020699501037597656,0.24605755507946014,-3.140472650527954,0.04945316165685654,31.515458959269584,NW,,,,False,False,False,3,,,
131,21:45:58:299,-0.011883607134222984,0.0,0.9932669997215271,152.53525272586742,356.5726670173175,570.8797315622112,-423.59759521484375,34.5538215637207,-0.020728643983602524,0.2503674030303955,-3.190582513809204,0.0503133125603199,31.86192525083509,NW,,,,False,False,False,3,,,
132,21:45:58:321,-0.011883607134222984,0.0,0.9932669997215271,152.23229547546495,356.2694043741049,570.5765943313637,-423.2942810058594,34.5360107421875,-0.020763052627444267,0.25540807843208313,-3.2775886058807373,0.05173921585083008,32.448365790296336,NW,,,,False,False,False,3,,,
133,21:45:58:346,-0.011883607134222984,0.0,0.9932669997215271,152.0690091156575,356.1060057724186,570.4132081096855,-423.13079833984375,34.526241302490234,-0.02077476494014263,0.25713610649108887,-3.3243112564086914,0.05252554267644882,32.756134113627134,NW,,,,False,False,False,3,,,
134,21:45:58:366,-0.011883607134222984,0.0,0.9932669997215271,152.0690091156575,356.1060057724186,570.4132081096855,-423.13079833984375,34.526241302490234,-0.02077476494014263,0.25713610649108887,-3.3243112564086914,0.05252554267644882,32.756134113627134,NW,,,,False,False,False,3,,,
135,21:45:58:381,-0.011883607134222984,0.0,0.9932669997215271,152.0690091156575,356.1060057724186,570.4132081096855,-423.13079833984375,34.526241302490234,-0.02077476494014263,0.25713610649108887,-3.3243112564086914,0.05252554267644882,32.756134113627134,NW,,,,False,False,False,3,,,
136,21:45:58:398,-0.011883607134222984,0.0,0.9932669997215271,151.50038238830163,355.53658896841574,569.8442183239345,-422.56146240234375,34.49129867553711,-0.0207893755286932,0.2592124938964844,-3.4863593578338623,0.05522532761096954,33.787021898406266,NW,,,,False,False,False,3,,,
137,21:45:58:417,-0.011883607134222984,0.0,0.9932669997215271,151.37337913086364,355.409507369029,569.7171304432924,-422.4342956542969,34.48330307006836,-0.02078865095973015,0.2590758800506592,-3.5223701000213623,0.055819071829319,34.0092731022965,NW,,,,False,False,False,3,,,
138,21:45:58:450,-0.011883607134222984,0.0,0.9932669997215271,151.02063232088827,355.05639515006175,569.3641413427711,-422.0810852050781,34.46068572998047,-0.02078086882829666,0.2579079270362854,-3.6221625804901123,0.05757015570998192,34.61265447595555,NW,,,,False,False,False,3,,,
139,21:45:58:458,-0.011883607134222984,0.0,0.9932669997215271,151.02063232088827,355.05639515006175,569.3641413427711,-422.0810852050781,34.46068572998047,-0.02078086882829666,0.2579079270362854,-3.6221625804901123,0.05757015570998192,34.61265447595555,NW,,,,False,False,False,3,,,
140,21:45:58:485,-0.011883607134222984,0.0,0.9932669997215271,150.84499616244543,354.8806268153353,569.1883808742124,-421.90521240234375,34.44922637939453,-0.02077484130859375,0.2570131719112396,-3.6716623306274414,0.058429475873708725,34.905814911711694,NW,,,,False,False,False,3,,,
141,21:45:58:509,-0.011883607134222984,0.0,0.9932669997215271,150.84499616244543,354.8806268153353,569.1883808742124,-421.90521240234375,34.44922637939453,-0.02077484130859375,0.2570131719112396,-3.6716623306274414,0.058429475873708725,34.905814911711694,NW,,,,False,False,False,3,,,
142,21:45:58:530,0.031220609322190285,0.0,0.9932669997215271,150.29544523180496,354.3303620444135,568.6384565308227,-421.3549499511719,34.41551208496094,-0.02074745111167431,0.2529218792915344,-3.6735546588897705,0.009497462771832943,35.78436011599305,NW,,,,False,False,False,3,,,
143,21:45:58:555,0.03283211961388588,0.0,0.9932669997215271,150.134209429616,354.1690216852975,568.4771147256696,-421.1935119628906,34.40614318847656,-0.02073840983211994,0.25161731243133545,-3.6369333267211914,-0.007598877884447575,36.0357634140683,NW,,,,False,False,False,3,,,
144,21:45:58:578,0.034443650394678116,0.0,0.9932669997215271,149.76314148860752,353.7976119948034,568.1058088517096,-420.8219909667969,34.385433197021484,-0.020717239007353783,0.24850958585739136,-3.5035104751586914,-0.04510498046875,36.603349552297246,NW,,,,False,False,False,3,,,
145,21:45:58:599,0.03665953874588013,0.0,0.9932669997215271,149.56738989295914,353.6017291358371,567.9099350584937,-420.6260070800781,34.374977111816406,-0.020706024020910263,0.24687717854976654,-3.4107372760772705,-0.0625305101275444,36.89656151679829,NW,,,,False,False,False,3,,,
146,21:45:58:619,0.03726387768983841,0.0,0.9932669997215271,149.39934261417565,353.43358150067786,567.7417848870707,-420.457763671875,34.36626052856445,-0.02069675363600254,0.24554528295993805,-3.321228265762329,-0.0756835788488388,37.145156728609756,NW,,,,False,False,False,3,,,
147,21:45:58:638,0.03726387768983841,0.0,0.9932669997215271,149.1960215881172,353.2301287274042,567.538342201708,-420.25421142578125,34.356075286865234,-0.020685728639364243,0.24391287565231323,-3.2019355297088623,-0.0906371995806694,37.44225663419031,NW,,,,False,False,False,3,,,
148,21:45:58:658,0.03726387768983841,0.0,0.9932669997215271,149.1960215881172,353.2301287274042,567.538342201708,-420.25421142578125,34.356075286865234,-0.020685728639364243,0.24391287565231323,-3.2019355297088623,-0.0906371995806694,37.44225663419031,NW,,,,False,False,False,3,,,
149,21:45:58:677,0.03726387768983841,0.0,0.9932669997215271,149.1960215881172,353.2301287274042,567.538342201708,-420.25421142578125,34.356075286865234,-0.020685728639364243,0.24391287565231323,-3.2019355297088623,-0.0906371995806694,37.44225663419031,NW,,,,False,False,False,3,,,
150,21:45:58:697,0.03736460208892822,0.0,0.9932669997215271,148.58132980229993,352.6147224044732,566.9233026858849,-419.63885498046875,34.32762908935547,-0.02065463922917843,0.23933663964271545,-2.790802240371704,-0.1254882663488388,38.31724967726639,NW,,,,False,False,False,3,,,
151,21:45:58:723,0.03736460208892822,0.0,0.9932669997215271,148.20088283874833,352.2339791364564,566.5426566131669,-419.2580261230469,34.31187438964844,-0.02060474269092083,0.23196686804294586,-2.511291742324829,-0.1413574069738388,38.641012428871875,NW,,,,False,False,False,N,,,
152,21:45:58:750,0.03736460208892822,0.0,0.9932669997215271,148.0084698838194,352.04146757307075,566.350147771801,-419.0654296875,34.30446243286133,-0.02053447626531124,0.22153034806251526,-2.364777088165283,-0.1481323540210724,38.65760269333354,NW,,,,False,False,False,N,,,
153,21:45:58:771,0.03736460208892822,0.0,0.9932669997215271,147.8122385660026,351.8451374867671,566.1538224236881,-418.8690185546875,34.29731369018555,-0.02043537050485611,0.20685909688472748,-2.212677001953125,-0.1544189453125,38.65181372753198,NW,,,,False,False,False,N,,,
154,21:45:58:791,0.03736460208892822,0.0,0.9932669997215271,147.64877856132628,351.6816079586924,565.9902870921959,-418.7054138183594,34.29166793823242,-0.020343398675322533,0.1932397037744522,-2.0841987133026123,-0.1591796725988388,38.64330459307239,NW,,,,False,False,False,N,,,
155,21:45:58:814,0.03736460208892822,0.0,0.9932669997215271,147.43789645998325,351.470621628473,565.7793123652311,-418.4943542480469,34.28485870361328,-0.02020999789237976,0.17351411283016205,-1.9162602424621582,-0.1653747409582138,38.63150991295171,NW,,,,False,False,False,N,,,
156,21:45:58:834,0.03736460208892822,0.0,0.9932669997215271,147.43789645998325,351.470621628473,565.7793123652311,-418.4943542480469,34.28485870361328,-0.02020999789237976,0.17351411283016205,-1.9162602424621582,-0.1653747409582138,38.63150991295171,NW,,,,False,False,False,N,,,
157,21:45:58:851,0.03736460208892822,0.0,0.9932669997215271,147.43789645998325,351.470621628473,565.7793123652311,-418.4943542480469,34.28485870361328,-0.02020999789237976,0.17351411283016205,-1.9162602424621582,-0.1653747409582138,38.63150991295171,NW,,,,False,False,False,N,,,
158,21:45:58:878,0.03736460208892822,0.0,0.9932669997215271,146.6110531318399,350.6431486142873,564.9521623092786,-417.6669006347656,34.2633056640625,-0.020065955817699432,0.15236784517765045,-1.2431944608688354,-0.1895751655101776,39.71878807646511,NW,,,,False,False,False,4,,,
159,21:45:58:900,0.03736460208892822,0.0,0.9932669997215271,146.38801712092678,350.4200442573332,564.729059735059,-417.4437255859375,34.258949279785156,-0.02010848931968212,0.1587267518043518,-1.0599061250686646,-0.1958007663488388,40.055760283478094,NW,,,,False,False,False,4,,,
160,21:45:58:932,0.03736460208892822,0.0,0.9932669997215271,146.00038132543884,350.03222374220877,564.3413254140104,-417.0558776855469,34.252925872802734,-0.020206641405820847,0.173329696059227,-0.740936279296875,-0.206451416015625,40.62359711960961,NW,,,,False,False,False,4,,,
161,21:45:58:962,0.03555159270763397,0.0,0.9932669997215271,145.79930590945747,349.83110517589665,564.1402070841448,-416.8547058105469,34.25053024291992,-0.02025863528251648,0.18101365864276886,-0.5764159560203552,-0.2111816555261612,40.90968944895028,NW,,,,False,False,False,4,,,
162,21:45:58:992,0.03202636167407036,0.0,0.9932669997215271,145.52830469501257,349.56003555523756,563.8691561354817,-416.5835876464844,34.24801254272461,-0.020322760567069054,0.19049397110939026,-0.3592528998851776,-0.2154540717601776,41.28688306167995,N,,,,False,False,False,4,,,
163,21:45:59:024,0.02356615848839283,0.0,0.9932669997215271,144.87545481745406,348.90677929119533,563.2162188676461,-415.9305114746094,34.24481201171875,-0.020444029942154884,0.2083480805158615,0.11425122618675232,-0.2123718112707138,42.159165245084935,N,,,,False,False,False,4,,,
164,21:45:59:052,0.012487865053117275,0.0,0.9932669997215271,144.65615420033492,348.68745493642473,562.9968981463052,-415.7111511230469,34.24455642700195,-0.020473746582865715,0.2126852422952652,0.2532139718532562,-0.20745849609375,42.441725649491126,N,,,,False,False,False,4,,,
165,21:45:59:072,0.0037261981051415205,0.0,0.9932669997215271,144.48648985279644,348.5177872410201,562.8272200922529,-415.54144287109375,34.24451446533203,-0.020492058247327805,0.21536268293857574,0.34983745217323303,-0.2014465183019638,42.65680288368974,N,,,,False,False,False,4,,,
166,21:45:59:104,-0.005337529815733433,0.0,0.9932669997215271,144.2543075931759,348.2855805814404,562.5950203600623,-415.3092041015625,34.244590759277344,-0.020513152703642845,0.21842943131923676,0.4592512845993042,-0.187713623046875,42.94597052669854,N,,,,False,False,False,4,,,
167,21:45:59:124,-0.005337529815733433,0.0,0.9932669997215271,144.2543075931759,348.2855805814404,562.5950203600623,-415.3092041015625,34.244590759277344,-0.020513152703642845,0.21842943131923676,0.4592512845993042,-0.187713623046875,42.94597052669854,N,,,,False,False,False,4,,,
168,21:45:59:142,-0.016314858570694923,0.0,0.9932669997215271,143.5205037297985,347.55133453327596,561.861165053819,-414.5752258300781,34.24519348144531,-0.020546264946460724,0.223121777176857,0.6339289546012878,-0.12646484375,43.82441117522639,NE,,,,False,False,False,4,,,
169,21:45:59:170,-0.020544754341244698,0.0,0.9932669997215271,143.11175342526,347.1424841986284,561.4523879895811,-414.1663818359375,34.245750427246094,-0.020548896864056587,0.22347694635391235,0.6400470733642578,-0.09460446983575821,44.29339280932062,NE,,,,False,False,False,4,,,
170,21:45:59:191,-0.02537902258336544,0.0,0.9932669997215271,142.91898777549892,346.9497149311202,561.2596092398998,-413.97357177734375,34.245994567871094,-0.020547332242131233,0.2232515513896942,0.6234664916992188,-0.0800476148724556,44.509756737352276,NE,,,,False,False,False,4,,,
171,21:45:59:212,-0.028299789875745773,0.0,0.9932669997215271,142.68573656052752,346.7164452698364,561.0263407256307,-413.7402648925781,34.246185302734375,-0.02054344117641449,0.22267098724842072,0.5856350064277649,-0.061492908746004105,44.767663727761665,NE,,,,False,False,False,4,,,
172,21:45:59:230,-0.030717015266418457,0.0,0.9932669997215271,142.46469231264675,346.4953864200819,560.8052786216775,-413.5191650390625,34.246253967285156,-0.020538177341222763,0.22191283106803894,0.5337810516357422,-0.044250499457120895,45.00829619529502,NE,,,,False,False,False,4,,,
173,21:45:59:255,-0.030717015266418457,0.0,0.9932669997215271,142.46469231264675,346.4953864200819,560.8052786216775,-413.5191650390625,34.246253967285156,-0.020538177341222763,0.22191283106803894,0.5337810516357422,-0.044250499457120895,45.00829619529502,NE,,,,False,False,False,4,,,
174,21:45:59:291,-0.0343429297208786,0.0,0.9932669997215271,141.69172362497577,345.72195137699583,560.0322281906753,-412.7459716796875,34.24502182006836,-0.020511893555521965,0.21804694831371307,0.24200628697872162,0.01522964145988226,45.82385936879187,N,,,,False,False,False,4,,,
175,21:45:59:318,-0.03484653681516647,0.0,0.9932669997215271,141.2765545751587,345.30666564148896,559.6170006623603,-412.3306579589844,34.243255615234375,-0.020495451986789703,0.21562905609607697,0.03291866555809975,0.04260731488466263,46.24725071743217,N,,,,False,False,False,4,,,
176,21:45:59:333,-0.03484653681516647,0.0,0.9932669997215271,141.06353206036954,345.0936193662441,559.40394338262,-412.1175537109375,34.24199295043945,-0.02048679254949093,0.21434497833251953,-0.0846557542681694,0.05559619888663292,46.46077081369275,N,,,,False,False,False,4,,,
177,21:45:59:360,-0.03484653681516647,0.0,0.9932669997215271,140.83742871483486,344.86748407383203,559.177798977992,-411.891357421875,34.2403450012207,-0.020477332174777985,0.21294479072093964,-0.2157592624425888,0.0688973069190979,46.684796821143934,N,,,,False,False,False,4,,,
178,21:45:59:382,-0.03394004702568054,0.0,0.9932669997215271,140.58235378529233,344.6123593908061,558.9226724817356,-411.63616943359375,34.238094329833984,-0.02046642266213894,0.21134653687477112,-0.369842529296875,0.08321669697761536,46.93464622506593,N,,,,False,False,False,4,,,
179,21:45:59:402,-0.03394004702568054,0.0,0.9932669997215271,140.58235378529233,344.6123593908061,558.9226724817356,-411.63616943359375,34.238094329833984,-0.02046642266213894,0.21134653687477112,-0.369842529296875,0.08321669697761536,46.93464622506593,N,,,,False,False,False,4,,,
180,21:45:59:421,-0.03394004702568054,0.0,0.9932669997215271,140.58235378529233,344.6123593908061,558.9226724817356,-411.63616943359375,34.238094329833984,-0.02046642266213894,0.21134653687477112,-0.369842529296875,0.08321669697761536,46.93464622506593,N,,,,False,False,False,4,,,
181,21:45:59:440,-0.02870265766978264,0.0,0.9932669997215271,139.7777731185836,343.80721858787535,558.1178954983669,-410.8311767578125,34.228515625,-0.02043464593589306,0.20662003755569458,-0.8636474609375,0.11553419381380081,47.70432297620197,NW,,,,False,False,False,4,,,
182,21:45:59:467,-0.024573303759098053,0.0,0.9932669997215271,139.33098929550624,343.3602459129268,557.6709772036634,-410.3841247558594,34.22137451171875,-0.020417898893356323,0.2041201889514923,-1.135101318359375,0.1294749230146408,48.119968081935056,NW,,,,False,False,False,4,,,
183,21:45:59:488,-0.021753311157226562,0.0,0.9932669997215271,139.06114597117656,343.09032725638906,557.4010442037594,-410.1141052246094,34.21646499633789,-0.020408477634191513,0.2027268409729004,-1.2937623262405396,0.13565193116664886,48.36750858013754,NW,,,,False,False,False,4,,,
184,21:45:59:511,-0.021753311157226562,0.0,0.9932669997215271,138.8388255345553,342.86794630641634,557.1786444104242,-409.8916320800781,34.2120475769043,-0.020400848239660263,0.20158618688583374,-1.420715093612671,0.14034558832645416,48.56926544180588,NW,,,,False,False,False,4,,,
185,21:45:59:536,-0.016415569931268692,0.0,0.9932669997215271,138.57650257316647,342.6055343956087,556.9162219798826,-409.6291198730469,34.20643997192383,-0.020391806960105896,0.20026113092899323,-1.5635679960250854,0.1443372666835785,48.80557698890217,NW,,,,False,False,False,4,,,
186,21:45:59:568,-0.016415569931268692,0.0,0.9932669997215271,138.57650257316647,342.6055343956087,556.9162219798826,-409.6291198730469,34.20643997192383,-0.020391806960105896,0.20026113092899323,-1.5635679960250854,0.1443372666835785,48.80557698890217,NW,,,,False,False,False,4,,,
187,21:45:59:594,0.0,0.0,0.9932669997215271,137.57710361186318,341.60518603409673,555.9164045758114,-408.6289367675781,34.1826171875,-0.020362814888358116,0.19586248695850372,-1.97637939453125,0.13267648220062256,49.68678365640193,NW,,,,False,False,False,4,,,
188,21:45:59:616,0.0014099122490733862,0.0,0.9932669997215271,137.34057851236662,341.36857387497173,555.6797705495187,-408.3922119140625,34.1763916015625,-0.020356368273496628,0.19490626454353333,-2.045593023300171,0.12792503833770752,49.89080269933658,NW,,,,False,False,False,4,,,
189,21:45:59:636,0.0014099122490733862,0.0,0.9932669997215271,137.08299011817024,341.11088089239036,555.4220593535354,-408.1343994140625,34.169368743896484,-0.020349426195025444,0.1938885748386383,-2.109832763671875,0.1227061003446579,50.11112490075313,NW,,,,False,False,False,4,,,
190,21:45:59:657,0.001913452404551208,0.0,0.9932669997215271,136.8505627032464,340.878362856626,555.189517505512,-407.9017639160156,34.16282272338867,-0.02034355141222477,0.19302795827388763,-2.1593017578125,0.11836930364370346,50.30836138519036,NW,,,,False,False,False,4,,,
191,21:45:59:682,0.001913452404551208,0.0,0.9932669997215271,136.8505627032464,340.878362856626,555.189517505512,-407.9017639160156,34.16282272338867,-0.02034355141222477,0.19302795827388763,-2.1593017578125,0.11836930364370346,50.30836138519036,NW,,,,False,False,False,4,,,
192,21:45:59:712,0.004733280278742313,0.0,0.9932669997215271,135.98099015816726,340.0080121836528,554.3194887950643,-407.0313720703125,34.1368522644043,-0.020323676988482475,0.1901046484708786,-2.2750244140625,0.10145805031061172,51.03414278977217,NW,,,,False,False,False,4,,,
193,21:45:59:739,0.004733280278742313,0.0,0.9932669997215271,135.52139563802425,339.54813719625577,553.8596359613754,-406.5713195800781,34.12227249145508,-0.020314406603574753,0.1887112855911255,-2.301697015762329,0.09344403445720673,51.410371399783806,NW,,,,False,False,False,4,,,
194,21:45:59:761,0.004733280278742313,0.0,0.9932669997215271,135.28625393316568,339.3128879748633,553.6243577884096,-406.3359375,34.11461639404297,-0.02030971460044384,0.18804192543029785,-2.308532953262329,0.08959353715181351,51.601048439733106,NW,,,,False,False,False,4,,,
195,21:45:59:786,0.004733280278742313,0.0,0.9932669997215271,135.05632934593652,339.0828575391165,553.3942971005764,-406.10577392578125,34.10701370239258,-0.020305480808019638,0.18742038309574127,-2.311493396759033,0.08596203476190567,51.786350490647784,NW,,,,False,False,False,4,,,
196,21:45:59:811,0.004733280278742313,0.0,0.9932669997215271,134.77918636389882,338.8055707612611,553.1169866955415,-405.8283386230469,34.097713470458984,-0.020300596952438354,0.18666906654834747,-2.310577630996704,0.0815124362707138,52.00823629709009,NW,,,,False,False,False,4,,,
197,21:45:59:826,0.004733280278742313,0.0,0.9932669997215271,134.77918636389882,338.8055707612611,553.1169866955415,-405.8283386230469,34.097713470458984,-0.020300596952438354,0.18666906654834747,-2.310577630996704,0.0815124362707138,52.00823629709009,NW,,,,False,False,False,4,,,
198,21:45:59:856,0.004733280278742313,0.0,0.9932669997215271,133.89882941314968,337.9243656796283,552.2360763731022,-404.947021484375,34.0673828125,-0.020286215469241142,0.18459267914295197,-2.284057378768921,0.0677214190363884,52.70310953394398,NW,,,,False,False,False,4,,,
199,21:45:59:882,0.004733280278742313,0.0,0.9932669997215271,133.6615465962565,337.68696167918716,551.9986392973009,-404.70947265625,34.059051513671875,-0.020283127203583717,0.1841077357530594,-2.27215576171875,0.06404445320367813,52.887917375269865,NW,,,,False,False,False,4,,,
200,21:45:59:907,0.004733280278742313,0.0,0.9932669997215271,133.14824382717623,337.17329090326416,551.4849963534605,-404.1955871582031,34.04088592529297,-0.020275993272662163,0.18309004604816437,-2.241302728652954,0.05573917180299759,53.28432695326046,NW,,,,False,False,False,4,,,
201,21:45:59:917,0.004733280278742313,0.0,0.9932669997215271,133.14824382717623,337.17329090326416,551.4849963534605,-404.1955871582031,34.04088592529297,-0.020275993272662163,0.18309004604816437,-2.241302728652954,0.05573917180299759,53.28432695326046,NW,,,,False,False,False,4,,,
202,21:45:59:945,0.004733280278742313,0.0,0.9932669997215271,132.62260579003075,336.647266888561,550.9590018470947,-403.6693420410156,34.022151947021484,-0.020269736647605896,0.18214064836502075,-2.204193592071533,0.04699302464723587,53.6856576490922,NW,,,,False,False,False,4,,,
203,21:45:59:992,0.004733280278742313,0.0,0.9932669997215271,132.62260579003075,336.647266888561,550.9590018470947,-403.6693420410156,34.022151947021484,-0.020269736647605896,0.18214064836502075,-2.204193592071533,0.04699302464723587,53.6856576490922,NW,,,,False,False,False,4,,,
204,21:46:00:009,0.004733280278742313,0.0,0.9932669997215271,132.321627436437,336.3461181130566,550.6578162346403,-403.3680114746094,34.01140213012695,-0.020266417413949966,0.18165570497512817,-2.181091547012329,0.04220252111554146,53.91343364565423,NW,,,,False,False,False,4,,,
205,21:46:00:049,0.004733280278742313,0.0,0.9932669997215271,131.17878713033443,335.20204006031895,549.5141709871776,-402.22381591796875,33.97068405151367,-0.02025497332215309,0.17996181547641754,-2.084778070449829,0.023198001086711884,54.76566388470326,NW,,,,False,False,False,4,,,
206,21:46:00:075,0.004733280278742313,0.0,0.9932669997215271,130.60720819618427,334.6300130501472,548.9421807896961,-401.65155029296875,33.95051574707031,-0.020249975845217705,0.1792583018541336,-2.033416509628296,0.014300943352282047,55.18487097612675,NW,,,,False,False,False,4,,,
207,21:46:00:091,0.004733280278742313,0.0,0.9932669997215271,130.37857214113538,334.40125233366666,548.7133789732586,-401.4226379394531,33.9425048828125,-0.020248260349035263,0.17900559306144714,-2.012573719024658,0.011025691404938698,55.35132966689401,NW,,,,False,False,False,4,,,
208,21:46:00:124,0.004733280278742313,0.0,0.9932669997215271,129.8133988551829,333.8356397176966,548.1477931358837,-400.8567810058594,33.922874450683594,-0.020244253799319267,0.1783703863620758,-1.960357666015625,0.0028751473873853683,55.75989899302542,NW,,,,False,False,False,4,,,
209,21:46:00:134,0.004733280278742313,0.0,0.9932669997215271,129.8133988551829,333.8356397176966,548.1477931358837,-400.8567810058594,33.922874450683594,-0.020244253799319267,0.1783703863620758,-1.960357666015625,0.0028751473873853683,55.75989899302542,NW,,,,False,False,False,4,,,
210,21:46:00:159,0.004733280278742313,0.0,0.9932669997215271,129.8133988551829,333.8356397176966,548.1477931358837,-400.8567810058594,33.922874450683594,-0.020244253799319267,0.1783703863620758,-1.960357666015625,0.0028751473873853683,55.75989899302542,NW,,,,False,False,False,4,,,
211,21:46:00:190,0.004733280278742313,0.0,0.9932669997215271,128.86557687289965,332.886866068069,547.1992725982866,-399.9078063964844,33.89059066772461,-0.020238418132066727,0.1775166094303131,-1.871734857559204,-0.00921630859375,56.43621657968495,NW,,,,False,False,False,4,,,
212,21:46:00:206,0.004733280278742313,0.0,0.9932669997215271,128.60399323410903,332.62513120850133,546.9374949884666,-399.6459045410156,33.88184356689453,-0.020236892625689507,0.17729121446609497,-1.847167730331421,-0.012298583053052425,56.620981205805336,NW,,,,False,False,False,4,,,
