tick,time,Steer,Brake,Throttle,Distance_Bicycle,Distance_Motorbike,Distance_SmallCar,Location_X,Location_Y,Location_Z,Rotation_Pitch,Rotation_Yaw,Rotation_Roll,Speed_kmh,Heading,GNSS_Latitude,GNSS_Longitude,Height,Reverse,Hand_Brake,Manual,Gear,Collision_History,Nearby_Vehicles_Count,Nearby_Vehicles_Details
0,21:45:13:718,0.0,0.6212635636329651,0.6212635636329651,162.82266374459778,366.92405501562797,581.190970052637,-433.8999938964844,34.900001525878906,0.405690461397171,0.0,0.0,0.0,19.991321754455566,N,,,,False,False,False,N,,,
1,21:45:13:752,0.0,0.6212635636329651,0.6212635636329651,162.82341960184988,366.926651145819,581.192219820574,-433.8999938964844,34.900001525878906,0.33028000593185425,0.0,0.0,0.0,20.46210308074951,N,,,,False,False,False,N,,,
2,21:45:13:775,0.0,0.6212635636329651,0.6212635636329651,162.82341960184988,366.926651145819,581.192219820574,-433.8999938964844,34.900001525878906,0.33028000593185425,0.0,0.0,0.0,20.46210308074951,N,,,,False,False,False,N,,,
3,21:45:13:800,0.0,0.6212635636329651,0.6212635636329651,162.82815808288592,366.94108683231786,581.1992101397594,-433.8999938964844,34.900001525878906,-0.08111957460641861,0.0,0.0,0.0,15.268390274049096,N,,,,False,False,False,N,,,
4,21:45:13:810,0.0,0.6212635636329651,0.6212635636329651,162.82815808288592,366.94108683231786,581.1992101397594,-433.8999938964844,34.900001525878906,-0.08111957460641861,0.0,0.0,0.0,15.268390274049096,N,,,,False,False,False,N,,,
5,21:45:13:834,0.0,0.6212635636329651,0.6212635636329651,162.82796243784264,366.94124384377506,581.1990833851244,-433.89959716796875,34.89982604980469,-0.09660396724939346,0.0571618489921093,0.00015367277956102043,-0.0912475436925888,0.8514624075167853,N,,,,False,False,False,N,,,
6,21:45:13:860,0.0,0.6212635636329651,0.6212635636329651,162.82748009150401,366.9406613283415,581.19858075973,-433.899169921875,34.89974594116211,-0.09223033487796783,0.12993751466274261,-0.00024414055224042386,-0.2075805515050888,0.9823658134364118,N,,,,False,False,False,N,,,
7,21:45:13:887,0.0,0.6212635636329651,0.6212635636329651,162.82748009150401,366.9406613283415,581.19858075973,-433.899169921875,34.89974594116211,-0.09223033487796783,0.12993751466274261,-0.00024414055224042386,-0.2075805515050888,0.9823658134364118,N,,,,False,False,False,N,,,
8,21:45:13:912,0.0,0.6212635636329651,0.6212635636329651,162.82672088167573,366.9395197350171,581.1977439433398,-433.89862060546875,34.89950180053711,-0.0755649134516716,0.21354585886001587,-0.0010070799617096782,-0.3322448134422302,1.1358481144076713,N,,,,False,False,False,N,,,
9,21:45:13:921,0.0,0.6212635636329651,0.6212635636329651,162.82672088167573,366.9395197350171,581.1977439433398,-433.89862060546875,34.89950180053711,-0.0755649134516716,0.21354585886001587,-0.0010070799617096782,-0.3322448134422302,1.1358481144076713,N,,,,False,False,False,N,,,
10,21:45:13:975,0.0,0.6212635636329651,0.6212635636329651,162.82663814907124,366.93906125817205,581.1975842701165,-433.89874267578125,34.89930725097656,-0.05922935530543327,0.20004940032958984,-0.0008850097074173391,-0.3056334853172302,1.0275230937890443,N,,,,False,False,False,N,,,
11,21:45:14:013,0.0,0.6212635636329651,0.6212635636329651,162.82677741095344,366.9388949521999,581.1976605656727,-433.8990478515625,34.89920425415039,-0.045961569994688034,0.15969663858413696,-0.00048828116268850863,-0.2421874701976776,0.8284261023719319,N,,,,False,False,False,N,,,
12,21:45:14:047,0.0,0.6212635636329651,0.6212635636329651,162.82695747089844,366.9389005091012,581.1978045450207,-433.8993225097656,34.899173736572266,-0.038389891386032104,0.1294320821762085,-0.00027465817402116954,-0.1964111030101776,0.6740860678352695,N,,,,False,False,False,N,,,
13,21:45:14:074,0.013192834332585335,0.0,0.2739010155200958,162.8270118154295,366.9388861272777,581.1978446444513,-433.8994140625,34.899166107177734,-0.035408515483140945,0.11605856567621231,-0.00018310543964616954,-0.1764220893383026,0.6051822977993352,N,,,,False,False,False,N,,,
14,21:45:14:120,0.013192834332585335,0.0,0.5495340824127197,162.82716078424147,366.9389154111302,581.1979687429836,-433.8996276855469,34.89915466308594,-0.030220260843634605,0.09086883068084717,-6.103514533606358e-05,-0.1390685886144638,0.4712512525842459,N,,,,False,False,False,N,,,
15,21:45:14:145,0.013192834332585335,0.0,0.5495340824127197,162.82716078424147,366.9389154111302,581.1979687429836,-433.8996276855469,34.89915466308594,-0.030220260843634605,0.09086883068084717,-6.103514533606358e-05,-0.1390685886144638,0.4712512525842459,N,,,,False,False,False,N,,,
16,21:45:14:168,0.013192834332585335,0.0,0.8064804673194885,162.82733125875077,366.9389495720956,581.198110866159,-433.8998718261719,34.8991584777832,-0.024310950189828873,0.058439094573259354,6.0170903452672064e-05,-0.0912475511431694,0.2925947861152533,N,,,,False,False,False,N,,,
17,21:45:14:192,0.013192834332585335,0.0,0.9043733477592468,162.82740626203335,366.93899396925093,581.1981795065068,-433.89996337890625,34.89916229248047,-0.022984733805060387,0.050427284091711044,8.112741488730535e-05,-0.0794372409582138,0.2472723758492529,N,,,,False,False,False,N,,,
18,21:45:14:217,0.013192834332585335,0.0,0.9906898140907288,162.8274705104499,366.9390077176476,581.1982332434394,-433.9000549316406,34.899169921875,-0.02079540118575096,0.0362546406686306,0.00010976931662298739,-0.05844114348292351,0.16701486113059683,N,,,,False,False,False,N,,,
19,21:45:14:245,0.013192834332585335,0.0,0.9906898140907288,162.8275465624753,366.93905516827147,581.1983033570613,-433.900146484375,34.89917755126953,-0.01955558732151985,0.026828981935977936,0.0001235611707670614,-0.0443420484662056,0.11300099877361866,N,,,,False,False,False,N,,,
20,21:45:14:271,0.013192834332585335,0.0,0.9906898140907288,162.8275716940121,366.9390702713536,581.1983263897042,-433.9001770019531,34.89917755126953,-0.019121702760457993,0.02316117100417614,0.00012759442324750125,-0.0387878380715847,0.08884634869356987,N,,,,False,False,False,N,,,
21,21:45:14:299,0.013192834332585335,0.0,0.9932669997215271,162.82762695231327,366.9391148882148,581.1983794446272,-433.9002380371094,34.8991813659668,-0.01866077445447445,0.018905961886048317,0.00013136981579009444,-0.0323181077837944,0.06535942669224012,N,,,,False,False,False,N,,,
22,21:45:14:323,0.013192834332585335,0.0,0.9932669997215271,162.82762695231327,366.9391148882148,581.1983794446272,-433.9002380371094,34.8991813659668,-0.01866077445447445,0.018905961886048317,0.00013136981579009444,-0.0323181077837944,0.06535942669224012,N,,,,False,False,False,N,,,
23,21:45:14:350,0.013192834332585335,0.0,1.0,162.82765061623925,366.9391259072966,581.198400481021,-433.9002685546875,34.89918518066406,-0.01811244897544384,0.011146867647767067,0.00013608623703476042,-0.020233154296875,0.018780856276216645,N,,,,False,False,False,N,,,
24,21:45:14:392,0.013192834332585335,0.0,1.0,162.82767988237617,366.9391530827159,581.1984293549643,-433.9002990722656,34.899192810058594,-0.018020210787653923,0.0063520753756165504,0.00013740253052674234,-0.012481689453125,0.004899373833267628,N,,,,False,False,False,N,,,
25,21:45:14:420,0.013192834332585335,0.0,1.0,162.8277110401682,366.93918542774566,581.1984607649182,-433.90032958984375,34.899192810058594,-0.018072281032800674,0.004419132135808468,0.0001366989454254508,-0.00921630859375,0.008849182188386404,N,,,,False,False,False,N,,,
26,21:45:14:426,0.013192834332585335,0.0,1.0,162.8277110401682,366.93918542774566,581.1984607649182,-433.90032958984375,34.899192810058594,-0.018072281032800674,0.004419132135808468,0.0001366989454254508,-0.00921630859375,0.008849182188386404,N,,,,False,False,False,N,,,
27,21:45:14:459,0.013192834332585335,0.0,1.0,162.82569833343675,366.93717662785224,581.1964488269956,-433.8983154296875,34.89921951293945,-0.01819133758544922,0.014575622975826263,0.0012280549854040146,-0.008453368209302425,0.569035560003525,N,,,,False,False,False,1,,,
28,21:45:14:482,0.013192834332585335,0.0,1.0,162.82569833343675,366.93717662785224,581.1964488269956,-433.8983154296875,34.89921951293945,-0.01819133758544922,0.014575622975826263,0.0012280549854040146,-0.008453368209302425,0.569035560003525,N,,,,False,False,False,1,,,
29,21:45:14:509,0.013192834332585335,0.0,1.0,162.79366797005883,366.9051864959263,581.1644255193955,-433.86627197265625,34.89954376220703,-0.019166069105267525,0.11342211812734604,0.015030515380203724,-0.00811767391860485,2.3637002338992934,N,,,,False,False,False,1,,,
30,21:45:14:535,0.013192834332585335,0.0,1.0,162.78027452513294,366.8918062645544,581.1510341898238,-433.8528747558594,34.89966583251953,-0.01942138560116291,0.13881675899028778,0.020448436960577965,-0.008209229446947575,2.731482645838279,N,,,,False,False,False,1,,,
31,21:45:14:561,0.013192834332585335,0.0,1.0,162.752326213745,366.86388192360977,581.1230895844155,-433.8249206542969,34.89992904663086,-0.01979549415409565,0.17602762579917908,0.03150710463523865,-0.008270263671875,3.315483766850438,N,,,,False,False,False,1,,,
32,21:45:14:588,0.013192834332585335,0.0,1.0,162.752326213745,366.86388192360977,581.1230895844155,-433.8249206542969,34.89992904663086,-0.01979549415409565,0.17602762579917908,0.03150710463523865,-0.008270263671875,3.315483766850438,N,,,,False,False,False,1,,,
33,21:45:14:622,0.013192834332585335,0.0,1.0,162.6912692286139,366.8028699613097,581.0620391574924,-433.76385498046875,34.90050506591797,-0.020294073969125748,0.21475479006767273,0.05504864081740379,-0.008148193359375,4.186205507701099,N,,,,False,False,False,1,,,
34,21:45:14:649,0.013192834332585335,0.0,1.0,162.64839556251926,366.76002337050153,581.0191691860894,-433.7209777832031,34.900917053222656,-0.020445022732019424,0.22370918095111847,0.0713256374001503,-0.007965087890625,4.639962282293511,N,,,,False,False,False,1,,,
35,21:45:14:675,0.013192834332585335,0.0,1.0,162.62233531395555,366.73397903262025,580.9931110972316,-433.6949157714844,34.90117263793945,-0.020511435344815254,0.2250957041978836,0.08114784210920334,-0.007843017578125,4.878422180920295,N,,,,False,False,False,1,,,
36,21:45:14:704,0.013192834332585335,0.0,1.0,162.57228871646558,366.68396100730234,580.9430682597646,-433.6448669433594,34.901668548583984,-0.02055133692920208,0.22284173965454102,0.09987561404705048,-0.007598876953125,5.28215053285801,N,,,,False,False,False,1,,,
37,21:45:14:715,0.013192834332585335,0.0,1.0,162.57228871646558,366.68396100730234,580.9430682597646,-433.6448669433594,34.901668548583984,-0.02055133692920208,0.22284173965454102,0.09987561404705048,-0.007598876953125,5.28215053285801,N,,,,False,False,False,1,,,
38,21:45:14:742,0.013192834332585335,0.0,1.0,162.54769229267944,366.6593781080854,580.9184735989481,-433.6202697753906,34.90191650390625,-0.02054714225232601,0.2202189415693283,0.10905466973781586,-0.007507322821766138,5.461049436038009,N,,,,False,False,False,1,,,
39,21:45:14:765,0.013192834332585335,0.0,1.0,162.54769229267944,366.6593781080854,580.9184735989481,-433.6202697753906,34.90191650390625,-0.02054714225232601,0.2202189415693283,0.10905466973781586,-0.007507322821766138,5.461049436038009,N,,,,False,False,False,1,,,
40,21:45:14:790,0.013192834332585335,0.0,1.0,162.4377700931435,366.5495157648888,580.8085594429257,-433.5103454589844,34.903076171875,-0.020486678928136826,0.20345766842365265,0.14977243542671204,-0.007141114212572575,6.151587568793952,N,,,,False,False,False,1,,,
41,21:45:14:818,0.013192834332585335,0.0,1.0,162.38216755059642,366.4939430554843,580.752960985983,-433.4547424316406,34.903682708740234,-0.02043033577501774,0.19439400732517242,0.17023281753063202,-0.00701904296875,6.454495881084439,N,,,,False,False,False,1,,,
42,21:45:14:843,0.013192834332585335,0.0,1.0,162.35039904541867,366.46219189136707,580.7211949224768,-433.4229736328125,34.90403747558594,-0.020408324897289276,0.1893874704837799,0.18190863728523254,-0.006988524459302425,6.6179453164403155,N,,,,False,False,False,1,,,
43,21:45:14:868,0.013192834332585335,0.0,1.0,162.35039904541867,366.46219189136707,580.7211949224768,-433.4229736328125,34.90403747558594,-0.020408324897289276,0.1893874704837799,0.18190863728523254,-0.006988524459302425,6.6179453164403155,N,,,,False,False,False,1,,,
44,21:45:14:893,0.013192834332585335,0.0,1.0,162.24285575336143,366.3547081664407,580.6136603343192,-433.3154296875,34.9052848815918,-0.020356368273496628,0.1744157075881958,0.22126618027687073,-0.0069580078125,7.131395874514138,N,,,,False,False,False,1,,,
45,21:45:14:918,0.013192834332585335,0.0,1.0,162.2066618298018,366.31853422710344,580.5774694105963,-433.27923583984375,34.90571975708008,-0.020331306383013725,0.17016732692718506,0.23447531461715698,-0.0069580078125,7.29353449533957,N,,,,False,False,False,1,,,
46,21:45:14:941,0.013192834332585335,0.0,1.0,162.13759999286418,366.24951043024174,580.5084133947573,-433.2101745605469,34.90657043457031,-0.020272787660360336,0.16310490667819977,0.25963643193244934,-0.00701904296875,7.591520189062365,N,,,,False,False,False,1,,,
47,21:45:14:980,0.013192834332585335,0.0,1.0,162.09514992916962,366.2070845356907,580.4659671345134,-433.167724609375,34.9071044921875,-0.02026725746691227,0.1594097763299942,0.275061696767807,-0.007080078590661287,7.767904046300316,N,,,,False,False,False,1,,,
48,21:45:15:021,0.013192834332585335,0.0,1.0,161.9616334933682,366.0736433031655,580.3324628889025,-433.0342102050781,34.90885543823242,-0.020191725343465805,0.1506124883890152,0.32346105575561523,-0.00732421875,8.298366683307767,N,,,,False,False,False,1,,,
49,21:45:15:063,0.013192834332585335,0.0,1.0,161.87630461169678,365.98836347846986,580.2471423160672,-432.9488830566406,34.910030364990234,-0.020168570801615715,0.14680807292461395,0.3543037176132202,-0.007537840399891138,8.621386275572274,N,,,,False,False,False,1,,,
50,21:45:15:089,0.013192834332585335,0.0,1.0,161.80037465532044,365.9124768919734,580.1712198622382,-432.8729553222656,34.91110610961914,-0.020125847309827805,0.14436286687850952,0.38169288635253906,-0.00775146484375,8.900710062402391,N,,,,False,False,False,1,,,
51,21:45:15:115,0.013192834332585335,0.0,1.0,161.75539045799297,365.86751904797234,580.1262403515709,-432.8279724121094,34.91176223754883,-0.020123060792684555,0.14325638115406036,0.39791032671928406,-0.00787353515625,9.062948930596656,N,,,,False,False,False,1,,,
52,21:45:15:141,0.013192834332585335,0.0,1.0,161.75539045799297,365.86751904797234,580.1262403515709,-432.8279724121094,34.91176223754883,-0.020123060792684555,0.14325638115406036,0.39791032671928406,-0.00787353515625,9.062948930596656,N,,,,False,False,False,1,,,
53,21:45:15:165,0.013192834332585335,0.0,1.0,161.60447567391094,365.7166931998648,579.9753418219549,-432.67706298828125,34.914039611816406,-0.020111655816435814,0.14103657007217407,0.4521603584289551,-0.008361815474927425,9.59231559706663,N,,,,False,False,False,1,,,
54,21:45:15:190,0.013192834332585335,0.0,1.0,161.55677466839614,365.6690205783643,579.9276461658726,-432.6293640136719,34.91478729248047,-0.02011089213192463,0.14070188999176025,0.4692845642566681,-0.008514403365552425,9.755616432865274,N,,,,False,False,False,1,,,
55,21:45:15:217,0.013192834332585335,0.0,1.0,161.4986966924289,365.6109766761643,579.8695746954928,-432.5712890625,34.915714263916016,-0.020083580166101456,0.14049698412418365,0.490104079246521,-0.008728026412427425,9.952237001732016,N,,,,False,False,False,1,,,
56,21:45:15:264,0.013192834332585335,0.0,1.0,161.34655858266277,365.4589308333486,579.7174547904027,-432.4191589355469,34.91823959350586,-0.020110968500375748,0.14077019691467285,0.5445209741592407,-0.009277342818677425,10.455759823087488,NE,,,,False,False,False,1,,,
57,21:45:15:283,0.013192834332585335,0.0,1.0,161.30172531568675,365.4141245099406,579.6726269844949,-432.37432861328125,34.919010162353516,-0.02009986899793148,0.14102290570735931,0.5605396628379822,-0.00942992977797985,10.601747711419687,NE,,,,False,False,False,1,,,
58,21:45:15:313,0.013192834332585335,0.0,1.0,161.24440977430794,365.3568443076058,579.6153186883228,-432.3170166015625,34.92000961303711,-0.020119667053222656,0.1414395421743393,0.5809783339500427,-0.009643551893532276,10.786304307127478,NE,,,,False,False,False,1,,,
59,21:45:15:355,0.013192834332585335,0.0,1.0,161.0698359731407,365.1823773158827,579.4407674433265,-432.1424560546875,34.92317199707031,-0.02010597102344036,0.14320173859596252,0.6431161165237427,-0.01031494140625,11.339246423203576,NE,,,,False,False,False,1,,,
60,21:45:15:382,0.013192834332585335,0.0,1.0,160.96707470073653,365.0796799157066,579.3380200783571,-432.0397033691406,34.92510986328125,-0.020116347819566727,0.1445063054561615,0.679601788520813,-0.0107421875,11.658302408650604,NE,,,,False,False,False,1,,,
61,21:45:15:406,0.013192834332585335,0.0,1.0,160.9092692744404,365.02191074401395,579.2802226958817,-431.9819030761719,34.92622756958008,-0.02012733370065689,0.1453191041946411,0.7001007795333862,-0.010955810546875,11.835953008843415,NE,,,,False,False,False,1,,,
62,21:45:15:436,0.013192834332585335,0.0,1.0,160.80101316736534,364.91372284513466,579.1719819766859,-431.8736572265625,34.928367614746094,-0.020146140828728676,0.1468900442123413,0.7384098172187805,-0.01141357421875,12.16505386498308,NE,,,,False,False,False,1,,,
63,21:45:15:462,0.013192834332585335,0.0,1.0,160.80101316736534,364.91372284513466,579.1719819766859,-431.8736572265625,34.928367614746094,-0.020146140828728676,0.1468900442123413,0.7384098172187805,-0.01141357421875,12.16505386498308,NE,,,,False,False,False,1,,,
64,21:45:15:481,0.013192834332585335,0.0,1.0,160.80101316736534,364.91372284513466,579.1719819766859,-431.8736572265625,34.928367614746094,-0.020146140828728676,0.1468900442123413,0.7384098172187805,-0.01141357421875,12.16505386498308,NE,,,,False,False,False,1,,,
65,21:45:15:513,0.013192834332585335,0.0,1.0,160.5474451463264,364.6603159483068,578.9184517833435,-431.6201171875,34.933650970458984,-0.02016162872314453,0.15092667937278748,0.8279104232788086,-0.012451170943677425,12.921149512235539,NE,,,,False,False,False,1,,,
66,21:45:15:539,0.013192834332585335,0.0,1.0,160.42633640528007,364.53928524300545,578.7973620392416,-431.4990234375,34.936302185058594,-0.02017436921596527,0.1529620736837387,0.8705325722694397,-0.012969969771802425,13.27543910750998,NE,,,,False,False,False,1,,,
67,21:45:15:579,0.013192834332585335,0.0,1.0,160.30205223748837,364.4150818244915,578.6730980059572,-431.374755859375,34.93911361694336,-0.020187072455883026,0.1550794392824173,0.9141488671302795,-0.013519286178052425,13.63461517260953,NE,,,,False,False,False,1,,,
68,21:45:15:605,0.013192834332585335,0.0,1.0,160.30205223748837,364.4150818244915,578.6730980059572,-431.374755859375,34.93911361694336,-0.020187072455883026,0.1550794392824173,0.9141488671302795,-0.013519286178052425,13.63461517260953,NE,,,,False,False,False,1,,,
69,21:45:15:642,-0.028501223772764206,0.0,1.0,160.01909807137378,364.13228968668517,578.3901671284724,-431.091796875,34.94236373901367,-0.020219307392835617,0.1595805287361145,0.847201943397522,0.031496066600084305,14.42959453833368,NE,,,,False,False,False,1,,,
70,21:45:15:662,-0.030112706124782562,0.0,1.0,159.95312653588738,364.06635260101643,578.3241976284172,-431.02581787109375,34.942649841308594,-0.02022453211247921,0.16065970063209534,0.8091862201690674,0.0411631315946579,14.613975502138208,NE,,,,False,False,False,1,,,
71,21:45:15:689,-0.030717015266418457,0.0,1.0,159.88395272142463,363.997213834032,578.2550249644029,-430.9566345214844,34.94281768798828,-0.02022319659590721,0.16008596122264862,0.7647990584373474,0.04954242706298828,14.702598279719497,NE,,,,False,False,False,1,,,
72,21:45:15:721,-0.031623486429452896,0.0,1.0,159.74228286922718,363.855611907195,578.1133547298205,-430.81494140625,34.94282531738281,-0.020154761150479317,0.14766867458820343,0.664949893951416,0.06085411459207535,14.700258770491878,NE,,,,False,False,False,N,,,
73,21:45:15:752,-0.031623486429452896,0.0,1.0,159.74228286922718,363.855611907195,578.1133547298205,-430.81494140625,34.94282531738281,-0.020154761150479317,0.14766867458820343,0.664949893951416,0.06085411459207535,14.700258770491878,NE,,,,False,False,False,N,,,
74,21:45:15:774,-0.03373860567808151,0.0,1.0,159.5037484082509,363.6171823366144,577.8748116712367,-430.57635498046875,34.94180679321289,-0.01994071900844574,0.11394120752811432,0.4753974676132202,0.06919547915458679,14.805762595511451,N,,,,False,False,False,N,,,
75,21:45:15:801,-0.03545086830854416,0.0,1.0,159.36828936049503,363.48178171186987,577.7393441062468,-430.44085693359375,34.940650939941406,-0.019944800063967705,0.11594928801059723,0.35815709829330444,0.0722072646021843,15.481324731202507,N,,,,False,False,False,2,,,
76,21:45:15:827,-0.03545086830854416,0.0,1.0,159.2914712724619,363.40499691540464,577.6625202167804,-430.364013671875,34.93982696533203,-0.020005378872156143,0.1246236264705658,0.2892289161682129,0.07372469455003738,15.846791048816597,N,,,,False,False,False,2,,,
77,21:45:15:852,-0.03665953874588013,0.0,1.0,159.14467352193947,363.25826114471107,577.5157091412433,-430.2171630859375,34.93793487548828,-0.020147589966654778,0.14711543917655945,0.15399691462516785,0.07610157877206802,16.50918122378732,N,,,,False,False,False,2,,,
78,21:45:15:861,-0.03665953874588013,0.0,1.0,159.14467352193947,363.25826114471107,577.5157091412433,-430.2171630859375,34.93793487548828,-0.020147589966654778,0.14711543917655945,0.15399691462516785,0.07610157877206802,16.50918122378732,N,,,,False,False,False,2,,,
79,21:45:15:891,-0.03665953874588013,0.0,1.0,159.14467352193947,363.25826114471107,577.5157091412433,-430.2171630859375,34.93793487548828,-0.020147589966654778,0.14711543917655945,0.15399691462516785,0.07610157877206802,16.50918122378732,N,,,,False,False,False,2,,,
80,21:45:15:915,-0.03907691687345505,0.0,1.0,158.87284620854427,362.9865418035564,577.2438487463962,-429.9452209472656,34.93326950073242,-0.020476073026657104,0.19065788388252258,-0.1109924241900444,0.08091907948255539,17.63201756805128,N,,,,False,False,False,2,,,
81,21:45:15:942,-0.04129289090633392,0.0,1.0,158.70846487067885,362.82221832630955,577.0794416319213,-429.78076171875,34.929752349853516,-0.020570984110236168,0.21293114125728607,-0.2784728407859802,0.08418526500463486,18.260591173661876,N,,,,False,False,False,2,,,
82,21:45:15:969,-0.04360963776707649,0.0,1.0,158.60521519430074,362.71900187715784,576.9761733905164,-429.6774597167969,34.92726135253906,-0.02058490738272667,0.2247200459241867,-0.3870849311351776,0.0867132842540741,18.637903151342496,N,,,,False,False,False,2,,,
83,21:45:15:995,-0.04572497680783272,0.0,1.0,158.4996814407123,362.6135003230286,576.8706187493726,-429.5718688964844,34.92446517944336,-0.020602263510227203,0.23462381958961487,-0.5016784071922302,0.08987089991569519,19.011864709366797,NW,,,,False,False,False,2,,,
84,21:45:16:018,-0.04673229530453682,0.0,1.0,158.2918574730571,362.4057344599849,576.6627480001753,-429.3639221191406,34.91823196411133,-0.020639991387724876,0.2489672154188156,-0.7363585829734802,0.09667787700891495,19.71661149863032,NW,,,,False,False,False,2,,,
85,21:45:16:054,-0.04673229530453682,0.0,1.0,158.19377545744624,362.3076774843488,576.5646414039026,-429.2657775878906,34.914974212646484,-0.020657271146774292,0.25374835729599,-0.849761962890625,0.09959670156240463,20.03625127183656,NW,,,,False,False,False,2,,,
86,21:45:16:079,-0.04673229530453682,0.0,1.0,158.19377545744624,362.3076774843488,576.5646414039026,-429.2657775878906,34.914974212646484,-0.020657271146774292,0.25374835729599,-0.849761962890625,0.09959670156240463,20.03625127183656,NW,,,,False,False,False,2,,,
87,21:45:16:104,-0.04199798405170441,0.0,1.0,157.81513050183207,361.92911841023164,576.1858903076659,-428.8868713378906,34.90105056762695,-0.0207102969288826,0.26359063386917114,-1.2746888399124146,0.10180243104696274,21.204491847951523,NW,,,,False,False,False,2,,,
88,21:45:16:153,-0.023666873574256897,0.0,1.0,157.58928453735516,361.70331745176804,575.9599744904905,-428.6608581542969,34.89200973510742,-0.020731963217258453,0.2653801441192627,-1.5032044649124146,0.09480000287294388,21.857989383132264,NW,,,,False,False,False,2,,,
89,21:45:16:182,-0.023666873574256897,0.0,1.0,157.3776817665339,361.4917556031132,575.7483048799166,-428.4490966796875,34.883453369140625,-0.020745735615491867,0.265468955039978,-1.682434320449829,0.08188111335039139,22.44535831316725,NW,,,,False,False,False,2,,,
90,21:45:16:207,-0.023666873574256897,0.0,1.0,157.3776817665339,361.4917556031132,575.7483048799166,-428.4490966796875,34.883453369140625,-0.020745735615491867,0.265468955039978,-1.682434320449829,0.08188111335039139,22.44535831316725,NW,,,,False,False,False,2,,,
91,21:45:16:219,-0.023666873574256897,0.0,1.0,157.3776817665339,361.4917556031132,575.7483048799166,-428.4490966796875,34.883453369140625,-0.020745735615491867,0.265468955039978,-1.682434320449829,0.08188111335039139,22.44535831316725,NW,,,,False,False,False,2,,,
92,21:45:16:245,-0.0033233657013624907,0.0,1.0,156.93690104782712,361.05106504106016,575.3073896161786,-428.00799560546875,34.86653518676758,-0.020757406949996948,0.26297593116760254,-1.90643310546875,0.03672073036432266,23.599585670960767,NW,,,,False,False,False,2,,,
93,21:45:16:273,-0.0033233657013624907,0.0,1.0,156.822054265228,360.93624222379384,575.192508172557,-427.89306640625,34.862239837646484,-0.020757369697093964,0.26201286911964417,-1.941833734512329,0.027389099821448326,23.887740246886068,NW,,,,False,False,False,2,,,
94,21:45:16:299,-0.0033233657013624907,0.0,1.0,156.60620635117618,360.7204389883729,574.976594606113,-427.67706298828125,34.85416793823242,-0.020755309611558914,0.26007992029190063,-1.9946900606155396,0.014798454008996487,24.416876567611354,NW,,,,False,False,False,2,,,
95,21:45:16:324,-0.0033233657013624907,0.0,1.0,156.60620635117618,360.7204389883729,574.976594606113,-427.67706298828125,34.85416793823242,-0.020755309611558914,0.26007992029190063,-1.9946900606155396,0.014798454008996487,24.416876567611354,NW,,,,False,False,False,2,,,
96,21:45:16:349,-0.0033233657013624907,0.0,1.0,156.4685192855508,360.58278008315835,574.8388652127658,-427.5392761230469,34.84900665283203,-0.02075294405221939,0.2588300108909607,-2.021911859512329,0.009599573910236359,24.74651989377103,NW,,,,False,False,False,2,,,
97,21:45:16:374,-0.0033233657013624907,0.0,1.0,156.08019294967795,360.19453148092174,574.4504173379206,-427.1506652832031,34.83436584472656,-0.020741881802678108,0.2551553547382355,-2.081329584121704,0.002189756603911519,25.64470309490046,NW,,,,False,False,False,2,,,
98,21:45:16:402,-0.0033233657013624907,0.0,1.0,155.83684358905074,359.9512294367717,574.2069900165899,-426.9071350097656,34.82510757446289,-0.020733604207634926,0.25307899713516235,-2.111297369003296,0.001203714171424508,26.186947371155632,NW,,,,False,False,False,2,,,
99,21:45:16:429,-0.0033233657013624907,0.0,1.0,155.71532218791924,359.8297312342369,574.0854291371376,-426.7855224609375,34.820457458496094,-0.02072906494140625,0.25205445289611816,-2.12493896484375,0.0012585461372509599,26.453295840783863,NW,,,,False,False,False,2,,,
100,21:45:16:454,-0.0033233657013624907,0.0,1.0,155.45105596965996,359.5655124817225,573.8210753653242,-426.52105712890625,34.81027603149414,-0.020635336637496948,0.23749932646751404,-2.152465581893921,0.0019974829629063606,26.59194022553746,NW,,,,False,False,False,N,,,
101,21:45:16:498,-0.0033233657013624907,0.0,1.0,155.45105596965996,359.5655124817225,573.8210753653242,-426.52105712890625,34.81027603149414,-0.020635336637496948,0.23749932646751404,-2.152465581893921,0.0019974829629063606,26.59194022553746,NW,,,,False,False,False,N,,,
102,21:45:16:523,-0.003222657600417733,0.0,1.0,155.0267262163036,359.1412510607094,573.3966003810452,-426.0964050292969,34.79375076293945,-0.02026824839413166,0.18251630663871765,-2.191833734512329,0.003780065104365349,26.574093453321975,NW,,,,False,False,False,N,,,
103,21:45:16:550,-0.0005035400390625,0.0,1.0,154.7773159860653,358.89188148026966,573.1471033325276,-425.8468017578125,34.78397750854492,-0.020131034776568413,0.16208721697330475,-2.211395025253296,0.0040777274407446384,27.068273940806783,NW,,,,False,False,False,3,,,
104,21:45:16:578,-0.0005035400390625,0.0,1.0,154.63527660404975,358.74986688617025,573.005014463352,-425.70465087890625,34.77841567993164,-0.020134467631578445,0.16256532073020935,-2.219940423965454,0.003626071149483323,27.44655730207537,NW,,,,False,False,False,3,,,
105,21:45:16:622,0.0024169927928596735,0.0,1.0,154.38019803676858,358.49483465165343,572.7498472257828,-425.4493713378906,34.76850891113281,-0.020213546231389046,0.17425177991390228,-2.22808837890625,0.0010953564196825027,28.106869791080413,NW,,,,False,False,False,3,,,
106,21:45:16:664,0.0028198249638080597,0.0,1.0,153.93023615316898,358.0449562146672,572.2997284903353,-424.9990539550781,34.75123977661133,-0.020425528287887573,0.2055886834859848,-2.22430419921875,-0.004272460471838713,29.20366768128011,NW,,,,False,False,False,3,,,
107,21:45:16:696,0.0028198249638080597,0.0,1.0,153.67204823337048,357.786815556495,572.0414497440172,-424.74066162109375,34.74140930175781,-0.02053329348564148,0.22152350842952728,-2.216064929962158,-0.00634765625,29.798599618835514,NW,,,,False,False,False,3,,,
108,21:45:16:704,0.0028198249638080597,0.0,1.0,153.54845844534313,357.6632481314279,571.9178162289603,-424.6169738769531,34.73672103881836,-0.02057792618870735,0.22812829911708832,-2.21112060546875,-0.007110595703125,30.075425745014897,NW,,,,False,False,False,3,,,
109,21:45:16:749,0.002517700893804431,0.0,1.0,153.40327931014625,357.5180951337511,571.7725855900397,-424.4716796875,34.73123550415039,-0.02062557265162468,0.2351907193660736,-2.204864263534546,-0.007781981956213713,30.394418629738492,NW,,,,False,False,False,3,,,
110,21:45:16:776,-0.0003021240117959678,0.0,1.0,152.90694233193634,357.02184384574275,571.2760688328563,-423.9749450683594,34.71236801147461,-0.02074172906577587,0.2523071765899658,-2.191223382949829,-0.005554198287427425,31.438934268509612,NW,,,,False,False,False,3,,,
111,21:45:16:806,-0.0003021240117959678,0.0,1.0,152.7467934927348,356.86172163107364,571.115860920081,-423.8146667480469,34.706260681152344,-0.020765800029039383,0.25583839416503906,-2.189025640487671,-0.004455565009266138,31.762042882885513,NW,,,,False,False,False,3,,,
112,21:45:16:829,-0.0027191168628633022,0.0,1.0,152.46113804161078,356.57611205820035,570.8300983613198,-423.5287780761719,34.69529342651367,-0.020795250311493874,0.26014140248298645,-2.190033435821533,-0.0014648434007540345,32.323305977401866,NW,,,,False,False,False,3,,,
113,21:45:16:862,-0.0027191168628633022,0.0,1.0,152.15856226889164,356.2735827756629,570.5274067741738,-423.2259521484375,34.6835823059082,-0.020811766386032104,0.2625524699687958,-2.196960687637329,0.0019906782545149326,32.898365925814474,NW,,,,False,False,False,3,,,
114,21:45:16:886,-0.0027191168628633022,0.0,1.0,152.15856226889164,356.2735827756629,570.5274067741738,-423.2259521484375,34.6835823059082,-0.020811766386032104,0.2625524699687958,-2.196960687637329,0.0019906782545149326,32.898365925814474,NW,,,,False,False,False,3,,,
115,21:45:16:911,-0.0027191168628633022,0.0,1.0,152.15856226889164,356.2735827756629,570.5274067741738,-423.2259521484375,34.6835823059082,-0.020811766386032104,0.2625524699687958,-2.196960687637329,0.0019906782545149326,32.898365925814474,NW,,,,False,False,False,3,,,
116,21:45:16:941,-0.0027191168628633022,0.0,1.0,151.47325750705352,355.58837621775155,569.8418312637438,-422.5400695800781,34.656768798828125,-0.020813370123505592,0.2627232074737549,-2.225708484649658,0.007510345429182053,34.13543937093956,NW,,,,False,False,False,3,,,
117,21:45:16:967,-0.0027191168628633022,0.0,1.0,151.15578143990916,355.27094249358146,569.5242258537603,-422.2223205566406,34.644222259521484,-0.020803794264793396,0.26129570603370667,-2.242553234100342,0.009086900390684605,34.68140040988123,NW,,,,False,False,False,3,,,
118,21:45:16:992,-0.0027191168628633022,0.0,1.0,150.99366021563333,355.1088421185442,569.3620375956533,-422.06005859375,34.63778305053711,-0.02079746127128601,0.2603599727153778,-2.251678466796875,0.009739179164171219,34.95424716722859,NW,,,,False,False,False,3,,,
119,21:45:17:021,-0.0027191168628633022,0.0,1.0,150.99366021563333,355.1088421185442,569.3620375956533,-422.06005859375,34.63778305053711,-0.02079746127128601,0.2603599727153778,-2.251678466796875,0.009739179164171219,34.95424716722859,NW,,,,False,False,False,3,,,
120,21:45:17:048,-0.0027191168628633022,0.0,1.0,150.41787375701594,354.53312542723774,568.7860075494247,-421.4837646484375,34.61473083496094,-0.020770378410816193,0.2563369870185852,-2.285858631134033,0.011530625633895397,35.89373208402391,NW,,,,False,False,False,3,,,
121,21:45:17:068,-0.0027191168628633022,0.0,1.0,150.2664895349502,354.381758381938,568.6345577756866,-421.3322448730469,34.60861587524414,-0.02076290175318718,0.2552168369293213,-2.295165777206421,0.011897834949195385,36.133665221034285,NW,,,,False,False,False,3,,,
122,21:45:17:096,-0.0027191168628633022,0.0,1.0,149.93146527300007,354.04677052498243,568.2993863395533,-420.9969177246094,34.59502029418945,-0.020745467394590378,0.25263503193855286,-2.316070556640625,0.01265182625502348,36.65488882605819,NW,,,,False,False,False,3,,,
123,21:45:17:134,-0.0027191168628633022,0.0,1.0,149.56729748464042,353.6826396049085,567.9350550552936,-420.6324157714844,34.58012390136719,-0.020726317539811134,0.24980732798576355,-2.339081048965454,0.013400844298303127,37.207263783633714,NW,,,,False,False,False,3,,,
124,21:45:17:158,-0.0027191168628633022,0.0,1.0,149.56729748464042,353.6826396049085,567.9350550552936,-420.6324157714844,34.58012390136719,-0.020726317539811134,0.24980732798576355,-2.339081048965454,0.013400844298303127,37.207263783633714,NW,,,,False,False,False,3,,,
125,21:45:17:184,-0.0024169927928596735,0.0,1.0,148.96858427398692,353.0839804591069,567.3360649051604,-420.03314208984375,34.55537033081055,-0.020680006593465805,0.24294298887252808,-2.376190185546875,0.01412288285791874,37.967787795039534,NW,,,,False,False,False,3,,,
126,21:45:17:210,-0.0024169927928596735,0.0,1.0,148.78586565825552,352.90127586436466,567.153259620379,-419.8502502441406,34.54775619506836,-0.020624542608857155,0.2347194403409958,-2.387207269668579,0.014269164763391018,38.008553194690705,NW,,,,False,False,False,N,,,
127,21:45:17:239,-0.0022155765909701586,0.0,1.0,148.43445595627432,352.5498892874361,566.801680217282,-419.4985046386719,34.53302764892578,-0.020442770794034004,0.2078016698360443,-2.407837152481079,0.014406704343855381,38.004130419946584,NW,,,,False,False,False,N,,,
128,21:45:17:267,-0.001208496163599193,0.0,1.0,148.06856836641686,352.18402228591486,566.4356123365643,-419.13226318359375,34.51761245727539,-0.020215187221765518,0.1741493195295334,-2.427032947540283,0.013886933214962482,37.98677162011567,NW,,,,False,False,False,N,,,
129,21:45:17:294,-0.001208496163599193,0.0,1.0,148.06856836641686,352.18402228591486,566.4356123365643,-419.13226318359375,34.51761245727539,-0.020215187221765518,0.1741493195295334,-2.427032947540283,0.013886933214962482,37.98677162011567,NW,,,,False,False,False,N,,,
130,21:45:17:318,-0.001208496163599193,0.0,1.0,148.06856836641686,352.18402228591486,566.4356123365643,-419.13226318359375,34.51761245727539,-0.020215187221765518,0.1741493195295334,-2.427032947540283,0.013886933214962482,37.98677162011567,NW,,,,False,False,False,N,,,
131,21:45:17:343,0.004934696946293116,0.0,1.0,147.29448466208947,351.4099884980008,565.661143988734,-418.357421875,34.485408782958984,-0.02010578103363514,0.15815302729606628,-2.425903558731079,0.002292526653036475,39.15149274590914,NW,,,,False,False,False,4,,,
132,21:45:17:370,0.007855242118239403,0.0,1.0,147.11152880739704,351.22704576278016,565.478096872759,-418.1742858886719,34.477909088134766,-0.020142974331974983,0.16369913518428802,-2.417206048965454,-0.0011291501577943563,39.43909909007294,NW,,,,False,False,False,4,,,
133,21:45:17:409,0.01087651215493679,0.0,1.0,146.74399947305187,350.85954428441005,565.1103849357866,-417.806396484375,34.463096618652344,-0.02023574709892273,0.1774824559688568,-2.385589838027954,-0.01007080078125,40.000270737702564,NW,,,,False,False,False,4,,,
134,21:45:17:435,0.01087651215493679,0.0,1.0,146.74399947305187,350.85954428441005,565.1103849357866,-417.806396484375,34.463096618652344,-0.02023574709892273,0.1774824559688568,-2.385589838027954,-0.01007080078125,40.000270737702564,NW,,,,False,False,False,4,,,
135,21:45:17:456,0.013998514972627163,0.0,1.0,146.08713107736645,350.2027313330552,564.4531947126989,-417.1488952636719,34.437660217285156,-0.020397376269102097,0.20144958794116974,-2.281280279159546,-0.0295104943215847,40.95168699646976,NW,,,,False,False,False,4,,,
136,21:45:17:484,0.013998514972627163,0.0,1.0,145.69757632373685,349.8132124413462,564.063451886294,-416.75897216796875,34.423194885253906,-0.020467262715101242,0.21174950897693634,-2.198822021484375,-0.039062485098838806,41.48810225723354,NW,,,,False,False,False,4,,,
137,21:45:17:507,0.013998514972627163,0.0,1.0,145.50512923641696,349.62078399533004,563.8709127774881,-416.56634521484375,34.41622543334961,-0.020494498312473297,0.21575883030891418,-2.154144525527954,-0.043182373046875,41.74611914745331,NW,,,,False,False,False,4,,,
138,21:45:17:536,0.013998514972627163,0.0,1.0,145.10632712736046,349.2220227907518,563.4719221823881,-416.16717529296875,34.40217590332031,-0.02053707093000412,0.22201529145240784,-2.055389165878296,-0.050750732421875,42.26729650947598,NW,,,,False,False,False,4,,,
139,21:45:17:562,0.013998514972627163,0.0,1.0,145.10632712736046,349.2220227907518,563.4719221823881,-416.16717529296875,34.40217590332031,-0.02053707093000412,0.22201529145240784,-2.055389165878296,-0.050750732421875,42.26729650947598,NW,,,,False,False,False,4,,,
140,21:45:17:584,0.013998514972627163,0.0,1.0,145.10632712736046,349.2220227907518,563.4719221823881,-416.16717529296875,34.40217590332031,-0.02053707093000412,0.22201529145240784,-2.055389165878296,-0.050750732421875,42.26729650947598,NW,,,,False,False,False,4,,,
141,21:45:17:609,0.010171547532081604,0.0,1.0,144.22028527584598,348.33608020999014,562.5854692045732,-415.28033447265625,34.372528076171875,-0.02057746797800064,0.22787559032440186,-1.8381043672561646,-0.0577697716653347,43.366738035760434,NW,,,,False,False,False,4,,,
142,21:45:17:635,0.007250990718603134,0.0,1.0,143.99404487109086,348.10986709120056,562.3591255510421,-415.05389404296875,34.36529541015625,-0.020578879863023758,0.22807367146015167,-1.7861328125,-0.0581665001809597,43.63591518350695,NW,,,,False,False,False,4,,,
143,21:45:17:662,0.001913452404551208,0.0,1.0,143.6019340463005,347.7178042101776,561.9668360634266,-414.66143798828125,34.35295486450195,-0.020576056092977524,0.22760237753391266,-1.7069703340530396,-0.055755615234375,44.09220680065682,NW,,,,False,False,False,4,,,
144,21:45:17:687,0.001913452404551208,0.0,1.0,143.6019340463005,347.7178042101776,561.9668360634266,-414.66143798828125,34.35295486450195,-0.020576056092977524,0.22760237753391266,-1.7069703340530396,-0.055755615234375,44.09220680065682,NW,,,,False,False,False,4,,,
145,21:45:17:712,-0.001712036319077015,0.0,1.0,143.36300888238722,347.4789080547565,561.7278015421035,-414.42230224609375,34.345497131347656,-0.02057136408984661,0.22688521444797516,-1.6688841581344604,-0.0519103929400444,44.364387660908555,NW,,,,False,False,False,4,,,
146,21:45:17:763,-0.001712036319077015,0.0,1.0,142.4270054945897,346.5430178524084,560.7913670810576,-413.4854736328125,34.31679916381836,-0.02054092288017273,0.22232264280319214,-1.580444097518921,-0.0357360802590847,45.39148989850352,NW,,,,False,False,False,4,,,
147,21:45:17:790,-0.001712036319077015,0.0,1.0,142.0409318660663,346.15699110405126,560.4051147995211,-413.09906005859375,34.30522918701172,-0.02052566409111023,0.22004136443138123,-1.5633544921875,-0.0311279259622097,45.798834883460756,NW,,,,False,False,False,4,,,
148,21:45:17:814,-0.001712036319077015,0.0,1.0,141.78758428776385,345.90367432919487,560.1516496962432,-412.8454895019531,34.2977180480957,-0.020514754578471184,0.21842943131923676,-1.5565794706344604,-0.028533929958939552,46.06145626360182,NW,,,,False,False,False,4,,,
149,21:45:17:842,-0.001712036319077015,0.0,1.0,141.78758428776385,345.90367432919487,560.1516496962432,-412.8454895019531,34.2977180480957,-0.020514754578471184,0.21842943131923676,-1.5565794706344604,-0.028533929958939552,46.06145626360182,NW,,,,False,False,False,4,,,
150,21:45:17:863,-0.001712036319077015,0.0,1.0,141.05156940426073,345.16774835746355,559.4152911662825,-412.10882568359375,34.276180267333984,-0.02048332244157791,0.21376441419124603,-1.5508729219436646,-0.022735595703125,46.805134865399246,NW,,,,False,False,False,4,,,
151,21:45:17:890,-0.001712036319077015,0.0,1.0,140.8420075158627,344.9582114458098,559.2056306230843,-411.8990783691406,34.27010726928711,-0.020474852994084358,0.21250084042549133,-1.55206298828125,-0.02142333984375,47.012018976236675,NW,,,,False,False,False,4,,,
152,21:45:17:936,-0.001913452404551208,0.0,1.0,140.18045581832806,344.2967370502723,558.5437645475157,-411.2369384765625,34.251060485839844,-0.020448340103030205,0.20861445367336273,-1.562255620956421,-0.01721191219985485,47.652135157187715,NW,,,,False,False,False,4,,,
153,21:45:17:970,-0.003625490004196763,0.0,1.0,139.88802418370764,344.0043382548996,558.2511918635199,-410.9442443847656,34.24264907836914,-0.02043762244284153,0.20700253546237946,-1.5703126192092896,-0.014923096634447575,47.929275070762586,NW,,,,False,False,False,4,,,
154,21:45:18:052,-0.0037261981051415205,0.0,1.0,138.65935257559127,342.77579178043544,557.0219094433756,-409.7144470214844,34.207054138183594,-0.020395468920469284,0.20077340304851532,-1.6289976835250854,-0.0032043452374637127,49.05882182196023,NW,,,,False,False,False,4,,,
155,21:45:18:098,-0.0033233657013624907,0.0,1.0,137.93280459782605,342.04930646958815,556.2949846740681,-408.9872131347656,34.18570327758789,-0.020374411717057228,0.19765199720859528,-1.6747132539749146,0.002735388930886984,49.70329053995859,NW,,,,False,False,False,4,,,
156,21:45:18:130,-0.003222657600417733,0.0,1.0,137.5667930082975,341.6833228174271,555.9287783936427,-408.620849609375,34.174835205078125,-0.02036437951028347,0.19619034230709076,-1.6988829374313354,0.005317165516316891,50.02204541813799,NW,,,,False,False,False,4,,,
157,21:45:18:158,-0.003222657600417733,0.0,1.0,137.11886560504624,341.2354261174674,555.480608065338,-408.1724853515625,34.16142272949219,-0.02035343088209629,0.19455109536647797,-1.7289429903030396,0.008175834082067013,50.40719795130096,NW,,,,False,False,False,4,,,
158,21:45:18:184,-0.002114868490025401,0.0,1.0,136.6746645940237,340.79125161505056,555.0361609299043,-407.72784423828125,34.14799499511719,-0.020343322306871414,0.1930689513683319,-1.7582701444625854,0.010462990030646324,50.7840565926379,NW,,,,False,False,False,4,,,
159,21:45:18:193,-0.002114868490025401,0.0,1.0,136.6746645940237,340.79125161505056,555.0361609299043,-407.72784423828125,34.14799499511719,-0.020343322306871414,0.1930689513683319,-1.7582701444625854,0.010462990030646324,50.7840565926379,NW,,,,False,False,False,4,,,
160,21:45:18:237,-0.002114868490025401,0.0,1.0,136.6746645940237,340.79125161505056,555.0361609299043,-407.72784423828125,34.14799499511719,-0.020343322306871414,0.1930689513683319,-1.7582701444625854,0.010462990030646324,50.7840565926379,NW,,,,False,False,False,4,,,
161,21:45:18:262,0.0,0.0,1.0,135.61625980788062,339.73289538895045,553.9771500443335,-406.6683654785156,34.115623474121094,-0.02032237872481346,0.18996120989322662,-1.8153992891311646,0.012243811972439289,51.66316817832815,NW,,,,False,False,False,4,,,
162,21:45:18:290,0.0008056641090661287,0.0,1.0,135.1252841293329,339.2419354334805,553.4858839926458,-406.1768798828125,34.10045623779297,-0.020314177498221397,0.18873177468776703,-1.8339842557907104,0.011836519464850426,52.062683769039154,NW,,,,False,False,False,4,,,
163,21:45:18:339,0.0008056641090661287,0.0,1.0,134.90712919366672,339.02378614719396,553.2675982134537,-405.95849609375,34.093692779541016,-0.020310744643211365,0.1882263422012329,-1.8403621912002563,0.01144778449088335,52.23862159826408,NW,,,,False,False,False,4,,,
164,21:45:18:365,0.0028198249638080597,0.0,1.0,134.0536952480583,338.170368155076,552.4136435623828,-405.1041564941406,34.067237854003906,-0.020298423245549202,0.18640951812267303,-1.848480224609375,0.007330339401960373,52.91820851227874,NW,,,,False,False,False,4,,,
165,21:45:18:396,0.002920533064752817,0.0,1.0,133.7889039186305,337.90557977624707,552.1486878015503,-404.8390808105469,34.05903244018555,-0.020295027643442154,0.18590408563613892,-1.8464051485061646,0.005905999802052975,53.1263476655619,NW,,,,False,False,False,4,,,
166,21:45:18:421,0.003222657600417733,0.0,1.0,133.30112004875838,337.41779890249376,551.6605975033688,-404.35076904296875,34.04392623901367,-0.020289305597543716,0.18504346907138824,-1.8378294706344604,0.0033387537114322186,53.50664570608855,NW,,,,False,False,False,4,,,
167,21:45:18:446,0.003222657600417733,0.0,1.0,133.04367970630852,337.1603589377269,551.402993676019,-404.0930480957031,34.03596496582031,-0.020286444574594498,0.18462000787258148,-1.8311461210250854,0.002026027301326394,53.70576037749392,NW,,,,False,False,False,4,,,
168,21:45:18:473,0.003222657600417733,0.0,1.0,132.50103193303568,336.6177094227034,550.859997527299,-403.5498046875,34.01922607421875,-0.020280569791793823,0.1837935447692871,-1.8131412267684937,-0.0005798340425826609,54.12200582456706,NW,,,,False,False,False,4,,,
169,21:45:18:500,0.003222657600417733,0.0,1.0,132.50103193303568,336.6177094227034,550.859997527299,-403.5498046875,34.01922607421875,-0.020280569791793823,0.1837935447692871,-1.8131412267684937,-0.0005798340425826609,54.12200582456706,NW,,,,False,False,False,4,,,
170,21:45:18:530,0.005941780284047127,0.0,1.0,131.5932843298739,335.7099536339883,549.9516583711804,-402.64105224609375,33.99153518676758,-0.02027256041765213,0.18258461356163025,-1.7668763399124146,-0.007141112349927425,54.80826185503315,NW,,,,False,False,False,4,,,
171,21:45:18:543,0.005941780284047127,0.0,1.0,131.5932843298739,335.7099536339883,549.9516583711804,-402.64105224609375,33.99153518676758,-0.02027256041765213,0.18258461356163025,-1.7668763399124146,-0.007141112349927425,54.80826185503315,NW,,,,False,False,False,4,,,
172,21:45:18:586,0.007150282151997089,0.0,1.0,130.77930814648983,334.89596784433195,549.1371461290665,-401.826171875,33.96727752685547,-0.020266341045498848,0.18166252970695496,-1.7043455839157104,-0.015228271484375,55.41364806161208,NW,,,,False,False,False,4,,,
173,21:45:18:612,0.010272257030010223,0.0,1.0,130.4742565184097,334.59091314540376,548.8318934385451,-401.5207824707031,33.95840072631836,-0.0202642809599638,0.18134833872318268,-1.6740418672561646,-0.01940917782485485,55.638076428393624,NW,,,,False,False,False,4,,,
174,21:45:18:640,0.012085026130080223,0.0,1.0,129.94023722219313,334.0568904920561,548.2975234231093,-400.9861755371094,33.94322967529297,-0.02026107721030712,0.18085657060146332,-1.6095582246780396,-0.0279541015625,56.02812001466259,NW,,,,False,False,False,4,,,
175,21:45:18:672,0.012085026130080223,0.0,1.0,129.94023722219313,334.0568904920561,548.2975234231093,-400.9861755371094,33.94322967529297,-0.02026107721030712,0.18085657060146332,-1.6095582246780396,-0.0279541015625,56.02812001466259,NW,,,,False,False,False,4,,,
176,21:45:18:695,0.012085026130080223,0.0,1.0,129.0627389677801,333.17939538022557,547.4194558147307,-400.10772705078125,33.91950988769531,-0.02025585062801838,0.18009841442108154,-1.4736634492874146,-0.0438232459127903,56.66137702760969,NW,,,,False,False,False,4,,,
177,21:45:18:720,0.012085026130080223,0.0,1.0,128.78517278002894,332.9018325929323,547.1417115106608,-399.8298645019531,33.912322998046875,-0.02025459334254265,0.17989350855350494,-1.424957275390625,-0.0483703650534153,56.85980491704469,NW,,,,False,False,False,4,,,
178,21:45:18:754,0.010675094090402126,0.0,1.0,128.21454671824986,332.33121770943586,546.5707229057489,-399.2586364746094,33.89805221557617,-0.020251845940947533,0.17951102554798126,-1.319122314453125,-0.05676267668604851,57.265120683415,NW,,,,False,False,False,4,,,
179,21:45:18:786,0.008358785882592201,0.0,1.0,127.66759870855145,331.784285409514,546.0234318594777,-398.71112060546875,33.88499069213867,-0.020240820944309235,0.1778649389743805,-1.215331792831421,-0.0626830980181694,57.58523407428244,NW,,,,False,False,False,N,,,
180,21:45:18:813,0.008358785882592201,0.0,1.0,127.66759870855145,331.784285409514,546.0234318594777,-398.71112060546875,33.88499069213867,-0.020240820944309235,0.1778649389743805,-1.215331792831421,-0.0626830980181694,57.58523407428244,NW,,,,False,False,False,N,,,
181,21:45:18:840,0.0018127443036064506,0.0,1.0,126.78535236725325,330.90206790845207,545.1406367936298,-397.8279724121094,33.86490249633789,-0.02008102461695671,0.15417101979255676,-1.065643310546875,-0.0638427734375,57.65862984077211,NW,,,,False,False,False,N,,,
182,21:45:18:871,0.0018127443036064506,0.0,1.0,126.28738148526938,330.4041148462871,544.642357780515,-397.3294982910156,33.854026794433594,-0.019936027005314827,0.13271740078926086,-0.9966735243797302,-0.061859119683504105,57.63515576103857,NW,,,,False,False,False,N,,,
183,21:45:18:900,-0.002114868490025401,0.0,1.0,125.75404345849104,329.8707991318886,544.1086908977086,-396.7956237792969,33.84272003173828,-0.019835662096738815,0.11792320758104324,-0.9390562772750854,-0.0578613243997097,57.94671422641879,NW,,,,False,False,False,5,,,
184,21:45:18:926,-0.003625490004196763,0.0,1.0,125.44588154274012,329.5626517919456,543.8003391720785,-396.4871520996094,33.83632278442383,-0.019825590774416924,0.11646155267953873,-0.9147032499313354,-0.0547180101275444,58.17764700805837,NW,,,,False,False,False,5,,,
185,21:45:18:969,-0.003625490004196763,0.0,1.0,125.44588154274012,329.5626517919456,543.8003391720785,-396.4871520996094,33.83632278442383,-0.019825590774416924,0.11646155267953873,-0.9147032499313354,-0.0547180101275444,58.17764700805837,NW,,,,False,False,False,5,,,
186,21:45:18:995,-0.004229739308357239,0.0,1.0,124.25877999163663,328.37561195261617,542.612505434596,-395.2988586425781,33.81248092651367,-0.019934462383389473,0.13268324732780457,-0.8737487196922302,-0.042449951171875,59.074223927427596,NW,,,,False,False,False,5,,,
187,21:45:19:025,-0.004229739308357239,0.0,1.0,123.7532750263255,327.87013415309895,542.1066874515775,-394.7928466796875,33.80267333984375,-0.01999923586845398,0.142293319106102,-0.875762939453125,-0.0379638671875,59.44261216051964,NW,,,,False,False,False,5,,,
188,21:45:19:051,-0.004229739308357239,0.0,1.0,123.41898523946938,327.53586208679116,541.7721898972198,-394.4582214355469,33.79627990722656,-0.020038451999425888,0.14810581505298615,-0.8817747831344604,-0.0352477952837944,59.681276400993774,NW,,,,False,False,False,5,,,
189,21:45:19:075,-0.004229739308357239,0.0,1.0,123.41898523946938,327.53586208679116,541.7721898972198,-394.4582214355469,33.79627990722656,-0.020038451999425888,0.14810581505298615,-0.8817747831344604,-0.0352477952837944,59.681276400993774,NW,,,,False,False,False,5,,,
190,21:45:19:100,-0.004229739308357239,0.0,1.0,123.05814209224211,327.17503744278866,541.4111213531429,-394.0970153808594,33.78943634033203,-0.020076941698789597,0.15380218625068665,-0.8919066786766052,-0.0323486328125,59.934849359622646,NW,,,,False,False,False,5,,,
191,21:45:19:124,-0.004229739308357239,0.0,1.0,122.12854029740447,326.2454793002265,540.4809324719254,-393.1664733886719,33.77202606201172,-0.020153235644102097,0.16505834460258484,-0.9319763779640198,-0.02471923828125,60.56975839608573,NW,,,,False,False,False,5,,,
192,21:45:19:150,-0.004229739308357239,0.0,1.0,121.78986606380082,325.9068187984529,540.1420412706947,-392.82745361328125,33.76572036743164,-0.020171279087662697,0.1676947921514511,-0.9502562880516052,-0.02206420712172985,60.794906452730956,NW,,,,False,False,False,5,,,
193,21:45:19:179,-0.004229739308357239,0.0,1.0,121.26483264075564,325.38180363323016,539.6166673067795,-392.3018798828125,33.75593566894531,-0.02019355818629265,0.17064543068408966,-0.9817200303077698,-0.01785278134047985,61.13820088061114,NW,,,,False,False,False,5,,,
194,21:45:19:199,-0.004229739308357239,0.0,1.0,120.96799131691685,325.0849711405584,539.3196310868996,-392.0047302246094,33.75039291381836,-0.020214080810546875,0.17102110385894775,-1.000885009765625,-0.015869140625,61.329348971179506,NW,,,,False,False,False,5,,,
195,21:45:19:242,-0.004229739308357239,0.0,1.0,120.65618412000812,324.7731719380234,539.0076170634791,-391.6925964355469,33.74454879760742,-0.02024715393781662,0.17026294767856598,-1.0219420194625854,-0.01348876953125,61.52798596293102,NW,,,,False,False,False,5,,,
196,21:45:19:254,-0.004229739308357239,0.0,1.0,120.65618412000812,324.7731719380234,539.0076170634791,-391.6925964355469,33.74454879760742,-0.02024715393781662,0.17026294767856598,-1.0219420194625854,-0.01348876953125,61.52798596293102,NW,,,,False,False,False,5,,,
197,21:45:19:309,-0.004229739308357239,0.0,1.0,119.00044225824942,323.117442615347,537.3507335137306,-390.0350646972656,33.71281814575195,-0.0205549243837595,0.15532532334327698,-1.14453125,0.0012974075507372618,62.548684340407284,NW,,,,False,False,False,5,,,
198,21:45:19:331,-0.004229739308357239,0.0,1.0,118.7520015253974,322.8689986407341,537.1021144417587,-389.7863464355469,33.70792770385742,-0.02061416581273079,0.1524907946586609,-1.164001226425171,0.003277422860264778,62.69734198245991,NW,,,,False,False,False,5,,,
199,21:45:19:365,-0.004229739308357239,0.0,1.0,118.18072069597721,322.2977048641128,536.5304154507126,-389.21441650390625,33.69650650024414,-0.020789489150047302,0.14768917858600616,-1.209442138671875,0.00798510480672121,63.03523882603209,NW,,,,False,False,False,5,,,
200,21:45:19:393,-0.004229739308357239,0.0,1.0,117.83520405291713,321.9521764153181,536.1846402631724,-388.8684997558594,33.689476013183594,-0.0209170151501894,0.1457015872001648,-1.237274169921875,0.011038710363209248,63.2369490889845,NW,,,,False,False,False,5,,,
201,21:45:19:417,-0.004229739308357239,0.0,1.0,117.83520405291713,321.9521764153181,536.1846402631724,-388.8684997558594,33.689476013183594,-0.0209170151501894,0.1457015872001648,-1.237274169921875,0.011038710363209248,63.2369490889845,NW,,,,False,False,False,5,,,
202,21:45:19:450,-0.0014099122490733862,0.0,1.0,116.52719297015393,320.6440947912709,534.8756152699601,-387.5589294433594,33.66225051879883,-0.021468009799718857,0.14200645685195923,-1.3281856775283813,0.01581873930990696,63.98460544560538,NW,,,,False,False,False,5,,,
203,21:45:19:503,0.0013092041481286287,0.0,1.0,115.55122321363605,319.66804240778043,533.8988540408608,-386.5817565917969,33.641441345214844,-0.02174495719373226,0.15018902719020844,-1.3737488985061646,0.0015066032065078616,64.52687731352891,NW,,,,False,False,False,5,,,
204,21:45:19:540,0.0075531164184212685,0.0,1.0,114.92261954528496,319.03937147201,533.269725403915,-385.9523620605469,33.627872467041016,-0.021816672757267952,0.1603318452835083,-1.3822022676467896,0.0021582036279141903,64.86986798575147,NW,,,,False,False,False,5,,,
205,21:45:19:567,0.0075531164184212685,0.0,1.0,114.92261954528496,319.03937147201,533.269725403915,-385.9523620605469,33.627872467041016,-0.021816672757267952,0.1603318452835083,-1.3822022676467896,0.0021582036279141903,64.86986798575147,NW,,,,False,False,False,5,,,
206,21:45:19:615,0.01087651215493679,0.0,1.0,113.5393923348629,317.6559848026403,531.885326165162,-384.5673828125,33.598777770996094,-0.021903151646256447,0.17427226901054382,-1.3164979219436646,-0.01644897647202015,65.60984522415862,NW,,,,False,False,False,5,,,
207,21:45:19:660,0.01087651215493679,0.0,1.0,112.63042238343685,316.74689942762353,530.9755745487893,-383.6572570800781,33.58028793334961,-0.021769484505057335,0.1689925342798233,-1.223419189453125,-0.02926635555922985,66.08624899463503,NW,,,,False,False,False,5,,,
208,21:45:19:686,0.01087651215493679,0.0,1.0,112.28784056272127,316.4042732494415,530.6326966295389,-383.3142395019531,33.573486328125,-0.02170535922050476,0.16614434123039246,-1.1808470487594604,-0.0322570726275444,66.26402517998132,NW,,,,False,False,False,5,,,
209,21:45:19:712,0.01087651215493679,0.0,1.0,111.89667521037401,316.0130577084842,530.2411927773845,-382.9225769042969,33.56585693359375,-0.021645469591021538,0.16362400352954865,-1.1283570528030396,-0.0359802283346653,66.46574908649193,NW,,,,False,False,False,5,,,
210,21:45:19:760,0.01087651215493679,0.0,1.0,110.81299003670738,314.9292404206237,529.1565731544423,-381.8375244140625,33.54572296142578,-0.021524734795093536,0.15884287655353546,-0.9638060331344604,-0.04876708984375,67.01817159271808,NW,,,,False,False,False,5,,,
211,21:45:19:785,0.01087651215493679,0.0,1.0,110.48228770526222,314.5985003213869,528.8255872462612,-381.50640869140625,33.539894104003906,-0.021500052884221077,0.1578798145055771,-0.9093018770217896,-0.0528564415872097,67.18494961681353,NW,,,,False,False,False,5,,,
212,21:45:19:813,0.01087651215493679,0.0,1.0,109.80176391983588,313.9179041848773,528.144484186746,-380.8250427246094,33.528438568115234,-0.02146182954311371,0.15638400614261627,-0.79241943359375,-0.0614013634622097,67.52568231500358,NW,,,,False,False,False,5,,,
213,21:45:19:851,0.01087651215493679,0.0,1.0,109.19553742012246,313.3116211048513,527.5377485980049,-380.21807861328125,33.518924713134766,-0.021438103169202805,0.15533214807510376,-0.6837158203125,-0.069549560546875,67.82649626019631,NW,,,,False,False,False,5,,,
214,21:45:19:878,0.009668001905083656,0.0,1.0,108.82555853120398,312.94161184501775,527.1674628325587,-379.84765625,33.513458251953125,-0.021427230909466743,0.15479256212711334,-0.6163330078125,-0.0744628831744194,68.00900495842473,NW,,,,False,False,False,5,,,
215,21:45:19:903,0.009668001905083656,0.0,1.0,108.82555853120398,312.94161184501775,527.1674628325587,-379.84765625,33.513458251953125,-0.021427230909466743,0.15479256212711334,-0.6163330078125,-0.0744628831744194,68.00900495842473,NW,,,,False,False,False,5,,,
216,21:45:19:951,0.005841071717441082,0.0,1.0,107.33620645342786,311.4521675822006,525.6769028674762,-378.3565673828125,33.4939079284668,-0.021402740851044655,0.15322846174240112,-0.3589782416820526,-0.088104248046875,68.73552712142971,N,,,,False,False,False,5,,,
217,21:45:19:982,0.005136113613843918,0.0,1.0,106.58348133530463,310.6994160337292,524.9235861498737,-377.6029968261719,33.48556900024414,-0.021397819742560387,0.1526615470647812,-0.2413330078125,-0.09271240234375,69.09795574172996,N,,,,False,False,False,5,,,
218,21:45:20:015,0.005136113613843918,0.0,1.0,106.1706965102592,310.2866229370837,524.5104828287739,-377.18975830078125,33.4814453125,-0.02139633148908615,0.15239517390727997,-0.1809081882238388,-0.0950012058019638,69.29539589663665,N,,,,False,False,False,5,,,
219,21:45:20:044,0.004934696946293116,0.0,1.0,105.43729002223147,309.55321479548553,523.7765232734254,-376.45556640625,33.4749870300293,-0.02139442414045334,0.1519443839788437,-0.08038330078125,-0.0991515964269638,69.64399645484114,N,,,,False,False,False,5,,,
220,21:45:20:076,0.004934696946293116,0.0,1.0,105.43729002223147,309.55321479548553,523.7765232734254,-376.45556640625,33.4749870300293,-0.02139442414045334,0.1519443839788437,-0.08038330078125,-0.0991515964269638,69.64399645484114,N,,,,False,False,False,5,,,
221,21:45:20:126,0.004934696946293116,0.0,1.0,103.93247363743636,308.04844558586433,522.2706218208506,-374.94921875,33.465049743652344,-0.021380232647061348,0.1520400047302246,0.105213463306427,-0.1086730808019638,70.35088489779321,N,,,,False,False,False,5,,,
222,21:45:20:166,0.004934696946293116,0.0,1.0,103.17065984298704,307.28668119382735,521.5082866262231,-374.1866760253906,33.46175765991211,-0.021254844963550568,0.15932098031044006,0.19122570753097534,-0.115203857421875,70.70420401835781,N,,,,False,False,False,5,,,
