tick,time,steerCmd,brakeCmd,throttleCmd,distance1,distance2,distanc3,Location_X,Location_Y,Location_Z,Rotation_Pitch,Rotation_Yaw,Rotation_Roll,distance3
0,21:31:30:926,0.0,0.6212635636329651,0.6212635636329651,581.1589687889701,366.86763608552934,,-433.8999938964844,34.900001525878906,0.8370310664176941,0.0,0.0,0.0,162.83051865851735
1,21:31:30:933,0.0,0.6212635636329651,0.6212635636329651,581.1589687889701,366.86763608552934,,-433.8999938964844,34.900001525878906,0.8370310664176941,0.0,0.0,0.0,162.83051865851735
2,21:31:30:961,0.0,0.6212635636329651,0.6212635636329651,581.1597969982477,366.86986694438616,,-433.8999938964844,34.900001525878906,0.7598406076431274,0.0,0.0,0.0,162.83074427293664
3,21:31:30:998,0.0,0.6212635636329651,0.6212635636329651,581.1595075154036,366.86978383562456,,-433.8999938964844,34.900001525878906,0.6557795405387878,0.0,0.0,0.0,162.83062597949692
4,21:31:31:024,0.0,0.6212635636329651,0.6212635636329651,581.1664576588925,366.88223506454574,,-433.8999938964844,34.900001525878906,0.3136655390262604,0.0,0.0,0.0,162.83269920777167
5,21:31:31:050,0.0,0.6212635636329651,0.6212635636329651,581.1683844331849,366.88582917585995,,-433.8999938964844,34.900001525878906,0.1949819177389145,0.0,0.0,0.0,162.83349953750218
6,21:31:31:079,0.0,0.6212635636329651,0.6212635636329651,581.1717823056149,366.89179181692407,,-433.8999938964844,34.900001525878906,-0.001658592140302062,0.0,0.0,0.0,162.8350210599061
7,21:31:31:103,0.0,0.6212635636329651,0.6212635636329651,581.1733544775891,366.89442416327773,,-433.8999938964844,34.900001525878906,-0.08715507388114929,0.0,0.0,0.0,162.83573180415954
8,21:31:31:143,0.0,0.6212635636329651,0.6212635636329651,581.173137907357,366.8934514976105,,-433.8991394042969,34.89944839477539,-0.09300628304481506,0.13805177807807922,-9.155274165095761e-05,-0.2126769870519638,162.8348375910952
9,21:31:31:163,0.0,0.6212635636329651,0.6212635636329651,581.173137907357,366.8934514976105,,-433.8991394042969,34.89944839477539,-0.09300628304481506,0.13805177807807922,-9.155274165095761e-05,-0.2126769870519638,162.8348375910952
10,21:31:31:187,0.0,0.6212635636329651,0.6212635636329651,581.173137907357,366.8934514976105,,-433.8991394042969,34.89944839477539,-0.09300628304481506,0.13805177807807922,-9.155274165095761e-05,-0.2126769870519638,162.8348375910952
11,21:31:31:213,0.0,0.6212635636329651,0.6212635636329651,581.1731329506118,366.89072217897234,,-433.8982238769531,34.89897537231445,-0.06929779052734375,0.2758030295372009,-0.0016784665640443563,-0.4193724989891052,162.83347391512518
12,21:31:31:240,0.0,0.6212635636329651,0.6212635636329651,581.1734312282673,366.8904828725036,,-433.8983154296875,34.89887237548828,-0.062290649861097336,0.2668759524822235,-0.0015563963679596782,-0.4031981825828552,162.83347468028182
13,21:31:31:266,0.0,0.6212635636329651,0.6212635636329651,581.1737152955238,366.8903341835455,,-433.8984375,34.898799896240234,-0.05643398314714432,0.25151488184928894,-0.0013427734375,-0.378326416015625,162.83351600878447
14,21:31:31:295,0.0,0.6212635636329651,0.6212635636329651,581.1743555491663,366.89007897437415,,-433.89874267578125,34.89870071411133,-0.04683639481663704,0.21398980915546417,-0.0009155272273346782,-0.3203429877758026,162.83368200434944
15,21:31:31:323,0.0,0.6212635636329651,0.6212635636329651,581.1747448943639,366.88999477989836,,-433.89892578125,34.89866256713867,-0.04175884276628494,0.18910060822963715,-0.000640869140625,-0.2829284369945526,162.833822436273
16,21:31:31:349,0.02729262225329876,0.0,0.5412293076515198,581.1750316134345,366.88995349303275,,-433.8990783691406,34.898643493652344,-0.03811778873205185,0.16912230849266052,-0.00045776370097883046,-0.253173828125,162.83394430431352
17,21:31:31:375,0.02729262225329876,0.0,0.5412293076515198,581.1750316134345,366.88995349303275,,-433.8990783691406,34.898643493652344,-0.03811778873205185,0.16912230849266052,-0.00045776370097883046,-0.253173828125,162.83394430431352
18,21:31:31:399,0.02729262225329876,0.0,1.0,581.1759862394379,366.88960219564706,,-433.8995666503906,34.89860916137695,-0.029442062601447105,0.11521845310926437,-9.1552734375e-05,-0.1739501953125,162.83424918152792
19,21:31:31:423,0.02729262225329876,0.0,1.0,581.1762049018589,366.88959049554524,,-433.8996887207031,34.89860916137695,-0.02740650065243244,0.10122339427471161,-3.051756357308477e-05,-0.1535339206457138,162.83435481072758
20,21:31:31:449,0.02729262225329876,0.0,1.0,581.176629621726,366.88937105522444,,-433.8998718261719,34.89860534667969,-0.023657340556383133,0.07336989045143127,8.08486802270636e-05,-0.11303708702325821,162.83448208813377
21,21:31:31:474,0.02729262225329876,0.0,1.0,581.1768455028385,366.8893688159048,,-433.8999938964844,34.89860916137695,-0.022363433614373207,0.06263966113328934,0.00011395669571356848,-0.09735105186700821,162.83456401070316
22,21:31:31:501,0.02729262225329876,0.0,1.0,581.1771115365199,366.8892211029627,,-433.9001159667969,34.89860916137695,-0.020603293552994728,0.04699169844388962,0.00015075206465553492,-0.0744628831744194,162.83467667491306
23,21:31:31:529,0.02729262225329876,0.0,1.0,581.1771115365199,366.8892211029627,,-433.9001159667969,34.89860916137695,-0.020603293552994728,0.04699169844388962,0.00015075206465553492,-0.0744628831744194,162.83467667491306
24,21:31:31:549,0.02729262225329876,0.0,1.0,581.1771115365199,366.8892211029627,,-433.9001159667969,34.89860916137695,-0.020603293552994728,0.04699169844388962,0.00015075206465553492,-0.0744628831744194,162.83467667491306
25,21:31:31:583,0.02729262225329876,0.0,1.0,581.1775620945482,366.88855786266953,,-433.9002685546875,34.89862060546875,-0.01866832748055458,0.02562003768980503,0.0001807046210160479,-0.0427856482565403,162.83476809855424
26,21:31:31:610,0.02729262225329876,0.0,1.0,581.1776927330945,366.88837323087995,,-433.90032958984375,34.89862823486328,-0.018184775486588478,0.01817513257265091,0.00018536712741479278,-0.031463623046875,162.83483031880493
27,21:31:31:637,0.02729262225329876,0.0,1.0,581.1769740236225,366.88732847784587,,-433.8995361328125,34.898658752441406,-0.01804862916469574,0.017546754330396652,0.0012191417627036572,-0.02343750186264515,162.83400989172944
28,21:31:31:664,0.02729262225329876,0.0,1.0,581.1769740236225,366.88732847784587,,-433.8995361328125,34.898658752441406,-0.01804862916469574,0.017546754330396652,0.0012191417627036572,-0.02343750186264515,162.83400989172944
29,21:31:31:689,0.02729262225329876,0.0,1.0,581.1769740236225,366.88732847784587,,-433.8995361328125,34.898658752441406,-0.01804862916469574,0.017546754330396652,0.0012191417627036572,-0.02343750186264515,162.83400989172944
30,21:31:31:717,0.02729262225329876,0.0,1.0,581.1441415722768,366.8534029625667,,-433.8665466308594,34.899349212646484,-0.018871573731303215,0.11648886650800705,0.031233876943588257,-0.0197753868997097,162.80097892846103
31,21:31:31:744,0.02729262225329876,0.0,1.0,581.1280989953034,366.8372695738539,,-433.8504943847656,34.899658203125,-0.019121551886200905,0.14534641802310944,0.044723425060510635,-0.01947021298110485,162.78492889044094
32,21:31:31:770,0.02729262225329876,0.0,1.0,581.0961366161487,366.80506699091114,,-433.8185119628906,34.90027618408203,-0.019552230834960938,0.1835203468799591,0.07092202454805374,-0.01901244930922985,162.75295028311473
33,21:31:31:791,0.02729262225329876,0.0,1.0,581.0961254720115,366.80498496819774,,-433.7992858886719,34.90065002441406,-0.019748076796531677,0.1981506049633026,0.08639931678771973,-0.01870727352797985,162.75295177731212
34,21:31:31:817,0.02729262225329876,0.0,1.0,581.0769031405648,366.7857723340976,,-433.7992858886719,34.90065002441406,-0.019748076796531677,0.1981506049633026,0.08639931678771973,-0.01870727352797985,162.7337250594726
35,21:31:31:840,0.02729262225329876,0.0,1.0,581.0769031405648,366.7857723340976,,-433.7992858886719,34.90065002441406,-0.019748076796531677,0.1981506049633026,0.08639931678771973,-0.01870727352797985,162.7337250594726
36,21:31:31:868,0.02729262225329876,0.0,1.0,580.9843796003744,366.69219016069474,,-433.7066650390625,34.90248107910156,-0.020222052931785583,0.22392773628234863,0.15945585072040558,-0.01724242977797985,162.64110997667765
37,21:31:31:894,0.02729262225329876,0.0,1.0,580.9568420819877,366.66459187801934,,-433.67913818359375,34.903038024902344,-0.02026321366429329,0.2239755541086197,0.18090449273586273,-0.01684570126235485,162.61358087356902
38,21:31:31:928,0.02729262225329876,0.0,1.0,580.9059494875063,366.61348386438385,,-433.62823486328125,34.90408706665039,-0.020311355590820312,0.21982279419898987,0.22026900947093964,-0.01617431640625,162.5626736547767
39,21:31:31:961,0.02729262225329876,0.0,1.0,580.8772668294012,366.58472949853706,,-433.59954833984375,34.904693603515625,-0.020355185493826866,0.21596373617649078,0.2423279732465744,-0.01586913876235485,162.53398393857222
40,21:31:31:985,0.02729262225329876,0.0,1.0,580.8772668294012,366.58472949853706,,-433.59954833984375,34.904693603515625,-0.020355185493826866,0.21596373617649078,0.2423279732465744,-0.01586913876235485,162.53398393857222
41,21:31:32:008,0.02729262225329876,0.0,1.0,580.778885840346,366.48572295383644,,-433.5011291503906,34.90684127807617,-0.02037857100367546,0.20019283890724182,0.3175823986530304,-0.01507568545639515,162.43555627236262
42,21:31:32:033,0.02729262225329876,0.0,1.0,580.7494995903219,366.4562803646443,,-433.47174072265625,34.907501220703125,-0.020370865240693092,0.19537071883678436,0.3399224877357483,-0.01489257998764515,162.40616348587514
43,21:31:32:060,0.02729262225329876,0.0,1.0,580.6792870778703,366.3858176800451,,-433.4015197753906,34.90912628173828,-0.02037784457206726,0.1844082623720169,0.3932271897792816,-0.0146484375,162.33593254571053
44,21:31:32:091,0.02729262225329876,0.0,1.0,580.6172204245769,366.3235636417,,-433.3394470214844,34.91061019897461,-0.02033035270869732,0.17589102685451508,0.440143883228302,-0.014556884765625,162.2738501762896
45,21:31:32:116,0.02729262225329876,0.0,1.0,580.576816847793,366.2830861133956,,-433.2990417480469,34.91159439086914,-0.020280951634049416,0.17098011076450348,0.47059786319732666,-0.014556884765625,162.23343746874602
46,21:31:32:142,0.02729262225329876,0.0,1.0,580.576816847793,366.2830861133956,,-433.2990417480469,34.91159439086914,-0.020280951634049416,0.17098011076450348,0.47059786319732666,-0.014556884765625,162.23343746874602
47,21:31:32:165,0.02729262225329876,0.0,1.0,580.576816847793,366.2830861133956,,-433.2990417480469,34.91159439086914,-0.020280951634049416,0.17098011076450348,0.47059786319732666,-0.014556884765625,162.23343746874602
48,21:31:32:189,0.02729262225329876,0.0,1.0,580.4062305563128,366.1113854971705,,-433.1283874511719,34.91598129272461,-0.02019481547176838,0.15520237386226654,0.5989214777946472,-0.01489257998764515,162.06275349796107
49,21:31:32:221,0.02729262225329876,0.0,1.0,580.3534974322653,366.0585545054491,,-433.0756530761719,34.91740798950195,-0.020168457180261612,0.1518009454011917,0.6384406089782715,-0.015075682662427425,162.0100076185228
50,21:31:32:247,0.02729262225329876,0.0,1.0,580.3115858116508,366.01642614844957,,-432.9933776855469,34.919700622558594,-0.020161475986242294,0.14761404693126678,0.6999830603599548,-0.01544189453125,161.968098465127
51,21:31:32:283,0.02729262225329876,0.0,1.0,580.2251594261713,365.929942125197,,-432.94732666015625,34.921016693115234,-0.020170019939541817,0.14577671885490417,0.7343833446502686,-0.01568603329360485,161.88165175797062
52,21:31:32:308,0.02729262225329876,0.0,1.0,580.1377901083733,365.84235468503283,,-432.8599548339844,34.923583984375,-0.020156515762209892,0.14314709603786469,0.7995122075080872,-0.0161743201315403,161.79425891990078
53,21:31:32:341,0.02729262225329876,0.0,1.0,580.1377901083733,365.84235468503283,,-432.8599548339844,34.923583984375,-0.020156515762209892,0.14314709603786469,0.7995122075080872,-0.0161743201315403,161.79425891990078
54,21:31:32:350,0.02729262225329876,0.0,1.0,580.1377901083733,365.84235468503283,,-432.8599548339844,34.923583984375,-0.020156515762209892,0.14314709603786469,0.7995122075080872,-0.0161743201315403,161.79425891990078
55,21:31:32:373,0.02729262225329876,0.0,1.0,579.9789203129832,365.6828410875513,,-432.7010498046875,34.92848587036133,-0.02010040171444416,0.14053113758563995,0.9176850914955139,-0.0171813927590847,161.635312618343
56,21:31:32:417,0.02729262225329876,0.0,1.0,579.9271948550181,365.6308638318362,,-432.60009765625,34.931758880615234,-0.020121421664953232,0.13993008434772491,0.992526650428772,-0.01788330078125,161.58357089446707
57,21:31:32:425,0.02729262225329876,0.0,1.0,579.8328915142724,365.53653053588624,,-432.5550231933594,34.93325424194336,-0.020112380385398865,0.13986177742481232,1.0259190797805786,-0.018218994140625,161.48924347454988
58,21:31:32:451,0.02729262225329876,0.0,1.0,579.7849771040035,365.48856485530285,,-432.5071105957031,34.934879302978516,-0.02011016756296158,0.13989593088626862,1.061395525932312,-0.0185852013528347,161.44131577432333
59,21:31:32:479,0.02729262225329876,0.0,1.0,579.6732647172382,365.3765952078573,,-432.3953857421875,34.93875503540039,-0.020092392340302467,0.1403467208147049,1.1439273357391357,-0.0194091759622097,161.32955536742287
60,21:31:32:504,0.02729262225329876,0.0,1.0,579.6732647172382,365.3765952078573,,-432.3953857421875,34.93875503540039,-0.020092392340302467,0.1403467208147049,1.1439273357391357,-0.0194091759622097,161.32955536742287
61,21:31:32:531,0.02729262225329876,0.0,1.0,579.6732647172382,365.3765952078573,,-432.3953857421875,34.93875503540039,-0.020092392340302467,0.1403467208147049,1.1439273357391357,-0.0194091759622097,161.32955536742287
62,21:31:32:555,0.02729262225329876,0.0,1.0,579.4823103838942,365.18501364029163,,-432.2044372558594,34.94573211669922,-0.020090751349925995,0.14203377068042755,1.284615397453308,-0.020904541015625,161.13854127809097
63,21:31:32:562,0.02729262225329876,0.0,1.0,579.42359074392,365.12623345404137,,-432.1457214355469,34.94796371459961,-0.020113373175263405,0.14271679520606995,1.327751636505127,-0.02139282412827015,161.07980384169525
64,21:31:32:590,0.02729262225329876,0.0,1.0,579.3557762078815,365.0583479560705,,-432.0779113769531,34.950592041015625,-0.020098915323615074,0.14357057213783264,1.3775554895401,-0.021942138671875,161.01196847828913
65,21:31:32:623,-0.014401355758309364,0.0,1.0,579.2964183457091,364.99886612305306,,-431.96234130859375,34.954097747802734,-0.02012680098414421,0.14506638050079346,1.4084328413009644,-0.00311279296875,160.9525941085102
66,21:31:32:657,-0.016919124871492386,0.0,1.0,579.1110611787809,364.8130998575596,,-431.83319091796875,34.95699691772461,-0.020122375339269638,0.14691053330898285,1.3884671926498413,0.022070972248911858,160.7671978489617
67,21:31:32:683,-0.016919124871492386,0.0,1.0,579.1110611787809,364.8130998575596,,-431.83319091796875,34.95699691772461,-0.020122375339269638,0.14691053330898285,1.3884671926498413,0.022070972248911858,160.7671978489617
68,21:31:32:723,-0.016919124871492386,0.0,1.0,579.1110828119814,364.8124423645383,,-431.61480712890625,34.96035385131836,-0.02013854868710041,0.15038709342479706,1.286049246788025,0.051796164363622665,160.76719936841957
69,21:31:32:738,-0.024976162239909172,0.0,1.0,578.8334544366222,364.5345376929137,,-431.5555419921875,34.96104431152344,-0.020147932693362236,0.1513911336660385,1.250961422920227,0.056040212512016296,160.48953456216924
70,21:31:32:763,-0.027896922081708908,0.0,1.0,578.7531406366209,364.45415435759986,,-431.4752197265625,34.96183776855469,-0.020146675407886505,0.15277083218097687,1.1997795104980469,0.06034393608570099,160.40921289419106
71,21:31:32:793,-0.03343644365668297,0.0,1.0,578.6114355656259,364.3122308791927,,-431.33349609375,34.9627685546875,-0.020206069573760033,0.15523652732372284,1.0962682962417603,0.0663737878203392,160.2674964414208
72,21:31:32:818,-0.03343644365668297,0.0,1.0,578.5426284205712,364.24337445084086,,-431.2646789550781,34.96302795410156,-0.020221557468175888,0.15642498433589935,1.0411620140075684,0.06853077560663223,160.1986855342522
73,21:31:32:863,-0.03786822035908699,0.0,1.0,578.4009284026068,364.1014849424637,,-431.1229553222656,34.963138580322266,-0.020206069573760033,0.158863365650177,0.9168018102645874,0.0729006826877594,160.05698041037573
74,21:31:32:889,-0.03786822035908699,0.0,1.0,578.4009284026068,364.1014849424637,,-431.1229553222656,34.963138580322266,-0.020206069573760033,0.158863365650177,0.9168018102645874,0.0729006826877594,160.05698041037573
75,21:31:32:912,-0.0455235131084919,0.0,1.0,578.1488436517809,363.84882509686514,,-430.8708190917969,34.96170425415039,-0.02015766128897667,0.1524907946586609,0.6533775329589844,0.08175720274448395,159.8048977833029
76,21:31:32:950,-0.04743742570281029,0.0,1.0,578.0736662145546,363.77339532047046,,-430.7122802734375,34.959869384765625,-0.020013580098748207,0.13125573098659515,0.4711456894874573,0.08374273031949997,159.72972333186706
77,21:31:33:011,-0.049149904400110245,0.0,1.0,577.7771697173997,363.4765189842855,,-430.4990539550781,34.95627975463867,-0.019876861944794655,0.10765060782432556,0.21115808188915253,0.08490154892206192,159.43325389821916
78,21:31:33:054,-0.05005652457475662,0.0,1.0,577.6499507544347,363.34916929764563,,-430.2532653808594,34.95061492919922,-0.020103873685002327,0.1359822303056717,-0.1050414890050888,0.08985143154859543,159.30605090419863
79,21:31:33:087,-0.05005652457475662,0.0,1.0,577.4108371908231,363.1096248292074,,-430.1325988769531,34.94732666015625,-0.020237427204847336,0.15631569921970367,-0.26287841796875,0.09190767258405685,159.0669739228927
80,21:31:33:116,-0.05005652457475662,0.0,1.0,577.3086711485106,363.0074007876333,,-430.0303955078125,34.94430160522461,-0.020324286073446274,0.1731589436531067,-0.3969420790672302,0.09335031360387802,158.96482688969903
81,21:31:33:144,-0.05005652457475662,0.0,1.0,577.1289606731428,362.8275095293955,,-429.8506164550781,34.9384651184082,-0.020475348457694054,0.1997215449810028,-0.6327514052391052,0.09543263912200928,158.78515377626863
82,21:31:33:176,-0.05005652457475662,0.0,1.0,576.9372638904998,362.6356140751568,,-429.6588439941406,34.931495666503906,-0.02056102640926838,0.22413264214992523,-0.8835448026657104,0.097630076110363,158.5935034559825
83,21:31:33:201,-0.05005652457475662,0.0,1.0,576.9372638904998,362.6356140751568,,-429.6588439941406,34.931495666503906,-0.02056102640926838,0.22413264214992523,-0.8835448026657104,0.097630076110363,158.5935034559825
84,21:31:33:231,-0.05005652457475662,0.0,1.0,576.9372638904998,362.6356140751568,,-429.6588439941406,34.931495666503906,-0.02056102640926838,0.22413264214992523,-0.8835448026657104,0.097630076110363,158.5935034559825
85,21:31:33:250,-0.05005652457475662,0.0,1.0,576.6177613740894,362.31560551517526,,-429.3392028808594,34.91826248168945,-0.020635336637496948,0.24898770451545715,-1.2991334199905396,0.10117864608764648,158.2740909599533
86,21:31:33:275,-0.05005652457475662,0.0,1.0,576.4109472439109,362.10860550210145,,-429.1322937011719,34.90861511230469,-0.02067520096898079,0.25755277276039124,-1.56634521484375,0.10389170050621033,158.06734475464302
87,21:31:33:301,-0.05005652457475662,0.0,1.0,576.297171319606,361.9947798681351,,-429.0184631347656,34.9029426574707,-0.020693091675639153,0.26052388548851013,-1.712768316268921,0.10554440319538116,157.95360943150337
88,21:31:33:327,-0.05005652457475662,0.0,1.0,576.1855933529638,361.8831574517224,,-428.9068298339844,34.89714050292969,-0.020708007737994194,0.26253196597099304,-1.8559569120407104,0.10724394768476486,157.84207332524667
89,21:31:33:354,-0.05005652457475662,0.0,1.0,575.96308286448,361.6604656509413,,-428.6842041015625,34.88483428955078,-0.020730476826429367,0.2644649147987366,-2.14056396484375,0.11092209815979004,157.61965258222216
90,21:31:33:380,-0.05005652457475662,0.0,1.0,575.96308286448,361.6604656509413,,-428.6842041015625,34.88483428955078,-0.020730476826429367,0.2644649147987366,-2.14056396484375,0.11092209815979004,157.61965258222216
91,21:31:33:420,-0.05005652457475662,0.0,1.0,575.5750565517611,361.27190753103116,,-428.29595947265625,34.8610725402832,-0.020750198513269424,0.2639116644859314,-2.634155750274658,0.1179143488407135,157.2318028073542
92,21:31:33:448,-0.04965358227491379,0.0,1.0,575.4649833982372,361.16180564917755,,-428.1858215332031,34.85379409790039,-0.020752714946866035,0.263235479593277,-2.773346185684204,0.11996423453092575,157.12178514261055
93,21:31:33:474,-0.04854549467563629,0.0,1.0,575.2087321767747,360.9053634139244,,-427.9294128417969,34.83598709106445,-0.02075382135808468,0.26120007038116455,-3.093811273574829,0.12393239140510559,156.86567109029687
94,21:31:33:501,-0.04230016469955444,0.0,1.0,575.0814325075762,360.7780258689791,,-427.8020324707031,34.826744079589844,-0.020752638578414917,0.26003894209861755,-3.2477118968963623,0.12422400712966919,156.73844375365476
95,21:31:33:529,-0.03565231338143349,0.0,1.0,574.8409272285934,360.5373679802809,,-427.5613708496094,34.80886459350586,-0.020748823881149292,0.2578464448451996,-3.5166027545928955,0.11890494078397751,156.49807992887685
96,21:31:33:552,-0.03565231338143349,0.0,1.0,574.8409272285934,360.5373679802809,,-427.5613708496094,34.80886459350586,-0.020748823881149292,0.2578464448451996,-3.5166027545928955,0.11890494078397751,156.49807992887685
97,21:31:33:579,-0.03565231338143349,0.0,1.0,574.8409272285934,360.5373679802809,,-427.5613708496094,34.80886459350586,-0.020748823881149292,0.2578464448451996,-3.5166027545928955,0.11890494078397751,156.49807992887685
98,21:31:33:604,-0.018832644447684288,0.0,1.0,574.3846861341888,360.0805686873721,,-427.1048278808594,34.774478912353516,-0.020736578851938248,0.25383713841438293,-3.9041149616241455,0.08756320923566818,156.04211692543723
99,21:31:33:633,-0.013394254259765148,0.0,1.0,574.113201698493,359.80870791883996,,-426.8331604003906,34.753684997558594,-0.02072708122432232,0.25161731243133545,-4.073244094848633,0.07023342698812485,155.77080484847795
100,21:31:33:667,-0.007351699285209179,0.0,1.0,573.8412589017247,359.53660638818684,,-426.56103515625,34.73273468017578,-0.020662840455770493,0.24145400524139404,-4.202546119689941,0.053075194358825684,155.49903980619985
101,21:31:33:674,-0.007351699285209179,0.0,1.0,573.8412589017247,359.53660638818684,,-426.56103515625,34.73273468017578,-0.020662840455770493,0.24145400524139404,-4.202546119689941,0.053075194358825684,155.49903980619985
102,21:31:33:721,-0.006445322185754776,0.0,1.0,573.5834980226488,359.2787053260591,,-426.3031005859375,34.71277618408203,-0.020472411066293716,0.21284234523773193,-4.295228481292725,0.03934840112924576,155.2414518196072
103,21:31:33:750,-0.006445322185754776,0.0,1.0,573.5834980226488,359.2787053260591,,-426.3031005859375,34.71277618408203,-0.020472411066293716,0.21284234523773193,-4.295228481292725,0.03934840112924576,155.2414518196072
104,21:31:33:777,-0.0063446140848100185,0.0,1.0,573.1035413438318,358.7979011933283,,-425.72027587890625,34.667015075683594,-0.020111121237277985,0.15908876061439514,-4.444246292114258,0.02400498278439045,154.76182833736306
105,21:31:33:803,-0.0063446140848100185,0.0,1.0,572.8260586234808,358.5204166765683,,-425.5451354980469,34.65304946899414,-0.02014877274632454,0.16464853286743164,-4.480440139770508,0.022727197036147118,154.4845450703489
106,21:31:33:837,-0.002316284691914916,0.0,1.0,572.5449199690692,358.239142055235,,-425.2637939453125,34.630489349365234,-0.02026985213160515,0.18258461356163025,-4.530642032623291,0.020625459030270576,154.20361305494805
107,21:31:33:864,-0.0003021240117959678,0.0,1.0,572.3937234000635,358.0879222829488,,-425.11248779296875,34.61836242675781,-0.020344123244285583,0.1935812085866928,-4.551362991333008,0.018373703584074974,154.05252907486638
108,21:31:33:890,-0.0003021240117959678,0.0,1.0,572.2345986001038,357.92877075940584,,-424.9532470703125,34.605594635009766,-0.02042056992650032,0.20488516986370087,-4.568880081176758,0.015721004456281662,153.89352394370957
109,21:31:33:917,-0.0003021240117959678,0.0,1.0,572.2345986001038,357.92877075940584,,-424.9532470703125,34.605594635009766,-0.02042056992650032,0.20488516986370087,-4.568880081176758,0.015721004456281662,153.89352394370957
110,21:31:33:922,-0.0003021240117959678,0.0,1.0,572.2345986001038,357.92877075940584,,-424.9532470703125,34.605594635009766,-0.02042056992650032,0.20488516986370087,-4.568880081176758,0.015721004456281662,153.89352394370957
111,21:31:33:950,0.011883607134222984,0.0,1.0,571.72635937079,357.42007923571447,,-424.44464111328125,34.565738677978516,-0.02061496675014496,0.23364709317684174,-4.556428909301758,-0.006500243674963713,153.3856660433604
112,21:31:33:978,0.01994047872722149,0.0,1.0,571.4067922405247,357.10018181134006,,-424.1248474121094,34.5413932800293,-0.020695839077234268,0.24558626115322113,-4.504181861877441,-0.0222778283059597,153.0663381702292
113,21:31:34:003,0.01994047872722149,0.0,1.0,571.2390920405647,356.93246194895426,,-423.95703125,34.528926849365234,-0.020728416740894318,0.25038787722587585,-4.461976528167725,-0.0317077562212944,152.89876271661038
114,21:31:34:053,0.02537902258336544,0.0,1.0,570.9379070580544,356.6310751807081,,-423.45892333984375,34.49334716796875,-0.020785292610526085,0.2587343752384186,-4.279695510864258,-0.060180652886629105,152.5977985330311
115,21:31:34:079,0.027997639030218124,0.0,1.0,570.7413221858084,356.43456451881775,,-423.45892333984375,34.49334716796875,-0.020785292610526085,0.2587343752384186,-4.279695510864258,-0.060180652886629105,152.40135586572254
116,21:31:34:104,0.027997639030218124,0.0,1.0,570.7413221858084,356.43456451881775,,-423.45892333984375,34.49334716796875,-0.020785292610526085,0.2587343752384186,-4.279695510864258,-0.060180652886629105,152.40135586572254
117,21:31:34:129,0.028601940721273422,0.0,1.0,570.0363312037932,355.7288670209317,,-422.75347900390625,34.44681167602539,-0.020802916958928108,0.26130253076553345,-3.9148263931274414,-0.09317014366388321,151.69685738613998
118,21:31:34:153,0.028601940721273422,0.0,1.0,569.8449210155742,355.537446118442,,-422.56195068359375,34.434932708740234,-0.020800361409783363,0.2609063684940338,-3.8037126064300537,-0.0994872972369194,151.5055764374745
119,21:31:34:180,0.028199072927236557,0.0,1.0,569.6596992743602,355.35220930061627,,-422.3766174316406,34.42377471923828,-0.02079547755420208,0.26016873121261597,-3.6932380199432373,-0.105072021484375,151.32047757200354
120,21:31:34:208,0.025983314961194992,0.0,1.0,569.3106934905653,355.00310230766246,,-422.02740478515625,34.40351104736328,-0.020783614367246628,0.25836554169654846,-3.482178211212158,-0.11245724558830261,150.971698089236
121,21:31:34:245,0.025983314961194992,0.0,1.0,569.3106934905653,355.00310230766246,,-422.02740478515625,34.40351104736328,-0.020783614367246628,0.25836554169654846,-3.482178211212158,-0.11245724558830261,150.971698089236
122,21:31:34:272,0.022559018805623055,0.0,1.0,568.6766536114959,354.3686026979059,,-421.39300537109375,34.369083404541016,-0.020754432305693626,0.25400790572166443,-3.114868402481079,-0.1164245530962944,150.33805342419907
123,21:31:34:280,0.022559018805623055,0.0,1.0,568.6766536114959,354.3686026979059,,-421.39300537109375,34.369083404541016,-0.020754432305693626,0.25400790572166443,-3.114868402481079,-0.1164245530962944,150.33805342419907
124,21:31:34:327,0.021249745041131973,0.0,1.0,568.151271257763,353.84294450136764,,-420.8673400878906,34.34290313720703,-0.02072780579328537,0.25007370114326477,-2.829559564590454,-0.11737060546875,149.81298154122766
125,21:31:34:355,0.011480769142508507,0.0,1.0,567.9714644364147,353.6631354096646,,-420.68743896484375,34.3343391418457,-0.020718879997730255,0.24874182045459747,-2.740081548690796,-0.11563108116388321,149.63327828080924
126,21:31:34:383,0.007049573585391045,0.0,1.0,567.7678349159798,353.45939171307344,,-420.48370361328125,34.324764251708984,-0.02070869319140911,0.24724599719047546,-2.649994373321533,-0.1106262132525444,149.4297656163147
127,21:31:34:408,0.007049573585391045,0.0,1.0,567.7678349159798,353.45939171307344,,-420.48370361328125,34.324764251708984,-0.02070869319140911,0.24724599719047546,-2.649994373321533,-0.1106262132525444,149.4297656163147
128,21:31:34:433,-0.0005035400390625,0.0,1.0,567.0894761543971,352.7805827972833,,-419.80499267578125,34.2933349609375,-0.020650595426559448,0.23857849836349487,-2.446258783340454,-0.0811767652630806,148.7517977391118
129,21:31:34:460,0.0,0.0,1.0,566.7345222823247,352.4255485063433,,-419.4498596191406,34.277313232421875,-0.020499954000115395,0.21627792716026306,-2.381592035293579,-0.0678710788488388,148.39704890140095
130,21:31:34:486,0.0006042480817995965,0.0,1.0,566.5440960793995,352.235119035701,,-419.25933837890625,34.26885986328125,-0.020388107746839523,0.1997215449810028,-2.354339838027954,-0.0623474046587944,148.20673245552496
131,21:31:34:514,0.0016113283345475793,0.0,1.0,566.1433544097746,351.8342663516792,,-418.8583984375,34.251426696777344,-0.020159073173999786,0.165891632437706,-2.307037353515625,-0.0546264611184597,147.8062201686874
132,21:31:34:540,0.0016113283345475793,0.0,1.0,566.1433544097746,351.8342663516792,,-418.8583984375,34.251426696777344,-0.020159073173999786,0.165891632437706,-2.307037353515625,-0.0546264611184597,147.8062201686874
133,21:31:34:566,0.0016113283345475793,0.0,1.0,566.1433544097746,351.8342663516792,,-418.8583984375,34.251426696777344,-0.020159073173999786,0.165891632437706,-2.307037353515625,-0.0546264611184597,147.8062201686874
134,21:31:34:591,0.0016113283345475793,0.0,1.0,565.2948044140712,350.98502580400725,,-418.0094299316406,34.21587371826172,-0.020170019939541817,0.16774260997772217,-2.239013671875,-0.045501708984375,146.95814867762374
135,21:31:34:618,0.0016113283345475793,0.0,1.0,565.0660959122998,350.7563184943314,,-417.7806091308594,34.206546783447266,-0.02022373117506504,0.17573392391204834,-2.22540283203125,-0.0436706580221653,146.72956843955726
136,21:31:34:649,0.0016113283345475793,0.0,1.0,564.6840189276022,350.3741686522781,,-417.3983459472656,34.1911735534668,-0.02032032050192356,0.19002951681613922,-2.205475330352783,-0.0407409705221653,146.34770570748833
137,21:31:34:673,0.0016113283345475793,0.0,1.0,564.4459451518683,350.13609640604284,,-417.16015625,34.18170166015625,-0.02037353441119194,0.19793203473091125,-2.194366455078125,-0.0390319861471653,146.10976563016217
138,21:31:34:699,0.0016113283345475793,0.0,1.0,564.4459451518683,350.13609640604284,,-417.16015625,34.18170166015625,-0.02037353441119194,0.19793203473091125,-2.194366455078125,-0.0390319861471653,146.10976563016217
139,21:31:34:730,0.0016113283345475793,0.0,1.0,563.6978619345817,349.387586364544,,-416.4117126464844,34.152427673339844,-0.02050151862204075,0.21680384874343872,-2.163757562637329,-0.0339050255715847,145.36210445348732
140,21:31:34:748,0.0016113283345475793,0.0,1.0,563.5382097320322,349.22795213853965,,-416.2519836425781,34.146263122558594,-0.020519370213150978,0.21941982209682465,-2.157806396484375,-0.032928466796875,145.20254281532777
141,21:31:34:781,0.0016113283345475793,0.0,1.0,563.2892136123988,348.9788997847132,,-415.8076477050781,34.12922668457031,-0.02055538073182106,0.2246858924627304,-2.142547607421875,-0.02993774227797985,144.95368847321183
142,21:31:34:807,0.00010070800635730848,0.0,1.0,562.8881292405439,348.5778145399255,,-415.6015930175781,34.12137222290039,-0.020566023886203766,0.2262226790189743,-2.136993169784546,-0.028167719021439552,144.55283412365793
143,21:31:34:832,0.00010070800635730848,0.0,1.0,562.8881292405439,348.5778145399255,,-415.6015930175781,34.12137222290039,-0.020566023886203766,0.2262226790189743,-2.136993169784546,-0.028167719021439552,144.55283412365793
144,21:31:34:857,0.00010070800635730848,0.0,1.0,562.8881292405439,348.5778145399255,,-415.6015930175781,34.12137222290039,-0.020566023886203766,0.2262226790189743,-2.136993169784546,-0.028167719021439552,144.55283412365793
145,21:31:34:882,-0.004733280278742313,0.0,1.0,561.908316703925,347.59729350363693,,-414.6213073730469,34.083621978759766,-0.020576629787683487,0.22769799828529358,-2.15240478515625,-0.01126098446547985,143.5736014355888
146,21:31:34:912,-0.004733280278742313,0.0,1.0,561.6637452099391,347.3527270253983,,-414.3766174316406,34.07411193847656,-0.02057235687971115,0.22701498866081238,-2.1646728515625,-0.007110595703125,143.32917917927637
147,21:31:34:937,-0.004733280278742313,0.0,1.0,561.2226168632586,346.91152989189095,,-413.9352722167969,34.05686569213867,-0.020560378208756447,0.22522547841072083,-2.192047357559204,-0.0008239742019213736,142.88832423346435
148,21:31:34:965,-0.004733280278742313,0.0,1.0,560.9857340152475,346.67465747014523,,-413.6982727050781,34.047550201416016,-0.020552100613713264,0.224009707570076,-2.20904541015625,0.0021201849449425936,142.65159074736295
149,21:31:34:990,-0.004733280278742313,0.0,1.0,560.9857340152475,346.67465747014523,,-413.6982727050781,34.047550201416016,-0.020552100613713264,0.224009707570076,-2.20904541015625,0.0021201849449425936,142.65159074736295
150,21:31:35:016,-0.004531863611191511,0.0,1.0,560.7054171581037,346.3943485896663,,-413.4178161621094,34.036476135253906,-0.020542144775390625,0.22249339520931244,-2.230530023574829,0.0050675817765295506,142.37145282638372
151,21:31:35:041,-0.004431155510246754,0.0,1.0,559.9603387497051,345.64890311192704,,-412.67236328125,34.0067138671875,-0.020511550828814507,0.2179376631975174,-2.292999505996704,0.011733384802937508,141.62686313984884
152,21:31:35:081,-0.0038269064389169216,0.0,1.0,559.4858181707825,345.17431428101094,,-412.1976013183594,33.98749542236328,-0.020491065457463264,0.21491189301013947,-2.33428955078125,0.014882870949804783,141.1526642908522
153,21:31:35:121,-0.0016113283345475793,0.0,1.0,559.2324078827388,344.92091790542395,,-411.9440612792969,33.9771728515625,-0.020480269566178322,0.21330679953098297,-2.354888916015625,0.015703795477747917,140.8994288453744
154,21:31:35:151,0.00674744788557291,0.0,1.0,558.4370696170662,344.12526348720314,,-411.1483154296875,33.9451789855957,-0.02044837921857834,0.20856665074825287,-2.37615966796875,0.005273392423987389,140.1046433839179
155,21:31:35:175,0.00674744788557291,0.0,1.0,558.4370691641877,344.1251755231922,,-410.8851013183594,33.934757232666016,-0.020437926054000854,0.20702984929084778,-2.368194818496704,-0.00021362323604989797,140.1046429941634
156,21:31:35:213,0.010272257030010223,0.0,1.0,557.687876857811,343.37602979887816,,-410.39874267578125,33.91573715209961,-0.020420074462890625,0.20440706610679626,-2.335357427597046,-0.010437010787427425,139.35597547452974
157,21:31:35:239,0.01722125895321369,0.0,1.0,557.4448346319796,343.13301007948314,,-410.15557861328125,33.90641784667969,-0.020411528646945953,0.20315714180469513,-2.308075428009033,-0.01678466796875,139.11310302260986
158,21:31:35:267,0.020141903311014175,0.0,1.0,557.1680255432344,342.85622565917583,,-409.8786315917969,33.89601516723633,-0.0204024501144886,0.2018047571182251,-2.265960931777954,-0.025299072265625,138.8364857990009
159,21:31:35:292,0.020141903311014175,0.0,1.0,557.1680255432344,342.85622565917583,,-409.8786315917969,33.89601516723633,-0.0204024501144886,0.2018047571182251,-2.265960931777954,-0.025299072265625,138.8364857990009
160,21:31:35:325,0.021249745041131973,0.0,1.0,556.3240098674103,342.0118891532054,,-409.0342102050781,33.86595916748047,-0.020375670865178108,0.19787739217281342,-2.068756341934204,-0.0552673302590847,137.99304168951795
161,21:31:35:351,0.021249745041131973,0.0,1.0,555.8348875159604,341.52272320369116,,-408.54486083984375,33.84968948364258,-0.02036178484559059,0.19585566222667694,-1.9206541776657104,-0.0704040378332138,137.5042403086445
162,21:31:35:383,0.021249745041131973,0.0,1.0,555.3707724430905,341.0585802698939,,-408.0805358886719,33.8350944519043,-0.020350074395537376,0.19412079453468323,-1.764373779296875,-0.0828246995806694,137.04042141652303
163,21:31:35:409,0.021249745041131973,0.0,1.0,555.063382085862,340.7512126781917,,-407.77301025390625,33.82590866088867,-0.020342903211712837,0.1930757761001587,-1.654418706893921,-0.0902404710650444,136.7332222029675
164,21:31:35:433,0.021249745041131973,0.0,1.0,555.063382085862,340.7512126781917,,-407.77301025390625,33.82590866088867,-0.020342903211712837,0.1930757761001587,-1.654418706893921,-0.0902404710650444,136.7332222029675
165,21:31:35:458,0.021249745041131973,0.0,1.0,555.063382085862,340.7512126781917,,-407.77301025390625,33.82590866088867,-0.020342903211712837,0.1930757761001587,-1.654418706893921,-0.0902404710650444,136.7332222029675
166,21:31:35:483,0.021249745041131973,0.0,1.0,553.9295103136116,339.617104952021,,-406.638671875,33.79583740234375,-0.02031967043876648,0.18964701890945435,-1.217803716659546,-0.1158447116613388,135.60001141540837
167,21:31:35:523,0.021249745041131973,0.0,1.0,553.4623408495954,339.14991451845,,-406.17132568359375,33.78532791137695,-0.020311469212174416,0.1884312480688095,-1.0284422636032104,-0.125762939453125,135.1330909407563
168,21:31:35:542,0.021249745041131973,0.0,1.0,553.1549876842325,338.8425867314942,,-405.8638610839844,33.77903747558594,-0.020306434482336044,0.18770042061805725,-0.9019773602485657,-0.1319885104894638,134.8258933786122
169,21:31:35:566,0.021249745041131973,0.0,1.0,553.1549876842325,338.8425867314942,,-405.8638610839844,33.77903747558594,-0.020306434482336044,0.18770042061805725,-0.9019773602485657,-0.1319885104894638,134.8258933786122
170,21:31:35:606,0.02084689401090145,0.0,1.0,552.2124601513074,337.899705881498,,-404.9210205078125,33.76308822631836,-0.0202927403151989,0.18566502630710602,-0.5094909071922302,-0.1504516452550888,133.88379735359706
171,21:31:35:635,0.016314858570694923,0.0,1.0,551.6631847370012,337.3503717352308,,-404.37158203125,33.75607681274414,-0.020285949110984802,0.18465416133403778,-0.2852782905101776,-0.1582031100988388,133.3347411980425
172,21:31:35:662,0.016314858570694923,0.0,1.0,551.3615118397279,337.0487248162991,,-404.06982421875,33.75288391113281,-0.02028270624577999,0.18417604267597198,-0.1662902683019638,-0.16104121506214142,133.03317917348394
173,21:31:35:696,0.005538946948945522,0.0,1.0,550.8317431005617,336.51891126097956,,-403.5399169921875,33.74827194213867,-0.02027793787419796,0.18341106176376343,0.023167675361037254,-0.160552978515625,132.50359099905734
174,21:31:35:722,0.005538946948945522,0.0,1.0,550.8317431005617,336.51891126097956,,-403.5399169921875,33.74827194213867,-0.02027793787419796,0.18341106176376343,0.023167675361037254,-0.160552978515625,132.50359099905734
175,21:31:35:749,0.005538946948945522,0.0,1.0,550.8317431005617,336.51891126097956,,-403.5399169921875,33.74827194213867,-0.02027793787419796,0.18341106176376343,0.023167675361037254,-0.160552978515625,132.50359099905734
176,21:31:35:773,0.001913452404551208,0.0,1.0,549.6200848381634,335.3070050614721,,-402.3279724121094,33.74152374267578,-0.020268935710191727,0.18204502761363983,0.3326326608657837,-0.1424560397863388,131.29229103752735
177,21:31:35:801,0.001913452404551208,0.0,1.0,549.3288557528052,335.01579678776454,,-402.03668212890625,33.74072265625,-0.020267104730010033,0.18175815045833588,0.3863788843154907,-0.13836669921875,131.0011359458773
178,21:31:35:827,0.001913452404551208,0.0,1.0,548.7859957145838,334.4729060762647,,-401.49371337890625,33.7400016784668,-0.02026386186480522,0.18128004670143127,0.472117155790329,-0.13226318359375,130.4584021274799
179,21:31:35:855,0.001913452404551208,0.0,1.0,548.7859957145838,334.4729060762647,,-401.49371337890625,33.7400016784668,-0.02026386186480522,0.18128004670143127,0.472117155790329,-0.13226318359375,130.4584021274799
180,21:31:35:880,0.001913452404551208,0.0,1.0,548.7859957145838,334.4729060762647,,-401.49371337890625,33.7400016784668,-0.02026386186480522,0.18128004670143127,0.472117155790329,-0.13226318359375,130.4584021274799
181,21:31:35:903,0.001712036319077015,0.0,1.0,547.7283510250106,333.414839393628,,-400.4358825683594,33.74138641357422,-0.020258255302906036,0.18043993413448334,0.5949416160583496,-0.1218871995806694,129.40096084624165
182,21:31:35:931,0.0013092041481286287,0.0,1.0,547.1783280902811,332.8645633982079,,-399.8857727050781,33.74335479736328,-0.020255660638213158,0.18008476495742798,0.6419872045516968,-0.1167602464556694,128.8510244291697
183,21:31:35:970,-0.002316284691914916,0.0,1.0,546.6323868089784,332.3185820115377,,-399.3397521972656,33.746002197265625,-0.020253639668226242,0.17974324524402618,0.6760259866714478,-0.10964963585138321,128.30515844914464
184,21:31:36:014,-0.0028198249638080597,0.0,1.0,546.1320594625723,331.81823665152797,,-398.83935546875,33.74886703491211,-0.020245742052793503,0.1785821169614792,0.6944474577903748,-0.1013183668255806,127.80489351378156
185,21:31:36:062,-0.0028198249638080597,0.0,1.0,545.1479002554543,330.8337473736271,,-397.8550720214844,33.75558090209961,-0.02006889320909977,0.1523815095424652,0.7037976384162903,-0.0843200609087944,126.82084195072532
186,21:31:36:114,-0.003121949266642332,0.0,1.0,544.2917082832939,329.9773415100149,,-396.998779296875,33.76228332519531,-0.019866179674863815,0.12243113666772842,0.6915077567100525,-0.070343017578125,125.96473137812539
187,21:31:36:142,-0.003121949266642332,0.0,1.0,543.9215425937736,329.60719246191934,,-396.6285705566406,33.76537322998047,-0.019850386306643486,0.12014301866292953,0.6811948418617249,-0.0643310546875,125.59459789348608
188,21:31:36:168,-0.003121949266642332,0.0,1.0,543.2891998387778,328.9747830997854,,-395.99615478515625,33.770835876464844,-0.0198918916285038,0.1263653188943863,0.6581113934516907,-0.0542602464556694,124.96230754132499
189,21:31:36:197,-0.003121949266642332,0.0,1.0,542.9184240039721,328.6040266494974,,-395.6253356933594,33.774112701416016,-0.019934043288230896,0.13262178003787994,0.642020583152771,-0.0487060509622097,124.5915615959843
190,21:31:36:226,-0.003121949266642332,0.0,1.0,542.5665052148377,328.2521328325384,,-395.27337646484375,33.77725601196289,-0.019977224990725517,0.13903532922267914,0.6253819465637207,-0.0435791015625,124.23967100510097
191,21:31:36:252,-0.003121949266642332,0.0,1.0,542.2779941762672,327.9636493210169,,-394.9848327636719,33.77984619140625,-0.020013580098748207,0.14439702033996582,0.6108652949333191,-0.039337158203125,123.95118316752418
192,21:31:36:277,-0.003121949266642332,0.0,1.0,542.2779941762672,327.9636493210169,,-394.9848327636719,33.77984619140625,-0.020013580098748207,0.14439702033996582,0.6108652949333191,-0.039337158203125,123.95118316752418
193,21:31:36:300,-0.003121949266642332,0.0,1.0,541.2888497997509,326.97421742547766,,-393.9955749511719,33.788734436035156,-0.020116614177823067,0.15964199602603912,0.5568264126777649,-0.02593994326889515,122.9621203036707
194,21:31:36:328,-0.003121949266642332,0.0,1.0,540.7029796214381,326.3883114327433,,-393.4096374511719,33.79391860961914,-0.020159149542450905,0.1659257709980011,0.5226460099220276,-0.0185546837747097,122.37630147704186
195,21:31:36:353,-0.003121949266642332,0.0,1.0,540.3664098594294,326.0517641055272,,-393.0730285644531,33.79684829711914,-0.020177917554974556,0.16866467893123627,0.5025125741958618,-0.014465331099927425,122.0397626465699
196,21:31:36:403,-0.003121949266642332,0.0,1.0,539.7880792539763,325.4734052322071,,-392.49462890625,33.801780700683594,-0.020199889317154884,0.171888530254364,0.46734175086021423,-0.008056639693677425,121.46148798484003
197,21:31:36:436,-0.003121949266642332,0.0,1.0,539.7880792539763,325.4734052322071,,-392.49462890625,33.801780700683594,-0.020199889317154884,0.171888530254364,0.46734175086021423,-0.008056639693677425,121.46148798484003
198,21:31:36:462,-0.003121949266642332,0.0,1.0,538.4173701955687,324.10207660528795,,-391.1237487792969,33.81278991699219,-0.020337142050266266,0.16761283576488495,0.382277250289917,0.0031054774299263954,120.090928492965
199,21:31:36:486,-0.003121949266642332,0.0,1.0,538.0965499263757,323.7812875752109,,-390.8028869628906,33.815189361572266,-0.020394515246152878,0.16455291211605072,0.3621920645236969,0.005853867623955011,119.77014747179494
200,21:31:36:512,-0.003121949266642332,0.0,1.0,537.787966963764,323.4727377395596,,-390.4942626953125,33.81743240356445,-0.020455703139305115,0.1612471044063568,0.34284090995788574,0.008378212340176105,119.46160383162749
201,21:31:36:539,-0.003121949266642332,0.0,1.0,537.4564384942713,323.1411349735304,,-390.1626892089844,33.81976318359375,-0.02052631415426731,0.1574016958475113,0.3220349848270416,0.011021160520613194,119.1301195092355
202,21:31:36:564,-0.003121949266642332,0.0,1.0,537.4564384942713,323.1411349735304,,-390.1626892089844,33.81976318359375,-0.02052631415426731,0.1574016958475113,0.3220349848270416,0.011021160520613194,119.1301195092355
203,21:31:36:591,-0.003121949266642332,0.0,1.0,536.3137799769222,321.998131836596,,-389.0198669433594,33.827171325683594,-0.020854605361819267,0.14674660563468933,0.25034627318382263,0.018157687038183212,117.98762812143048
204,21:31:36:617,-0.003121949266642332,0.0,1.0,535.6848476847557,321.3691846728563,,-388.3908386230469,33.83079528808594,-0.02110298164188862,0.14394623041152954,0.21097120642662048,0.021703241392970085,117.35879874043589
205,21:31:36:641,-0.003121949266642332,0.0,1.0,535.3782545436362,321.0626311501804,,-388.0841979980469,33.83243179321289,-0.0212333295494318,0.14295585453510284,0.19182118773460388,0.023426972329616547,117.05225893625342
206,21:31:36:671,-0.003121949266642332,0.0,1.0,534.7232073559463,320.4075548866984,,-387.4290466308594,33.835689544677734,-0.021504973992705345,0.14255286753177643,0.15099909901618958,0.023155082017183304,116.39733196426425
207,21:31:36:696,-0.003121949266642332,0.0,1.0,534.7232073559463,320.4075548866984,,-387.4290466308594,33.835689544677734,-0.021504973992705345,0.14255286753177643,0.15099909901618958,0.023155082017183304,116.39733196426425
208,21:31:36:723,-0.003121949266642332,0.0,1.0,534.7232073559463,320.4075548866984,,-387.4290466308594,33.835689544677734,-0.021504973992705345,0.14255286753177643,0.15099909901618958,0.023155082017183304,116.39733196426425
209,21:31:36:747,-0.003121949266642332,0.0,1.0,533.5415472646189,319.22555512075843,,-386.2471923828125,33.8405647277832,-0.02174701727926731,0.15706701576709747,0.07741378247737885,0.020554902032017708,115.21591516618847
210,21:31:36:773,-0.003121949266642332,0.0,1.0,532.9540616255545,318.6378877045063,,-385.65960693359375,33.842445373535156,-0.021804045885801315,0.16583015024662018,0.04090414568781853,0.027044368907809258,114.62856448641732
211,21:31:36:799,-0.003121949266642332,0.0,1.0,532.6154064253028,318.2992723328184,,-385.3208923339844,33.843387603759766,-0.021839065477252007,0.17016732692718506,0.01993134617805481,0.029535237699747086,114.28999089107917
212,21:31:36:826,-0.003121949266642332,0.0,1.0,531.9124374081246,317.59627594303856,,-384.6177978515625,33.845062255859375,-0.021854247897863388,0.17412883043289185,-0.02325439266860485,0.028322909027338028,113.58719945585707
213,21:31:36:851,-0.003121949266642332,0.0,1.0,531.9124374081246,317.59627594303856,,-384.6177978515625,33.845062255859375,-0.021854247897863388,0.17412883043289185,-0.02325439266860485,0.028322909027338028,113.58719945585707
214,21:31:36:881,-0.003121949266642332,0.0,1.0,531.9124374081246,317.59627594303856,,-384.6177978515625,33.845062255859375,-0.021854247897863388,0.17412883043289185,-0.02325439266860485,0.028322909027338028,113.58719945585707
215,21:31:36:903,-0.0027191168628633022,0.0,1.0,530.7375115812314,316.4210527089885,,-383.4426574707031,33.846763610839844,-0.02166702225804329,0.16641071438789368,-0.09283445030450821,0.03215174749493599,112.41260107326534
216,21:31:36:938,-0.002517700893804431,0.0,1.0,530.1111052017251,315.7944354985608,,-382.8161315917969,33.84714889526367,-0.021574974060058594,0.16264045238494873,-0.1286315619945526,0.03448038548231125,111.78638401959674
217,21:31:36:965,-0.002517700893804431,0.0,1.0,529.4402794570901,315.1236079336098,,-382.1451721191406,33.84717559814453,-0.0215030275285244,0.15990154445171356,-0.16583251953125,0.035815637558698654,111.1157723060411
218,21:31:37:000,-0.002517700893804431,0.0,1.0,529.4402794570901,315.1236079336098,,-382.1451721191406,33.84717559814453,-0.0215030275285244,0.15990154445171356,-0.16583251953125,0.035815637558698654,111.1157723060411
219,21:31:37:026,-0.002517700893804431,0.0,1.0,529.4402794570901,315.1236079336098,,-382.1451721191406,33.84717559814453,-0.0215030275285244,0.15990154445171356,-0.16583251953125,0.035815637558698654,111.1157723060411
220,21:31:37:053,-0.002517700893804431,0.0,1.0,527.7309191382122,313.41396673490175,,-380.4354553222656,33.84539031982422,-0.02139759063720703,0.15578295290470123,-0.2563475966453552,0.03760301321744919,109.40701317291273
221,21:31:37:087,-0.002517700893804431,0.0,1.0,527.284850668383,312.96794680651186,,-379.9892883300781,33.84450149536133,-0.021383056417107582,0.1551135927438736,-0.27923583984375,0.03789009526371956,108.96111495284984
222,21:31:37:116,-0.002517700893804431,0.0,1.0,526.5859713977688,312.2690632495371,,-379.2902526855469,33.84273910522461,-0.02136669121682644,0.15425299108028412,-0.3146056830883026,0.038282349705696106,108.26251422851395
223,21:31:37:140,-0.002517700893804431,0.0,1.0,526.2120946584475,311.8952363689011,,-378.9162902832031,33.84162139892578,-0.021360281854867935,0.15385682880878448,-0.3333129584789276,0.03845953568816185,107.88879237922511
224,21:31:37:167,-0.002517700893804431,0.0,1.0,525.8561901191034,311.5393841688857,,-378.560302734375,33.8404426574707,-0.021355552598834038,0.15351532399654388,-0.3510131239891052,0.03860616683959961,107.53303916634931
225,21:31:37:195,-0.002517700893804431,0.0,1.0,525.4780138813489,311.1612593543898,,-378.1820373535156,33.83906555175781,-0.021351661533117294,0.15318746864795685,-0.369720458984375,0.0387454517185688,107.15502794620231
226,21:31:37:221,-0.002517700893804431,0.0,1.0,525.4780138813489,311.1612593543898,,-378.1820373535156,33.83906555175781,-0.021351661533117294,0.15318746864795685,-0.369720458984375,0.0387454517185688,107.15502794620231
227,21:31:37:245,-0.002517700893804431,0.0,1.0,524.2361599724292,309.9195309546232,,-376.93988037109375,33.833709716796875,-0.021344337612390518,0.15227222442626953,-0.43048095703125,0.03908511996269226,105.91374603778401
228,21:31:37:270,-0.002517700893804431,0.0,1.0,523.9271553218838,309.61159098777836,,-376.63079833984375,33.83217239379883,-0.021343115717172623,0.1520809829235077,-0.4454650580883026,0.039148855954408646,105.60489119796532
229,21:31:37:303,-0.002517700893804431,0.0,1.0,523.1360661976836,308.8248361338594,,-375.8395080566406,33.82786560058594,-0.021341552957892418,0.1516301929950714,-0.4836425185203552,0.03928868845105171,104.81419951483662
230,21:31:37:330,-0.002517700893804431,0.0,1.0,522.4528343512496,308.1437229058653,,-375.1560974121094,33.82373046875,-0.021336745470762253,0.1515345722436905,-0.5164183378219604,0.03856668621301651,104.13132722484164
231,21:31:37:357,-0.002517700893804431,0.0,1.0,522.0462955246257,307.73773329606206,,-374.74945068359375,33.82110595703125,-0.021300505846738815,0.15370656549930573,-0.5359190702438354,0.0360688641667366,103.72500941157905
232,21:31:37:383,-0.002517700893804431,0.0,1.0,522.0462955246257,307.73773329606206,,-374.74945068359375,33.82110595703125,-0.021300505846738815,0.15370656549930573,-0.5359190702438354,0.0360688641667366,103.72500941157905
233,21:31:37:414,-0.002316284691914916,0.0,1.0,520.767950983504,306.45961072807,,-373.47076416015625,33.81190872192383,-0.020962180569767952,0.1718612164258957,-0.5966489315032959,0.033284034579992294,102.4473981420537
234,21:31:37:439,-0.002316284691914916,0.0,1.0,520.3718201682152,306.06342512179117,,-373.07452392578125,33.80875778198242,-0.0208269115537405,0.17804935574531555,-0.6151426434516907,0.03658827394247055,102.05150692938683
235,21:31:37:466,-0.0016113283345475793,0.0,1.0,519.9616254363668,305.653153814149,,-372.6642150878906,33.80537414550781,-0.020693397149443626,0.18285781145095825,-0.6336669325828552,0.040507204830646515,101.64156579699139
236,21:31:37:493,-0.0015106202336028218,0.0,1.0,519.2807251297497,304.97213029664323,,-371.9831237792969,33.79952621459961,-0.020449180155992508,0.18264608085155487,-0.6624755859375,0.04212363436818123,100.96109825693169
237,21:31:37:533,-0.001007080078125,0.0,1.0,518.5209333158916,304.2122505628114,,-371.2231140136719,33.79263687133789,-0.0201374813914299,0.17330238223075867,-0.6914061903953552,0.04184534400701523,100.20180805158523
238,21:31:37:553,-0.001007080078125,0.0,1.0,518.5209333158916,304.2122505628114,,-371.2231140136719,33.79263687133789,-0.0201374813914299,0.17330238223075867,-0.6914061903953552,0.04184534400701523,100.20180805158523
239,21:31:37:578,-0.001007080078125,0.0,1.0,518.5209333158916,304.2122505628114,,-371.2231140136719,33.79263687133789,-0.0201374813914299,0.17330238223075867,-0.6914061903953552,0.04184534400701523,100.20180805158523
240,21:31:37:624,0.0,0.0,1.0,516.9050783575784,302.59637812901883,,-369.6067810058594,33.77676010131836,-0.019641607999801636,0.15233370661735535,-0.74053955078125,0.043931085616350174,98.58708506033857
241,21:31:37:651,0.0013092041481286287,0.0,1.0,516.072296701793,301.7636910731891,,-368.77374267578125,33.76803970336914,-0.019561652094125748,0.14853611588478088,-0.7581176161766052,0.04209071397781372,97.75491966734812
242,21:31:37:703,0.002517700893804431,0.0,1.0,514.9578383342865,300.64946689676873,,-367.658935546875,33.755985260009766,-0.01955135352909565,0.14687637984752655,-0.76751708984375,0.036404792219400406,96.64131983824844
243,21:31:37:712,0.002517700893804431,0.0,1.0,514.9578383342865,300.64946689676873,,-367.658935546875,33.755985260009766,-0.01955135352909565,0.14687637984752655,-0.76751708984375,0.036404792219400406,96.64131983824844
244,21:31:37:756,0.002517700893804431,0.0,1.0,514.9578383342865,300.64946689676873,,-367.658935546875,33.755985260009766,-0.01955135352909565,0.14687637984752655,-0.76751708984375,0.036404792219400406,96.64131983824844
245,21:31:37:800,0.002920533064752817,0.0,1.0,513.2866213786899,298.9787010656812,,-365.9871826171875,33.73740768432617,-0.01961399056017399,0.146999329328537,-0.7486876845359802,0.02570297382771969,94.97145411032545
246,21:31:37:826,0.002920533064752817,0.0,1.0,512.4744446804082,298.1667851628175,,-365.17474365234375,33.7282600402832,-0.019651489332318306,0.1473408341407776,-0.7284545302391052,0.02063055709004402,94.15996105716829
247,21:31:37:924,0.002920533064752817,0.0,1.0,511.73344405617286,297.42596807681315,,-363.0876770019531,33.704830169677734,-0.01962657831609249,0.15377487242221832,-0.6554259657859802,0.007367248181253672,93.41959984811558
248,21:31:37:971,0.002920533064752817,0.0,1.0,509.66907868594774,295.3624594124914,,-362.36846923828125,33.69690704345703,-0.01956794783473015,0.1576066017150879,-0.625335693359375,0.003095045918598771,91.35708124514937
249,21:31:37:999,0.002920533064752817,0.0,1.0,508.92606151339663,294.61973533454204,,-361.6252136230469,33.68885803222656,-0.019469184800982475,0.16040697693824768,-0.5924071669578552,-0.001556396484375,90.61475037082378
250,21:31:38:076,0.002920533064752817,0.0,1.0,507.14140742371444,292.835797803265,,-359.8399963378906,33.67031478881836,-0.018895531073212624,0.17565196752548218,-0.5080260038375854,-0.01199340634047985,88.83178492450685
251,21:31:38:101,0.002920533064752817,0.0,1.0,506.7898295136643,292.4843690634894,,-359.4883117675781,33.666778564453125,-0.018586540594697,0.18923038244247437,-0.490692138671875,-0.00836181640625,88.48054730215432
252,21:31:38:152,0.002920533064752817,0.0,1.0,505.6460266441937,291.3410321574607,,-358.34417724609375,33.655330657958984,-0.01675846055150032,0.2745872437953949,-0.4326171875,0.05825866386294365,87.33787560825138
253,21:31:38:168,0.002920533064752817,0.0,1.0,505.1790514032917,290.8742461465762,,-357.8770751953125,33.65097427368164,-0.015661582350730896,0.3201582729816437,-0.4084166884422302,0.07485263049602509,86.87136421354259
254,21:31:38:225,0.002920533064752817,0.0,1.0,505.1790514032917,290.8742461465762,,-357.8770751953125,33.65097427368164,-0.015661582350730896,0.3201582729816437,-0.4084166884422302,0.07485263049602509,86.87136421354259
255,21:31:38:251,0.0026184087619185448,0.0,1.0,503.39040501904213,289.0862693928976,,-356.0880126953125,33.63630294799805,-0.008813819848001003,0.45642736554145813,-0.3164977729320526,0.039755359292030334,85.08449467801155
256,21:31:38:277,0.0013092041481286287,0.0,1.0,502.9677918430466,288.66381183723223,,-355.6653137207031,33.63311767578125,-0.0066636656410992146,0.4699374735355377,-0.2963256239891052,0.030889175832271576,84.66230638544874
257,21:31:38:373,-0.0022155765909701586,0.0,1.0,500.7854759260181,286.4822759946114,,-353.4825744628906,33.61767578125,0.005302200093865395,0.4479033052921295,-0.238433837890625,-0.01483154296875,82.48223526636266
258,21:31:38:421,-0.0060424888506531715,0.0,1.0,499.57797690598824,285.27522714951033,,-352.27484130859375,33.60948944091797,0.011773528531193733,0.4245440363883972,-0.2433471381664276,-0.02359008602797985,81.27602845497917
259,21:31:38:447,-0.0063446140848100185,0.0,0.0,499.1732730492693,284.87067886534896,,-351.87005615234375,33.60670852661133,0.013839454390108585,0.4195716679096222,-0.2530517578125,-0.022003173828125,80.87176902875004
260,21:31:38:544,-0.0063446140848100185,0.0,0.0,496.8335845019264,282.531906089056,,-349.5298767089844,33.59020233154297,0.025106048211455345,0.39854833483695984,-0.37054443359375,-0.00537109375,78.53477126137336
261,21:31:38:556,-0.0063446140848100185,0.0,0.0,496.8335845019264,282.531906089056,,-349.5298767089844,33.59020233154297,0.025106048211455345,0.39854833483695984,-0.37054443359375,-0.00537109375,78.53477126137336
262,21:31:38:603,-0.0063446140848100185,0.0,0.0,495.5541420747787,281.25297700421595,,-348.2501525878906,33.580509185791016,0.031020011752843857,0.37906181812286377,-0.467498779296875,0.0052688829600811005,77.25690501555755
263,21:31:38:628,-0.0063446140848100185,0.0,0.0,495.1398679642664,280.83887408387864,,-347.8357849121094,33.577205657958984,0.032922860234975815,0.370530903339386,-0.502532958984375,0.008811883628368378,76.84316004938368
264,21:31:38:703,-0.0057403636164963245,0.0,0.0,494.2905464761466,279.9898866438471,,-346.0252990722656,33.561527252197266,0.04119174927473068,0.32515114545822144,-0.6687317490577698,0.024168625473976135,75.99495631848964
265,21:31:38:727,-0.0057403636164963245,0.0,0.0,492.92978857132897,278.629710745812,,-345.62518310546875,33.5577392578125,0.04301467910408974,0.31381985545158386,-0.7074279189109802,0.027650928124785423,74.63609087526257
266,21:31:38:765,-0.0013092041481286287,0.0,0.0,492.12374527575287,277.82401317206444,,-344.8189392089844,33.5497932434082,0.04668117314577103,0.29087725281715393,-0.78143310546875,0.032468874007463455,73.83123022853954
267,21:31:38:794,0.0,0.0,0.0,491.3244501166858,277.02506485061474,,-344.0194396972656,33.541526794433594,0.05030429735779762,0.26924604177474976,-0.8463440537452698,0.03496481478214264,73.03315307967182
268,21:31:38:880,0.0,0.0,0.0,489.40879291923693,275.11024930331365,,-342.103271484375,33.5198974609375,0.05895889177918434,0.2209702730178833,-0.9639585018157959,0.039147522300481796,71.1206197567101
269,21:31:38:887,0.0,0.0,0.0,489.40879291923693,275.11024930331365,,-342.103271484375,33.5198974609375,0.05895889177918434,0.2209702730178833,-0.9639585018157959,0.039147522300481796,71.1206197567101
270,21:31:38:956,0.0,0.0,1.0,487.7729390286254,273.47511680454585,,-340.46697998046875,33.499210357666016,0.06773608922958374,0.27395203709602356,-1.0333555936813354,0.03999394550919533,69.48768341872227
271,21:31:39:004,0.0,0.0,1.0,487.2720912674861,272.9744871777224,,-339.96600341796875,33.492454528808594,0.07098449766635895,0.31978943943977356,-1.0504456758499146,0.04069235548377037,68.98777835562484
272,21:31:39:078,0.0,0.0,1.0,485.1428095395988,270.8460893361516,,-337.8362121582031,33.461578369140625,0.08802642673254013,0.4689471125602722,-1.1026002168655396,0.040856000036001205,66.86277661228807
