tick,time,steerCmd,brakeCmd,throttleCmd,distance1,distance2,distanc3,Location_X,Location_Y,Location_Z,Rotation_Pitch,Rotation_Yaw,Rotation_Roll,distance3
0,21:30:44:901,0.0,0.6212635636329651,0.6212635636329651,162.82127615831865,366.9189832049108,,-433.8999938964844,34.900001525878906,0.5543292760848999,0.0,0.0,0.0,581.1885353227706
1,21:30:44:931,0.0,0.6212635636329651,0.6212635636329651,162.8221460531509,366.9222130963286,,-433.8999938964844,34.900001525878906,0.4594678282737732,0.0,0.0,0.0,581.1900847823562
2,21:30:44:958,0.0,0.6212635636329651,0.6212635636329651,162.82308205191902,366.9255046446166,,-433.8999938964844,34.900001525878906,0.3635272979736328,0.0,0.0,0.0,581.1916676117609
3,21:30:44:987,0.0,0.6212635636329651,0.6212635636329651,162.82308205191902,366.9255046446166,,-433.8999938964844,34.900001525878906,0.3635272979736328,0.0,0.0,0.0,581.1916676117609
4,21:30:45:017,0.0,0.6212635636329651,0.6212635636329651,162.82745515791888,366.93910384650525,,-433.8999938964844,34.900001525878906,-0.02537582255899906,0.0,0.0,0.0,581.1982459157858
5,21:30:45:046,0.0,0.6212635636329651,0.6212635636329651,162.8281263810817,366.9414335324526,,-433.8997497558594,34.90000915527344,-0.09767978638410568,0.032757584005594254,-1.628444341178481e-12,-0.0489196702837944,581.1992534713391
6,21:30:45:082,0.0,0.6212635636329651,0.6212635636329651,162.8276291074561,366.940756910857,,-433.89935302734375,34.89997863769531,-0.08982311189174652,0.09638762474060059,-0.00021362303232308477,-0.1376952975988388,581.1987205571845
7,21:30:45:112,0.0,0.6212635636329651,0.6212635636329651,162.82746930894666,366.9404744186275,,-433.8992614746094,34.89994430541992,-0.0844615176320076,0.10909177362918854,-0.00027465817402116954,-0.1536559909582138,581.198536184134
8,21:30:45:165,0.0,0.6212635636329651,0.6212635636329651,162.82725854998048,366.9399929718648,,-433.8992004394531,34.89986801147461,-0.07265105843544006,0.11240441352128983,-0.00030517575214616954,-0.155029296875,581.1982708400373
9,21:30:45:173,0.0,0.6212635636329651,0.6212635636329651,162.82725440789332,366.93981519147826,,-433.8992919921875,34.89983367919922,-0.06508426368236542,0.10594988614320755,-0.00027465823222883046,-0.1448058933019638,581.1982315061344
10,21:30:45:217,0.0,0.6212635636329651,0.6212635636329651,162.82723865574874,366.93954800923655,,-433.8994140625,34.89978790283203,-0.05414115637540817,0.09036339819431305,-0.00018310546875,-0.12243649363517761,581.1981644394081
11,21:30:45:242,0.0,0.6212635636329651,0.6212635636329651,162.82723865574874,366.93954800923655,,-433.8994140625,34.89978790283203,-0.05414115637540817,0.09036339819431305,-0.00018310546875,-0.12243649363517761,581.1981644394081
12,21:30:45:255,0.0,0.6212635636329651,0.6212635636329651,162.82721890744097,366.9394362932694,,-433.8994445800781,34.899776458740234,-0.050140950828790665,0.08334196358919144,-0.000152587890625,-0.1127624437212944,581.1981258389105
13,21:30:45:274,0.0,0.6212635636329651,0.6212635636329651,162.82726165557972,366.9392215086877,,-433.8996276855469,34.89976119995117,-0.03894897550344467,0.06088430434465408,-9.155274165095761e-05,-0.0825195387005806,581.1981155853754
14,21:30:45:308,0.0,0.6212635636329651,0.6212635636329651,162.82730969147727,366.9391329682701,,-433.8997497558594,34.89975357055664,-0.033021505922079086,0.047524452209472656,-6.103514533606358e-05,-0.0648498460650444,581.1981353295099
15,21:30:45:321,0.0,0.6212635636329651,0.6212635636329651,162.82730969147727,366.9391329682701,,-433.8997497558594,34.89975357055664,-0.033021505922079086,0.047524452209472656,-6.103514533606358e-05,-0.0648498460650444,581.1981353295099
16,21:30:45:348,0.0,0.6212635636329651,0.6212635636329651,162.82734323589196,366.93905932965816,,-433.89984130859375,34.89975357055664,-0.02837146632373333,0.03626830130815506,-3.051757266803179e-05,-0.050079334527254105,581.1981466133371
17,21:30:45:373,0.0,0.6212635636329651,0.6212635636329651,162.82734323589196,366.93905932965816,,-433.89984130859375,34.89975357055664,-0.02837146632373333,0.03626830130815506,-3.051757266803179e-05,-0.050079334527254105,581.1981466133371
18,21:30:45:398,0.0,0.6212635636329651,0.6212635636329651,162.82734323589196,366.93905932965816,,-433.89984130859375,34.89975357055664,-0.02837146632373333,0.03626830130815506,-3.051757266803179e-05,-0.050079334527254105,581.1981466133371
19,21:30:45:417,0.0,0.6212635636329651,0.6212635636329651,162.82739752018156,366.93898820036895,,-433.89996337890625,34.89976119995117,-0.022932585328817368,0.021829282864928246,-3.0517576306010596e-05,-0.0311279259622097,581.1981747938939
20,21:30:45:444,0.0,0.6212635636329651,0.6212635636329651,162.8274047469456,366.9389521523824,,-433.8999938964844,34.89976119995117,-0.021057434380054474,0.016296830028295517,0.0,-0.023773193359375,581.1981729718141
21,21:30:45:471,0.0,0.6212635636329651,0.6212635636329651,162.82741843910264,366.93893467118556,,-433.9000244140625,34.89976501464844,-0.0197060015052557,0.01180256623774767,0.0,-0.01776122860610485,581.1981801600273
22,21:30:45:513,0.0,0.6212635636329651,0.6212635636329651,162.82744285400815,366.93894772489665,,-433.9000549316406,34.89976501464844,-0.019214361906051636,0.009951584972441196,0.0,-0.015228272415697575,581.1982021969204
23,21:30:45:521,0.0,0.6212635636329651,0.6212635636329651,162.82744285400815,366.93894772489665,,-433.9000549316406,34.89976501464844,-0.019214361906051636,0.009951584972441196,0.0,-0.015228272415697575,581.1982021969204
24,21:30:45:544,0.0,0.6212635636329651,0.6212635636329651,162.82744285400815,366.93894772489665,,-433.9000549316406,34.89976501464844,-0.019214361906051636,0.009951584972441196,0.0,-0.015228272415697575,581.1982021969204
25,21:30:45:569,0.0,0.6212635636329651,0.6212635636329651,162.82749042684782,366.9389703462275,,-433.9001159667969,34.8997688293457,-0.01813346892595291,0.004617207683622837,0.0,-0.007781981956213713,581.1982445650901
26,21:30:45:595,0.0,0.6212635636329651,0.6212635636329651,162.82748964862444,366.9389681185993,,-433.9001159667969,34.8997688293457,-0.018070679157972336,0.0037497736047953367,0.0,-0.006530761253088713,581.1982434827842
27,21:30:45:621,0.0,0.6212635636329651,0.6212635636329651,162.82748913091498,366.9389666366476,,-433.9001159667969,34.8997688293457,-0.018028907477855682,0.002568150870501995,0.0,-0.0047607421875,581.1982427627704
28,21:30:45:647,0.0,0.6212635636329651,0.6212635636329651,162.82748913091498,366.9389666366476,,-433.9001159667969,34.8997688293457,-0.018028907477855682,0.002568150870501995,0.0,-0.0047607421875,581.1982427627704
29,21:30:45:669,0.0,0.6212635636329651,0.6212635636329651,162.82748913091498,366.9389666366476,,-433.9001159667969,34.8997688293457,-0.018028907477855682,0.002568150870501995,0.0,-0.0047607421875,581.1982427627704
30,21:30:45:694,0.0,0.6212635636329651,0.6212635636329651,162.82749182732624,366.93897447747224,,-433.9001159667969,34.89977264404297,-0.018250618129968643,0.001017698086798191,0.0,-0.0023193357046693563,581.1982465601202
31,21:30:45:733,0.0,0.6212635636329651,0.6212635636329651,162.8274938761867,366.93898046424965,,-433.9001159667969,34.899776458740234,-0.018420066684484482,0.0006147170206531882,0.0,-0.0016174315242096782,581.1982494566829
32,21:30:45:758,0.0,0.6212635636329651,0.6212635636329651,162.82749462381176,366.9389826039797,,-433.9001159667969,34.899776458740234,-0.01848037727177143,0.0004781132156495005,0.0,-0.001373291015625,581.1982504962914
33,21:30:45:782,0.0,0.6212635636329651,0.6212635636329651,162.8274953799644,366.93898464549125,,-433.9001159667969,34.89977264404297,-0.018537215888500214,0.0003756603691726923,0.0,-0.0011596678523346782,581.1982515003436
34,21:30:45:808,0.0,0.6212635636329651,0.6212635636329651,162.8274953799644,366.93898464549125,,-433.9001159667969,34.89977264404297,-0.018537215888500214,0.0003756603691726923,0.0,-0.0011596678523346782,581.1982515003436
35,21:30:45:833,0.0,0.6212635636329651,0.6212635636329651,162.82752683869006,366.9390178513465,,-433.900146484375,34.89977264404297,-0.018613547086715698,0.00027320755179971457,0.0,-0.0009765624417923391,581.1982833285502
36,21:30:45:859,0.0,0.6212635636329651,0.6212635636329651,162.8275284528069,366.9390223480086,,-433.900146484375,34.8997688293457,-0.01873958483338356,0.00013660377589985728,0.0,-0.0007019042386673391,581.1982855254712
37,21:30:45:891,0.0,0.6212635636329651,0.6212635636329651,162.827528607462,366.9390227905824,,-433.900146484375,34.8997688293457,-0.01875205896794796,0.00010245283192489296,0.0,-0.0005798339261673391,581.1982857405013
38,21:30:45:916,0.0,0.6212635636329651,0.6212635636329651,162.82752914048325,366.93902431590226,,-433.900146484375,34.8997688293457,-0.01879505068063736,0.00010245283192489296,0.0,-0.0005798339261673391,581.1982864815982
39,21:30:45:940,0.0,0.6212635636329651,0.6212635636329651,162.82752914048325,366.93902431590226,,-433.900146484375,34.8997688293457,-0.01879505068063736,0.00010245283192489296,0.0,-0.0005798339261673391,581.1982864815982
40,21:30:45:969,0.0,0.6212635636329651,0.6212635636329651,162.8275293646784,366.9390249574619,,-433.900146484375,34.8997688293457,-0.018813133239746094,6.147169915493578e-05,0.0,-0.000457763671875,581.1982867933087
41,21:30:46:005,0.0,0.6212635636329651,0.6212635636329651,162.8275308834043,366.9390291807934,,-433.900146484375,34.89976501464844,-0.018931465223431587,2.7320755179971457e-05,0.0,-0.00033569333027116954,581.1982888574379
42,21:30:46:031,0.0,0.6212635636329651,0.6212635636329651,162.82753126794424,366.9390302811319,,-433.900146484375,34.89976501464844,-0.018962478265166283,0.0,0.0,-0.00024414061044808477,581.198289392054
43,21:30:46:062,0.0,0.6212635636329651,0.6212635636329651,162.82753157209294,366.9390311514255,,-433.900146484375,34.89976501464844,-0.018987007439136505,0.0,0.0,-0.00024414061044808477,581.1982898148998
44,21:30:46:087,0.0,0.6212635636329651,0.6212635636329651,162.82753232937435,366.93903331827806,,-433.900146484375,34.89976501464844,-0.01904807984828949,0.0,0.0,-0.00024414061044808477,581.1982908676997
45,21:30:46:113,0.0,0.6212635636329651,0.6212635636329651,162.82753232937435,366.93903331827806,,-433.900146484375,34.89976501464844,-0.01904807984828949,0.0,0.0,-0.00024414061044808477,581.1982908676997
46,21:30:46:131,0.0,0.6212635636329651,0.6212635636329651,162.82753232937435,366.93903331827806,,-433.900146484375,34.89976501464844,-0.01904807984828949,0.0,0.0,-0.00024414061044808477,581.1982908676997
47,21:30:46:154,0.0,0.6212635636329651,0.6212635636329651,162.8275332040135,366.9390358208639,,-433.900146484375,34.89976501464844,-0.019118614494800568,-3.415094397496432e-05,0.0,-0.00012207030522404239,581.198292083623
48,21:30:46:186,0.0,0.6212635636329651,0.6212635636329651,162.82753298026944,366.939035180677,,-433.900146484375,34.89976501464844,-0.019100571051239967,-3.415094397496432e-05,0.0,-0.00012207030522404239,581.1982917725772
49,21:30:46:213,0.0,0.6212635636329651,0.6212635636329651,162.82753323995314,366.9390359236957,,-433.900146484375,34.89976501464844,-0.01912151277065277,-3.415094397496432e-05,0.0,-0.00012207030522404239,581.1982921335855
50,21:30:46:239,0.0,0.6212635636329651,0.6212635636329651,162.82753314583107,366.9390356543902,,-433.900146484375,34.89976501464844,-0.019113922491669655,-3.415094397496432e-05,0.0,-0.00012207030522404239,581.1982920027388
51,21:30:46:265,0.0,0.6212635636329651,0.6212635636329651,162.82753337761454,366.9390363175761,,-433.900146484375,34.89976501464844,-0.019132614135742188,-3.415094397496432e-05,0.0,-0.00012207030522404239,581.1982923249591
52,21:30:46:292,0.0,0.6212635636329651,0.6212635636329651,162.82753337761454,366.9390363175761,,-433.900146484375,34.89976501464844,-0.019132614135742188,-3.415094397496432e-05,0.0,-0.00012207030522404239,581.1982923249591
53,21:30:46:329,0.0,0.6212635636329651,0.6212635636329651,162.82753307769383,366.93903545943283,,-433.900146484375,34.89976501464844,-0.019108427688479424,-3.415094397496432e-05,0.0,-0.00012207030522404239,581.1982919080154
54,21:30:46:371,0.0,0.6212635636329651,0.6212635636329651,162.82753335821258,366.93903626206276,,-433.900146484375,34.89976501464844,-0.019131049513816833,-3.415094397496432e-05,0.0,-0.00012207030522404239,581.198292297987
55,21:30:46:403,0.0,0.6212635636329651,0.6212635636329651,162.82753334874255,366.9390362349669,,-433.900146484375,34.89976501464844,-0.01913028582930565,-3.415094397496432e-05,0.0,-0.00012207030522404239,581.198292284822
56,21:30:46:418,0.0,0.6212635636329651,0.6212635636329651,162.82753334874255,366.9390362349669,,-433.900146484375,34.89976501464844,-0.01913028582930565,-3.415094397496432e-05,0.0,-0.00012207030522404239,581.198292284822
57,21:30:46:460,0.0,0.6212635636329651,0.6212635636329651,162.8275339017511,366.9390378172324,,-433.900146484375,34.89976501464844,-0.019174881279468536,-6.147169915493578e-05,0.0,-3.0517576306010596e-05,581.1982930535934
58,21:30:46:481,0.0,0.6212635636329651,0.6212635636329651,162.82753375935172,366.93903740980284,,-433.900146484375,34.89976501464844,-0.019163398072123528,-6.147169915493578e-05,0.0,-3.0517576306010596e-05,581.1982928556365
59,21:30:46:508,0.0,0.6212635636329651,0.6212635636329651,162.82753382795278,366.93903760608276,,-433.900146484375,34.89976501464844,-0.019168930128216743,-6.147169915493578e-05,0.0,-3.0517576306010596e-05,581.1982929510026
60,21:30:46:533,0.0,0.6212635636329651,0.6212635636329651,162.82753378963318,366.9390374964436,,-433.900146484375,34.89976501464844,-0.01916583999991417,-6.147169915493578e-05,0.0,-3.0517576306010596e-05,581.1982928977324
61,21:30:46:557,0.0,0.6212635636329651,0.6212635636329651,162.82753393200963,366.9390379038071,,-433.900146484375,34.89976501464844,-0.01917732134461403,-6.147169915493578e-05,0.0,-3.0517576306010596e-05,581.1982930956573
62,21:30:46:583,0.0,0.6212635636329651,0.6212635636329651,162.82753373523747,366.9390373408075,,-433.900146484375,34.89976501464844,-0.01916145347058773,-6.147169915493578e-05,0.0,-3.0517576306010596e-05,581.1982928221139
63,21:30:46:605,0.0,0.6212635636329651,0.6212635636329651,162.82753373523747,366.9390373408075,,-433.900146484375,34.89976501464844,-0.01916145347058773,-6.147169915493578e-05,0.0,-3.0517576306010596e-05,581.1982928221139
64,21:30:46:629,0.0,0.6212635636329651,0.6212635636329651,162.8275337744809,366.9390374530902,,-433.900146484375,34.89976501464844,-0.019164618104696274,-6.147169915493578e-05,0.0,-3.0517576306010596e-05,581.1982928766685
65,21:30:46:644,0.0,0.6212635636329651,0.6212635636329651,162.82753361933226,366.93903700918065,,-433.900146484375,34.89976501464844,-0.01915210671722889,-6.147169915493578e-05,0.0,-3.0517576306010596e-05,581.1982926609871
66,21:30:46:683,0.0,0.6212635636329651,0.6212635636329651,162.82753357251298,366.9390368752214,,-433.900146484375,34.89976501464844,-0.0191483311355114,-6.147169915493578e-05,0.0,-3.0517576306010596e-05,581.1982925959007
67,21:30:46:709,0.0,0.6212635636329651,0.6212635636329651,162.8275331623688,366.9390357017086,,-433.900146484375,34.89976501464844,-0.019115256145596504,-6.147169915493578e-05,0.0,-3.0517576306010596e-05,581.1982920257293
68,21:30:46:734,0.0,0.6212635636329651,0.6212635636329651,162.82753279720131,366.9390346568704,,-433.900146484375,34.89976501464844,-0.019085807725787163,-6.147169915493578e-05,0.0,-3.0517576306010596e-05,581.198291518077
69,21:30:46:759,0.0,0.6212635636329651,0.6212635636329651,162.82753279720131,366.9390346568704,,-433.900146484375,34.89976501464844,-0.019085807725787163,-6.147169915493578e-05,0.0,-3.0517576306010596e-05,581.198291518077
70,21:30:46:777,0.0,0.6212635636329651,0.6212635636329651,162.82753279720131,366.9390346568704,,-433.900146484375,34.89976501464844,-0.019085807725787163,-6.147169915493578e-05,0.0,-3.0517576306010596e-05,581.198291518077
71,21:30:46:799,0.0,0.6212635636329651,0.6212635636329651,162.8275331084595,366.939035547461,,-433.900146484375,34.89976501464844,-0.0191109087318182,-6.147169915493578e-05,0.0,-3.0517576306010596e-05,581.1982919507855
72,21:30:46:824,0.0,0.6212635636329651,0.6212635636329651,162.82753332698462,366.9390361727127,,-433.900146484375,34.89976501464844,-0.019128531217575073,-6.147169915493578e-05,0.0,-3.0517576306010596e-05,581.1982922545747
73,21:30:46:850,-0.0016113283345475793,0.0,0.13204194605350494,162.8275334797755,366.9390366098805,,-433.900146484375,34.89976501464844,-0.019140852615237236,-6.147169915493578e-05,0.0,-3.0517576306010596e-05,581.1982924669802
74,21:30:46:879,-0.0016113283345475793,0.0,0.5780519843101501,162.8275334447825,366.9390365097581,,-433.900146484375,34.89976501464844,-0.01913803070783615,-6.147169915493578e-05,0.0,-3.0517576306010596e-05,581.1982924183341
75,21:30:46:904,-0.0016113283345475793,0.0,0.6174018979072571,162.82698458689464,366.93848859853006,,-433.89959716796875,34.89976501464844,-0.01916755549609661,0.0029574716463685036,-6.103515261202119e-05,1.8885257304646075e-05,581.197743703662
76,21:30:46:930,-0.0016113283345475793,0.0,0.6174018979072571,162.82698458689464,366.93848859853006,,-433.89959716796875,34.89976501464844,-0.01916755549609661,0.0029574716463685036,-6.103515261202119e-05,1.8885257304646075e-05,581.197743703662
77,21:30:46:959,-0.0016113283345475793,0.0,0.6975587606430054,162.81243479500148,366.92395386480536,,-433.8850402832031,34.89974594116211,-0.019521217793226242,0.055085472762584686,-0.0010986329289153218,0.0002821857633534819,581.1831954955903
78,21:30:46:987,-0.0016113283345475793,0.0,0.9155934453010559,162.80517439554424,366.91669963354514,,-433.8777770996094,34.89973831176758,-0.019638823345303535,0.07181260734796524,-0.0015258786734193563,0.0003616848262026906,581.1759356147974
79,21:30:47:013,-0.0016113283345475793,0.0,0.9932669997215271,162.7882424748862,366.8997799009692,,-433.86083984375,34.89971923828125,-0.01981830596923828,0.09823177754878998,-0.0024414060171693563,0.00048802566016092896,581.159004435554
80,21:30:47:043,-0.0016113283345475793,0.0,0.9932669997215271,162.7699060747738,366.88145443266853,,-433.8424987792969,34.89969253540039,-0.019916266202926636,0.11547116935253143,-0.0034179682843387127,0.0005743195652030408,581.1406683282487
81,21:30:47:069,-0.0016113283345475793,0.0,0.9932669997215271,162.75748852556276,366.8690443991214,,-433.830078125,34.899681091308594,-0.019985465332865715,0.12303218990564346,-0.004058836959302425,0.0006152080022729933,581.128251038181
82,21:30:47:094,-0.0016113283345475793,0.0,0.9932669997215271,162.75748852556276,366.8690443991214,,-433.830078125,34.899681091308594,-0.019985465332865715,0.12303218990564346,-0.004058836959302425,0.0006152080022729933,581.128251038181
83,21:30:47:122,-0.0016113283345475793,0.0,0.9932669997215271,162.71318625599145,366.8247652648476,,-433.7857666015625,34.89963150024414,-0.020075568929314613,0.13636471331119537,-0.006286620162427425,0.0006972462288103998,581.0839488705968
84,21:30:47:147,-0.0016113283345475793,0.0,0.9932669997215271,162.69713730707875,366.8087245571832,,-433.76971435546875,34.89961242675781,-0.02010246179997921,0.13824301958084106,-0.007110595703125,0.0007123554823920131,581.067899922042
85,21:30:47:174,-0.0016113283345475793,0.0,0.9932669997215271,162.66464178648027,366.77624379933724,,-433.7372131347656,34.89957046508789,-0.02007453888654709,0.1398344486951828,-0.008697509765625,0.0007333820685744286,581.0354039792204
86,21:30:47:200,-0.0016113283345475793,0.0,0.9932669997215271,162.64703650933095,366.7586471519255,,-433.7196044921875,34.89955139160156,-0.020085640251636505,0.13987544178962708,-0.00958251953125,0.0007404422503896058,581.0177986253958
87,21:30:47:227,-0.0016113283345475793,0.0,0.9932669997215271,162.6130461704562,366.7246728339198,,-433.68560791015625,34.89950942993164,-0.02008083276450634,0.13915826380252838,-0.011230467818677425,0.0007495721220038831,580.983807973601
88,21:30:47:257,-0.0016113283345475793,0.0,0.9932669997215271,162.6130461704562,366.7246728339198,,-433.68560791015625,34.89950942993164,-0.02008083276450634,0.13915826380252838,-0.011230467818677425,0.0007495721220038831,580.983807973601
89,21:30:47:281,-0.0016113283345475793,0.0,0.9932669997215271,162.6130461704562,366.7246728339198,,-433.68560791015625,34.89950942993164,-0.02008083276450634,0.13915826380252838,-0.011230467818677425,0.0007495721220038831,580.983807973601
90,21:30:47:302,-0.0016113283345475793,0.0,0.9932669997215271,162.54454712881332,366.65620659713704,,-433.6170959472656,34.89942169189453,-0.0200943760573864,0.13639886677265167,-0.01458740048110485,0.0007599375676363707,580.9153083847375
91,21:30:47:347,-0.0016113283345475793,0.0,0.9932669997215271,162.4755901196069,366.58728195506467,,-433.5481262207031,34.899330139160156,-0.020080260932445526,0.1334892064332962,-0.017913818359375,0.0007697826949879527,580.8463506597182
92,21:30:47:373,-0.0016113283345475793,0.0,0.9932669997215271,162.43256792542047,366.54427930691145,,-433.5050964355469,34.89927291870117,-0.020043296739459038,0.13187728822231293,-0.01998901180922985,0.0007762523600831628,580.8033278785656
93,21:30:47:398,-0.0016113283345475793,0.0,0.9932669997215271,162.40339820784013,366.5151226263308,,-433.4759216308594,34.89923095703125,-0.020009802654385567,0.130893737077713,-0.02136230282485485,0.0007814732380211353,580.7741576979839
94,21:30:47:429,-0.0016113283345475793,0.0,0.9932669997215271,162.40339820784013,366.5151226263308,,-433.4759216308594,34.89923095703125,-0.020009802654385567,0.130893737077713,-0.02136230282485485,0.0007814732380211353,580.7741576979839
95,21:30:47:436,-0.0016113283345475793,0.0,0.9932669997215271,162.40339820784013,366.5151226263308,,-433.4759216308594,34.89923095703125,-0.020009802654385567,0.130893737077713,-0.02136230282485485,0.0007814732380211353,580.7741576979839
96,21:30:47:488,-0.0016113283345475793,0.0,0.9932669997215271,162.28263268342602,366.39441480661435,,-433.3551330566406,34.8990592956543,-0.02003154717385769,0.12764257192611694,-0.02713012881577015,0.0008086689049378037,580.6533910283459
97,21:30:47:509,-0.0016113283345475793,0.0,0.9932669997215271,162.2238363907367,366.33564619510753,,-433.29632568359375,34.89897155761719,-0.020025214180350304,0.1264677792787552,-0.02993774227797985,0.0008245023200288415,580.5945940576584
98,21:30:47:535,-0.0016113283345475793,0.0,0.9932669997215271,162.19515521829297,366.30697832581365,,-433.26763916015625,34.89892578125,-0.020014304667711258,0.12596917152404785,-0.0312805138528347,0.000832635851111263,580.5659124933222
99,21:30:47:574,-0.0016113283345475793,0.0,0.9932669997215271,162.1301042123212,366.2419582517777,,-433.20257568359375,34.898826599121094,-0.020020866766572,0.12497879564762115,-0.0343627892434597,0.0008525519515387714,580.5008607770221
100,21:30:47:600,-0.0016113283345475793,0.0,0.9932669997215271,162.1301042123212,366.2419582517777,,-433.20257568359375,34.898826599121094,-0.020020866766572,0.12497879564762115,-0.0343627892434597,0.0008525519515387714,580.5008607770221
101,21:30:47:621,-0.0016113283345475793,0.0,0.9932669997215271,162.01605133536214,366.12795921490795,,-433.0885009765625,34.898643493652344,-0.020017623901367188,0.12372203916311264,-0.0397033654153347,0.0008898102096281946,580.3868064995934
102,21:30:47:645,-0.0016113283345475793,0.0,0.9932669997215271,161.97769819941996,366.08962441228266,,-433.0501403808594,34.898582458496094,-0.02002609148621559,0.12344200164079666,-0.04150390625,0.0009030773653648794,580.3484529372829
103,21:30:47:672,-0.0016113283345475793,0.0,0.9932669997215271,161.90932132473765,366.02127938565803,,-432.98175048828125,34.89846420288086,-0.020007628947496414,0.1231209859251976,-0.0447082482278347,0.0009264838299714029,580.2800750670212
104,21:30:47:697,-0.0016113283345475793,0.0,0.9932669997215271,161.87087661629002,365.9828528534241,,-432.94329833984375,34.898399353027344,-0.02000831626355648,0.123052679002285,-0.0465087890625,0.0009406936587765813,580.2416298600443
105,21:30:47:730,-0.0016113283345475793,0.0,0.9932669997215271,161.79398735244345,365.9059998421437,,-432.86639404296875,34.898258209228516,-0.020008619874715805,0.1230868324637413,-0.050109848380088806,0.0009701642557047307,580.1647395033937
106,21:30:47:756,-0.0016113283345475793,0.0,0.9932669997215271,161.79398735244345,365.9059998421437,,-432.86639404296875,34.898258209228516,-0.020008619874715805,0.1230868324637413,-0.050109848380088806,0.0009701642557047307,580.1647395033937
107,21:30:47:785,-0.0016113283345475793,0.0,0.9932669997215271,161.74806696004555,365.8601003349601,,-432.8204650878906,34.89817428588867,-0.019975394010543823,0.12323026359081268,-0.0522460900247097,0.0009897579438984394,580.1188182961205
108,21:30:47:810,-0.0016113283345475793,0.0,0.9932669997215271,161.6162873388825,365.72838252639605,,-432.68865966796875,34.89792251586914,-0.019964026287198067,0.124077208340168,-0.0583801232278347,0.0010474063456058502,579.9870366381476
109,21:30:47:833,-0.0016113283345475793,0.0,0.9932669997215271,161.56862870101276,365.68074699356436,,-432.6409912109375,34.8978271484375,-0.019993476569652557,0.12451434135437012,-0.0606079138815403,0.0010691132629290223,579.9393773848917
110,21:30:47:865,-0.0016113283345475793,0.0,0.9932669997215271,161.4820981519902,365.5942573286458,,-432.554443359375,34.89765167236328,-0.02000121958553791,0.12545691430568695,-0.0646056979894638,0.001108615892007947,579.8528454724685
111,21:30:47:881,-0.0016113283345475793,0.0,0.9932669997215271,161.44453834030125,365.5567149124546,,-432.5168762207031,34.89757537841797,-0.019989319145679474,0.12590770423412323,-0.06634521484375,0.001125822076573968,579.8152849909395
112,21:30:47:906,-0.0016113283345475793,0.0,0.9932669997215271,161.39157017699097,365.5037712110632,,-432.4638977050781,34.897464752197266,-0.019970322027802467,0.12659071385860443,-0.068817138671875,0.0011519162217155099,579.762315846036
113,21:30:47:944,-0.0016113283345475793,0.0,0.9932669997215271,161.39157017699097,365.5037712110632,,-432.4638977050781,34.897464752197266,-0.019970322027802467,0.12659071385860443,-0.068817138671875,0.0011519162217155099,579.762315846036
114,21:30:47:970,-0.0016113283345475793,0.0,0.9932669997215271,161.23413182062663,365.34640794723015,,-432.3064270019531,34.89712142944336,-0.02002059854567051,0.12889249622821808,-0.0760803148150444,0.0012287780409678817,579.604874944193
115,21:30:47:996,-0.0016113283345475793,0.0,0.9932669997215271,161.15733497424915,365.2696476594316,,-432.2296142578125,34.89694595336914,-0.020044058561325073,0.13009460270404816,-0.0796508640050888,0.001268873573280871,579.5280767755478
116,21:30:48:022,-0.0016113283345475793,0.0,0.9932669997215271,161.0580816800614,365.1704410982055,,-432.1303405761719,34.89671325683594,-0.0200534425675869,0.13172702491283417,-0.0842285007238388,0.0013184449635446072,579.428821612972
117,21:30:48:049,-0.0016113283345475793,0.0,0.9932669997215271,161.0014529743193,365.1138394215091,,-432.0736999511719,34.896575927734375,-0.02007579803466797,0.13269007205963135,-0.0868225023150444,0.0013477401807904243,579.3721918801227
118,21:30:48:082,-0.0016113283345475793,0.0,0.9932669997215271,160.90204715312316,365.0144801677802,,-431.9742736816406,34.89633560180664,-0.020076407119631767,0.1344112902879715,-0.0914001390337944,0.0014008472207933664,579.2727840627721
119,21:30:48:118,-0.0016113283345475793,0.0,0.9932669997215271,160.90204715312316,365.0144801677802,,-431.9742736816406,34.89633560180664,-0.020076407119631767,0.1344112902879715,-0.0914001390337944,0.0014008472207933664,579.2727840627721
120,21:30:48:123,-0.0016113283345475793,0.0,0.9932669997215271,160.90204715312316,365.0144801677802,,-431.9742736816406,34.89633560180664,-0.020076407119631767,0.1344112902879715,-0.0914001390337944,0.0014008472207933664,579.2727840627721
121,21:30:48:156,-0.0016113283345475793,0.0,0.9932669997215271,160.662076195736,364.77462104681484,,-431.7342529296875,34.89571762084961,-0.020062483847141266,0.1387074738740921,-0.1024169921875,0.0015290227020159364,579.0328078575342
122,21:30:48:183,-0.0016113283345475793,0.0,0.9932669997215271,160.54845299284662,364.66105144299024,,-431.62060546875,34.895408630371094,-0.02008792757987976,0.14078384637832642,-0.1076354905962944,0.0015910957008600235,578.9191821614678
123,21:30:48:209,-0.0016113283345475793,0.0,0.9932669997215271,160.48550881340486,364.59813718655914,,-431.5576477050781,34.89523696899414,-0.02011188492178917,0.1419518142938614,-0.11053464561700821,0.0016268269391730428,578.8562366325663
124,21:30:48:239,-0.0016113283345475793,0.0,0.9932669997215271,160.42549366376994,364.53815024725094,,-431.49761962890625,34.89506530761719,-0.020123176276683807,0.14305830001831055,-0.11325069516897202,0.0016602142713963985,578.7962200755157
125,21:30:48:265,-0.0016113283345475793,0.0,0.9932669997215271,160.42549366376994,364.53815024725094,,-431.49761962890625,34.89506530761719,-0.020123176276683807,0.14305830001831055,-0.11325069516897202,0.0016602142713963985,578.7962200755157
126,21:30:48:288,-0.0016113283345475793,0.0,0.9932669997215271,160.20618075553952,364.31894024386264,,-431.27825927734375,34.89442443847656,-0.020159300416707993,0.1470949500799179,-0.1232910007238388,0.0017852885648608208,578.5769018369068
127,21:30:48:316,-0.0016113283345475793,0.0,0.9932669997215271,160.0930156173407,364.20582786267926,,-431.1650695800781,34.894081115722656,-0.020166244357824326,0.149178147315979,-0.1284484714269638,0.0018487510969862342,578.4637337609939
128,21:30:48:335,-0.0016113283345475793,0.0,0.9932669997215271,160.03287854604372,364.1457187050671,,-431.10491943359375,34.89389419555664,-0.02016582526266575,0.15026415884494781,-0.13116455078125,0.001883415854535997,578.4035950653271
129,21:30:48:358,-0.0016113283345475793,0.0,0.9932669997215271,159.96297823456862,364.0758512949611,,-431.0350036621094,34.8936767578125,-0.020184898748993874,0.15154822170734406,-0.134368896484375,0.001923439558595419,578.3336929468145
130,21:30:48:383,-0.0016113283345475793,0.0,0.9932669997215271,159.8825514006022,363.9954613447533,,-430.9545593261719,34.89341354370117,-0.02016860991716385,0.1530030518770218,-0.13800048828125,0.001970976823940873,578.2532637450214
131,21:30:48:418,-0.0016113283345475793,0.0,0.9932669997215271,159.8825514006022,363.9954613447533,,-430.9545593261719,34.89341354370117,-0.02016860991716385,0.1530030518770218,-0.13800048828125,0.001970976823940873,578.2532637450214
132,21:30:48:423,-0.0016113283345475793,0.0,0.9932669997215271,159.8825514006022,363.9954613447533,,-430.9545593261719,34.89341354370117,-0.02016860991716385,0.1530030518770218,-0.13800048828125,0.001970976823940873,578.2532637450214
133,21:30:48:452,-0.0016113283345475793,0.0,0.9932669997215271,159.57616230906845,363.68921508517496,,-430.6481018066406,34.892391204833984,-0.02021053247153759,0.15850135684013367,-0.15191650390625,0.0021529793739318848,577.9468658480906
134,21:30:48:480,-0.0016113283345475793,0.0,0.9932669997215271,159.4309614790286,363.54408086966566,,-430.50286865234375,34.891883850097656,-0.020189743489027023,0.15297573804855347,-0.1583556979894638,0.0021947359200567007,577.801660413869
135,21:30:48:518,-0.0016113283345475793,0.0,0.9932669997215271,159.3600844840293,363.4732354217889,,-430.4319763183594,34.891632080078125,-0.020138701424002647,0.14538739621639252,-0.1614379733800888,0.0021901021245867014,577.7307809331946
136,21:30:48:545,-0.0016113283345475793,0.0,0.9932669997215271,159.3600844840293,363.4732354217889,,-430.4319763183594,34.891632080078125,-0.020138701424002647,0.14538739621639252,-0.1614379733800888,0.0021901021245867014,577.7307809331946
137,21:30:48:550,-0.0016113283345475793,0.0,0.9932669997215271,159.3600844840293,363.4732354217889,,-430.4319763183594,34.891632080078125,-0.020138701424002647,0.14538739621639252,-0.1614379733800888,0.0021901021245867014,577.7307809331946
138,21:30:48:578,-0.0016113283345475793,0.0,0.9932669997215271,159.04249584421814,363.1557862863217,,-430.11431884765625,34.89044952392578,-0.01984466426074505,0.10626407712697983,-0.17498779296875,0.002152557484805584,577.4131803122992
139,21:30:48:603,-0.0016113283345475793,0.0,0.9932669997215271,158.95697565310175,363.0703068763058,,-430.0287780761719,34.89011764526367,-0.019907912239432335,0.11125011742115021,-0.1788330078125,0.002221862319856882,577.3276574190486
140,21:30:48:631,-0.0016113283345475793,0.0,0.9932669997215271,158.81870351938403,362.9321006540278,,-429.8904724121094,34.88956832885742,-0.02001251094043255,0.1291588693857193,-0.1851806640625,0.002375643467530608,577.1893807951922
141,21:30:48:656,-0.0016113283345475793,0.0,0.9932669997215271,158.71957629371317,362.833021035547,,-429.79132080078125,34.88916778564453,-0.02010452188551426,0.14538057148456573,-0.1897582858800888,0.0024980087764561176,577.0902503506559
142,21:30:48:680,-0.0016113283345475793,0.0,0.9932669997215271,158.71957629371317,362.833021035547,,-429.79132080078125,34.88916778564453,-0.02010452188551426,0.14538057148456573,-0.1897582858800888,0.0024980087764561176,577.0902503506559
143,21:30:48:704,-0.0016113283345475793,0.0,0.9932669997215271,158.71957629371317,362.833021035547,,-429.79132080078125,34.88916778564453,-0.02010452188551426,0.14538057148456573,-0.1897582858800888,0.0024980087764561176,577.0902503506559
144,21:30:48:729,-0.0016113283345475793,0.0,0.9932669997215271,158.3408875804008,362.4545157009122,,-429.41253662109375,34.887569427490234,-0.020539360120892525,0.20390161871910095,-0.2073974460363388,0.0029579352121800184,576.7115489899917
145,21:30:48:762,-0.0016113283345475793,0.0,0.9932669997215271,158.17942782674075,362.2931303896495,,-429.25103759765625,34.88685989379883,-0.020570525899529457,0.22375015914440155,-0.2148742377758026,0.0031524489168077707,576.5500828120029
146,21:30:48:786,-0.0016113283345475793,0.0,0.9932669997215271,158.07294761258822,362.18669920778933,,-429.14453125,34.88637924194336,-0.02059200219810009,0.23363344371318817,-0.2197875678539276,0.0032657275442034006,576.4435982340262
147,21:30:48:794,-0.0016113283345475793,0.0,0.9932669997215271,158.07294761258822,362.18669920778933,,-429.14453125,34.88637924194336,-0.02059200219810009,0.23363344371318817,-0.2197875678539276,0.0032657275442034006,576.4435982340262
148,21:30:48:818,-0.0016113283345475793,0.0,0.9932669997215271,158.07294761258822,362.18669920778933,,-429.14453125,34.88637924194336,-0.02059200219810009,0.23363344371318817,-0.2197875678539276,0.0032657275442034006,576.4435982340262
149,21:30:48:843,-0.046530831605196,0.0,0.9932669997215271,157.73957362438446,361.85345760026405,,-428.81103515625,34.88201904296875,-0.02065277099609375,0.252860426902771,-0.3734740614891052,0.04997803270816803,576.1101886671754
150,21:30:48:886,-0.0522727444767952,0.0,0.9932669997215271,157.5150184815801,361.62897413726205,,-428.58636474609375,34.87675857543945,-0.0206840131431818,0.25894612073898315,-0.57745361328125,0.08797985315322876,575.8855914696239
151,21:30:48:917,-0.0522727444767952,0.0,0.9932669997215271,157.29365529979128,361.4076710384445,,-428.3648681640625,34.87020492553711,-0.020706024020910263,0.2615484297275543,-0.8199463486671448,0.11478950083255768,575.6641758744694
152,21:30:48:943,-0.055496443063020706,0.0,0.9932669997215271,157.17791841702297,361.2919615139168,,-428.2490539550781,34.86626052856445,-0.020714454352855682,0.26202651858329773,-0.9579771757125854,0.12560082972049713,575.5484073702321
153,21:30:48:975,-0.05670535936951637,0.0,0.9932669997215271,156.93657979929898,361.05067125471896,,-428.0075378417969,34.85694122314453,-0.020726317539811134,0.2617259919643402,-1.2640382051467896,0.14268898963928223,575.3069937302695
154,21:30:49:004,-0.05670535936951637,0.0,0.9932669997215271,156.93657979929898,361.05067125471896,,-428.0075378417969,34.85694122314453,-0.020726317539811134,0.2617259919643402,-1.2640382051467896,0.14268898963928223,575.3069937302695
155,21:30:49:026,-0.05670535936951637,0.0,0.9932669997215271,156.93657979929898,361.05067125471896,,-428.0075378417969,34.85694122314453,-0.020726317539811134,0.2617259919643402,-1.2640382051467896,0.14268898963928223,575.3069937302695
156,21:30:49:057,-0.05670535936951637,0.0,0.9932669997215271,156.4445772242691,360.55873135068725,,-427.5151062011719,34.833518981933594,-0.020732231438159943,0.2581879794597626,-1.929351806640625,0.16191324591636658,574.8148003918635
157,21:30:49:099,-0.05670535936951637,0.0,0.9932669997215271,156.19967592826598,360.3138436911865,,-427.26995849609375,34.81976318359375,-0.020728453993797302,0.2557905614376068,-2.268982410430908,0.16698798537254333,574.569785494887
158,21:30:49:141,-0.05670535936951637,0.0,0.9932669997215271,155.967964891584,360.08213489749414,,-427.0379943847656,34.80551528930664,-0.020722541958093643,0.25348880887031555,-2.591949224472046,0.17064496874809265,574.3379555536277
159,21:30:49:150,-0.05670535936951637,0.0,0.9932669997215271,155.967964891584,360.08213489749414,,-427.0379943847656,34.80551528930664,-0.020722541958093643,0.25348880887031555,-2.591949224472046,0.17064496874809265,574.3379555536277
160,21:30:49:189,-0.05670535936951637,0.0,0.9932669997215271,155.52889336266963,359.6430383344395,,-426.598388671875,34.77523422241211,-0.020706595852971077,0.24922676384449005,-3.20538330078125,0.17679865658283234,573.8986271427854
161,21:30:49:216,-0.05670535936951637,0.0,0.9932669997215271,155.30583479887414,359.41995190982243,,-426.3750305175781,34.75820541381836,-0.020697517320513725,0.24719136953353882,-3.516876697540283,0.1800294816493988,573.6754216432989
162,21:30:49:243,-0.05670535936951637,0.0,0.9932669997215271,155.16708462628227,359.28117901315136,,-426.236083984375,34.74704360961914,-0.02069137617945671,0.24595509469509125,-3.7103891372680664,0.18219438195228577,573.5365741990113
163,21:30:49:269,-0.055294957011938095,0.0,0.9932669997215271,155.0440957328591,359.1581666250318,,-426.1129150390625,34.73681640625,-0.020682066679000854,0.24431584775447845,-3.8811352252960205,0.1837283819913864,573.4134954874605
164,21:30:49:277,-0.055294957011938095,0.0,0.9932669997215271,155.0440957328591,359.1581666250318,,-426.1129150390625,34.73681640625,-0.020682066679000854,0.24431584775447845,-3.8811352252960205,0.1837283819913864,573.4134954874605
165,21:30:49:318,-0.05005652457475662,0.0,0.9932669997215271,154.5853989754256,358.69935126678917,,-425.65350341796875,34.696224212646484,-0.020400848239660263,0.2020096629858017,-4.494997024536133,0.1794590950012207,572.9544347300211
166,21:30:49:344,-0.05005652457475662,0.0,0.9932669997215271,154.46133733230553,358.5752496015089,,-425.52923583984375,34.684574127197266,-0.020288657397031784,0.1852961927652359,-4.654513359069824,0.1774846911430359,572.8302665975624
167,21:30:49:372,-0.044919129461050034,0.0,0.9932669997215271,154.1628449562802,358.27664987000975,,-425.230224609375,34.65542984008789,-0.020075149834156036,0.15359045565128326,-5.022523880004883,0.17165511846542358,572.5315044485276
168,21:30:49:387,-0.037767499685287476,0.0,0.9932669997215271,154.05077462337417,358.16453639401806,,-425.1179504394531,34.644100189208984,-0.02006450667977333,0.1520400047302246,-5.153841972351074,0.16947206854820251,572.4193281426191
169,21:30:49:428,-0.03242924064397812,0.0,0.9932669997215271,153.76316836653217,357.8768128772447,,-424.8298034667969,34.614341735839844,-0.020142363384366035,0.16358985006809235,-5.461520671844482,0.15928414463996887,572.1314401245953
170,21:30:49:435,-0.03242924064397812,0.0,0.9932669997215271,153.76316836653217,357.8768128772447,,-424.8298034667969,34.614341735839844,-0.020142363384366035,0.16358985006809235,-5.461520671844482,0.15928414463996887,572.1314401245953
171,21:30:49:480,-0.012487865053117275,0.0,0.9932669997215271,153.2731871112293,357.38661556861086,,-424.3388671875,34.56276321411133,-0.02037120796740055,0.1974402666091919,-5.847721576690674,0.1210104301571846,571.6409570928081
172,21:30:49:516,0.005136113613843918,0.0,0.9932669997215271,153.13436365764514,357.2477278656589,,-424.19976806640625,34.548099517822266,-0.0204343032091856,0.20677714049816132,-5.922733306884766,0.10690493136644363,571.5019877021298
173,21:30:49:544,0.017724815756082535,0.0,0.9932669997215271,152.792602205294,356.9058082764583,,-423.8573303222656,34.51259994506836,-0.020564880222082138,0.2261202335357666,-6.022892475128174,0.06253274530172348,571.1598664774347
174,21:30:49:578,0.017724815756082535,0.0,0.9932669997215271,152.49993754778794,356.6130069822978,,-423.5640869140625,34.482723236083984,-0.02064739167690277,0.23835992813110352,-6.034276008605957,0.027316711843013763,570.8668918871916
175,21:30:49:611,0.023465445265173912,0.0,0.9932669997215271,152.33619842113265,356.44919111125967,,-423.4000244140625,34.46622848510742,-0.020683173090219498,0.24362599849700928,-6.016819477081299,0.009566310793161392,570.7029788072965
176,21:30:49:634,0.023465445265173912,0.0,0.9932669997215271,152.33619842113265,356.44919111125967,,-423.4000244140625,34.46622848510742,-0.020683173090219498,0.24362599849700928,-6.016819477081299,0.009566310793161392,570.7029788072965
177,21:30:49:659,0.02467401884496212,0.0,0.9932669997215271,151.8141840815939,355.92693217118597,,-422.8769836425781,34.41480255126953,-0.020752182230353355,0.25387129187583923,-5.875888347625732,-0.0349121131002903,570.1804088453082
178,21:30:49:686,0.02467401884496212,0.0,0.9932669997215271,151.48350111540768,355.5960948231371,,-422.545654296875,34.38312911987305,-0.020771484822034836,0.2567126452922821,-5.743075847625732,-0.0541992150247097,569.8493734763117
179,21:30:49:716,0.02467401884496212,0.0,0.9932669997215271,151.31223407253756,355.42474822804485,,-422.3740539550781,34.367008209228516,-0.020776061341166496,0.257361501455307,-5.666110992431641,-0.0619506798684597,569.6779240160133
180,21:30:49:743,0.02467401884496212,0.0,0.9932669997215271,150.99869357853507,355.11106295901453,,-422.0599060058594,34.337989807128906,-0.020777281373739243,0.25754591822624207,-5.515811920166016,-0.0729370042681694,569.3640498784648
181,21:30:49:770,0.02537902258336544,0.0,0.9932669997215271,150.8009842720911,354.9132634945761,,-421.86181640625,34.320064544677734,-0.02077464945614338,0.25710880756378174,-5.415622711181641,-0.0789794772863388,569.1661309878316
182,21:30:49:796,0.02537902258336544,0.0,0.9932669997215271,150.8009842720911,354.9132634945761,,-421.86181640625,34.320064544677734,-0.02077464945614338,0.25710880756378174,-5.415622711181641,-0.0789794772863388,569.1661309878316
183,21:30:49:822,0.03242924064397812,0.0,0.9932669997215271,150.20124923598476,354.31326866333467,,-421.2609558105469,34.268184661865234,-0.020753325894474983,0.25396689772605896,-5.064821720123291,-0.104156494140625,568.5657731541555
184,21:30:49:852,0.03242924064397812,0.0,0.9932669997215271,149.9912454215124,354.10317875474453,,-421.0505676269531,34.2508659362793,-0.02074405550956726,0.25257354974746704,-4.929689884185791,-0.11215207725763321,568.3555558687578
185,21:30:49:879,0.036860983818769455,0.0,0.9932669997215271,149.78665758279138,353.8985102404004,,-420.6807861328125,34.22168731689453,-0.020725363865494728,0.24981415271759033,-4.673860549926758,-0.1283874660730362,568.1507632265013
186,21:30:49:905,0.039681270718574524,0.0,0.9932669997215271,149.43592174832966,353.5476455988431,,-420.4942626953125,34.20764923095703,-0.020715102553367615,0.248291015625,-4.534944534301758,-0.1376648098230362,567.7996859576618
187,21:30:49:938,0.04230016469955444,0.0,0.9932669997215271,149.0757169543494,353.18732175525275,,-420.1334533691406,34.18178939819336,-0.02069522812962532,0.24538135528564453,-4.248902797698975,-0.1557311862707138,567.4391440758488
188,21:30:49:967,0.04230016469955444,0.0,0.9932669997215271,149.0757169543494,353.18732175525275,,-420.1334533691406,34.18178939819336,-0.02069522812962532,0.24538135528564453,-4.248902797698975,-0.1557311862707138,567.4391440758488
189,21:30:50:005,0.04230016469955444,0.0,0.9932669997215271,148.37670942789353,352.48812426666314,,-419.433349609375,34.13651657104492,-0.020658377557992935,0.23992404341697693,-3.6488964557647705,-0.1862182468175888,566.7395249743753
190,21:30:50:029,0.04179652780294418,0.0,0.9932669997215271,148.1843652595902,352.2957379764357,,-419.24072265625,34.12520980834961,-0.020648803561925888,0.23851701617240906,-3.4774177074432373,-0.193115234375,566.5470231437444
191,21:30:50:056,0.04018489643931389,0.0,0.9932669997215271,147.8258926561711,351.937197614022,,-418.8817443847656,34.105384826660156,-0.02060539275407791,0.2320556640625,-3.156036853790283,-0.2032470852136612,566.1882685323786
192,21:30:50:083,0.03786822035908699,0.0,0.9932669997215271,147.61267814342025,351.7239489457317,,-418.6682434082031,34.09437942504883,-0.020527418702840805,0.22047848999500275,-2.965454339981079,-0.207489013671875,565.9748938640298
193,21:30:50:110,0.0350479818880558,0.0,0.9932669997215271,147.41365727422541,351.5248999617585,,-418.4689636230469,34.08457565307617,-0.020427588373422623,0.20567747950553894,-2.790069818496704,-0.20977783203125,565.7757280340494
194,21:30:50:153,0.025781884789466858,0.0,0.9932669997215271,146.77561286326832,350.8867919131614,,-417.83013916015625,34.05598068237305,-0.020084112882614136,0.15486086905002594,-2.268921375274658,-0.205413818359375,565.1372473625622
195,21:30:50:185,0.025781884789466858,0.0,0.9932669997215271,146.409755131653,350.5209210791669,,-417.4638671875,34.04154586791992,-0.020058898255228996,0.15121355652809143,-2.000335931777954,-0.201812744140625,564.7711607293182
196,21:30:50:210,0.020242616534233093,0.0,0.9932669997215271,146.18182146523029,350.2929871501982,,-417.2356872558594,34.03322982788086,-0.020088577643036842,0.15561902523040771,-1.8446044921875,-0.1989746242761612,564.5430919007894
197,21:30:50:236,0.01661699078977108,0.0,0.9932669997215271,145.9860119015433,350.09718156761465,,-417.0396728515625,34.02646255493164,-0.020130310207605362,0.1618686467409134,-1.720733880996704,-0.1950378268957138,564.3471703444905
198,21:30:50:263,0.013797094114124775,0.0,0.9932669997215271,145.5741633693096,349.6853514248463,,-416.6274108886719,34.01319122314453,-0.020230751484632492,0.17675162851810455,-1.48895263671875,-0.1844482272863388,563.935096539036
199,21:30:50:288,0.013797094114124775,0.0,0.9932669997215271,145.5741633693096,349.6853514248463,,-416.6274108886719,34.01319122314453,-0.020230751484632492,0.17675162851810455,-1.48895263671875,-0.1844482272863388,563.935096539036
200,21:30:50:311,0.013797094114124775,0.0,0.9932669997215271,145.5741633693096,349.6853514248463,,-416.6274108886719,34.01319122314453,-0.020230751484632492,0.17675162851810455,-1.48895263671875,-0.1844482272863388,563.935096539036
201,21:30:50:337,0.00876162201166153,0.0,0.9932669997215271,144.83976984465423,348.9510200790272,,-415.892333984375,33.992435455322266,-0.020393677055835724,0.20082804560661316,-1.1701353788375854,-0.1609191596508026,563.2003325038503
202,21:30:50:362,0.008560203947126865,0.0,0.9932669997215271,144.43301546977952,348.5443151033871,,-415.4852294921875,33.9824333190918,-0.020455436781048775,0.20997366309165955,-1.0315245389938354,-0.1504211127758026,562.7933892094761
203,21:30:50:400,0.008560203947126865,0.0,0.9932669997215271,144.02736951376087,348.13872896335516,,-415.0792541503906,33.973480224609375,-0.020499305799603462,0.21644185483455658,-0.9116514325141907,-0.1417541205883026,562.3875663094707
204,21:30:50:428,0.008560203947126865,0.0,0.9932669997215271,143.78613240705258,347.89753191011073,,-414.83782958984375,33.968589782714844,-0.02051662467420101,0.21897585690021515,-0.8465269804000854,-0.1376647800207138,562.146228844496
205,21:30:50:453,0.008560203947126865,0.0,0.9932669997215271,143.78613240705258,347.89753191011073,,-414.83782958984375,33.968589782714844,-0.02051662467420101,0.21897585690021515,-0.8465269804000854,-0.1376647800207138,562.146228844496
206,21:30:50:476,0.008560203947126865,0.0,0.9932669997215271,143.05570510259008,347.1672464737969,,-414.10687255859375,33.95570755004883,-0.020541610196232796,0.22260268032550812,-0.670318603515625,-0.127288818359375,561.4155198140071
207,21:30:50:516,0.005136113613843918,0.0,0.9932669997215271,142.6336255645678,346.7452612119679,,-413.68450927734375,33.94940185546875,-0.020541304722428322,0.2225412130355835,-0.5802916884422302,-0.12145993858575821,560.9932905645381
208,21:30:50:535,0.005136113613843918,0.0,0.9932669997215271,142.41175417558247,346.5234422674305,,-413.4624938964844,33.946353912353516,-0.020538367331027985,0.22207675874233246,-0.5379027724266052,-0.11764522641897202,560.771343484406
209,21:30:50:570,0.0009063720935955644,0.0,0.9932669997215271,141.93686445646446,346.04866974614686,,-412.9873046875,33.9402961730957,-0.02052764780819416,0.22044433653354645,-0.4616393744945526,-0.107391357421875,560.2962967458744
210,21:30:50:585,0.0009063720935955644,0.0,0.9932669997215271,141.93686445646446,346.04866974614686,,-412.9873046875,33.9402961730957,-0.02052764780819416,0.22044433653354645,-0.4616393744945526,-0.107391357421875,560.2962967458744
211,21:30:50:609,0.0009063720935955644,0.0,0.9932669997215271,141.93686445646446,346.04866974614686,,-412.9873046875,33.9402961730957,-0.02052764780819416,0.22044433653354645,-0.4616393744945526,-0.107391357421875,560.2962967458744
212,21:30:50:645,0.0006042480817995965,0.0,0.9932669997215271,140.99736392759453,345.1094181855111,,-412.0472412109375,33.92991638183594,-0.020494842901825905,0.21553343534469604,-0.3649291396141052,-0.0849609225988388,559.3565024203632
213,21:30:50:669,0.0006042480817995965,0.0,0.9932669997215271,140.74454910026586,344.8566739564999,,-411.7942810058594,33.92745590209961,-0.020484503358602524,0.21399664878845215,-0.3474120795726776,-0.0796508714556694,559.1036120213199
214,21:30:50:690,0.0007049560663290322,0.0,0.9932669997215271,140.28933049885853,344.4015858242473,,-411.33880615234375,33.92333221435547,-0.020465927198529243,0.21125774085521698,-0.321685791015625,-0.0715331882238388,558.6482604797592
215,21:30:50:717,0.0007049560663290322,0.0,0.9932669997215271,140.06289303976283,344.17521475406886,,-411.11224365234375,33.921417236328125,-0.020456809550523758,0.20990535616874695,-0.3111266493797302,-0.06796262413263321,558.4217582647212
216,21:30:50:741,0.0007049560663290322,0.0,0.9932669997215271,140.06289303976283,344.17521475406886,,-411.11224365234375,33.921417236328125,-0.020456809550523758,0.20990535616874695,-0.3111266493797302,-0.06796262413263321,558.4217582647212
217,21:30:50:766,0.0007049560663290322,0.0,0.9932669997215271,140.06289303976283,344.17521475406886,,-411.11224365234375,33.921417236328125,-0.020456809550523758,0.20990535616874695,-0.3111266493797302,-0.06796262413263321,558.4217582647212
218,21:30:50:808,0.0009063720935955644,0.0,0.9932669997215271,138.77247461565742,342.88518977484716,,-409.8211364746094,33.911903381347656,-0.020407408475875854,0.2025834023952484,-0.2691650390625,-0.05120849609375,557.1309839651741
219,21:30:50:823,0.0009063720935955644,0.0,0.9932669997215271,138.5650017528993,342.6777821648835,,-409.6135559082031,33.910560607910156,-0.020400160923600197,0.20151789486408234,-0.264190673828125,-0.049072254449129105,556.9234555164065
220,21:30:50:849,0.0009063720935955644,0.0,0.9932669997215271,138.32397608149236,342.4368328975272,,-409.3724060058594,33.9090576171875,-0.020391806960105896,0.20028845965862274,-0.2587585151195526,-0.046600341796875,556.6823657343162
221,21:30:50:874,0.0009063720935955644,0.0,0.9932669997215271,138.32397608149236,342.4368328975272,,-409.3724060058594,33.9090576171875,-0.020391806960105896,0.20028845965862274,-0.2587585151195526,-0.046600341796875,556.6823657343162
222,21:30:50:899,0.0009063720935955644,0.0,0.9932669997215271,138.03936232618062,342.15231004381513,,-409.087646484375,33.9073486328125,-0.020382728427648544,0.19892925024032593,-0.2527160346508026,-0.043975830078125,556.3976767367052
223,21:30:50:925,0.0006042480817995965,0.0,0.9932669997215271,137.24304269870763,341.3562483979657,,-408.2909240722656,33.90292739868164,-0.020358428359031677,0.19535022974014282,-0.237579345703125,-0.037017822265625,555.6011490275326
224,21:30:50:959,0.0003021240117959678,0.0,0.9932669997215271,136.73850422610286,340.85187537725824,,-407.7861328125,33.90033721923828,-0.02034473419189453,0.19329434633255005,-0.230072021484375,-0.0326843224465847,555.0964796799011
225,21:30:51:011,-0.0016113283345475793,0.0,0.9932669997215271,136.28322739591624,340.3967480049832,,-407.33062744140625,33.89805221557617,-0.02033332735300064,0.19163461029529572,-0.2272948920726776,-0.02804565243422985,554.6410840926936
226,21:30:51:055,-0.003222657600417733,0.0,0.9932669997215271,135.36127247350822,339.475093143669,,-406.408203125,33.89335250854492,-0.020312994718551636,0.18859517574310303,-0.24182133376598358,-0.01599121280014515,553.7188833428135
227,21:30:51:080,-0.004833988379687071,0.0,0.9932669997215271,135.11960684031712,339.23350521690134,,-406.1664123535156,33.8920783996582,-0.020308302715420723,0.18790532648563385,-0.2500915229320526,-0.01278686337172985,553.4771516741026
228,21:30:51:105,-0.005035405047237873,0.0,0.9932669997215271,134.61087155671805,338.72493157823635,,-405.65740966796875,33.8892936706543,-0.020299376919865608,0.18654611706733704,-0.2739868462085724,-0.0059814453125,552.9682744773887
229,21:30:51:130,-0.005035405047237873,0.0,0.9932669997215271,134.61087155671805,338.72493157823635,,-405.65740966796875,33.8892936706543,-0.020299376919865608,0.18654611706733704,-0.2739868462085724,-0.0059814453125,552.9682744773887
230,21:30:51:161,-0.005035405047237873,0.0,0.9932669997215271,134.61087155671805,338.72493157823635,,-405.65740966796875,33.8892936706543,-0.020299376919865608,0.18654611706733704,-0.2739868462085724,-0.0059814453125,552.9682744773887
231,21:30:51:203,-0.005035405047237873,0.0,0.9932669997215271,133.23089095141,337.34537354939454,,-404.27667236328125,33.880882263183594,-0.02027793787419796,0.1833905726671219,-0.3710022270679474,0.009976805187761784,551.587886200417
232,21:30:51:231,-0.005035405047237873,0.0,0.9932669997215271,132.95495604176892,337.06951985927367,,-404.0005798339844,33.87902069091797,-0.020274275913834572,0.1828373223543167,-0.394195556640625,0.012632799334824085,551.3118652373827
233,21:30:51:259,-0.005035405047237873,0.0,0.9932669997215271,132.6428201234025,336.75747440600514,,-403.6882629394531,33.87683868408203,-0.02027030847966671,0.18228407204151154,-0.42132568359375,0.015297138132154942,550.9996300491674
234,21:30:51:285,-0.005035405047237873,0.0,0.9932669997215271,132.6428201234025,336.75747440600514,,-403.6882629394531,33.87683868408203,-0.02027030847966671,0.18228407204151154,-0.42132568359375,0.015297138132154942,550.9996300491674
235,21:30:51:308,-0.0035247819032520056,0.0,0.9932669997215271,131.75565496808497,335.8705580262817,,-402.8005676269531,33.87019348144531,-0.020260542631149292,0.18081559240818024,-0.49713134765625,0.02052500657737255,550.1121713623648
236,21:30:51:345,-0.0022155765909701586,0.0,0.9932669997215271,131.18886704590048,335.303922630287,,-402.2334289550781,33.86561965942383,-0.020255202427506447,0.18002328276634216,-0.5415648818016052,0.022211184725165367,549.5451871546742
237,21:30:51:371,-0.0005035400390625,0.0,0.9932669997215271,130.66133847711887,334.77653202665743,,-401.70556640625,33.861175537109375,-0.020250586792826653,0.17933343350887299,-0.5764464139938354,0.022297432646155357,549.0174703148147
238,21:30:51:400,-0.0005035400390625,0.0,0.9932669997215271,130.38557587830292,334.5008400942111,,-401.42962646484375,33.858787536621094,-0.02024860307574272,0.17900559306144714,-0.5920410752296448,0.022056784480810165,548.7416072366341
239,21:30:51:425,-0.0003021240117959678,0.0,0.9932669997215271,130.0948105587475,334.21014804505984,,-401.138671875,33.8562126159668,-0.020246200263500214,0.1786777377128601,-0.6067199110984802,0.021745437756180763,548.4507342745543
240,21:30:51:450,-0.0003021240117959678,0.0,0.9932669997215271,130.0948105587475,334.21014804505984,,-401.138671875,33.8562126159668,-0.020246200263500214,0.1786777377128601,-0.6067199110984802,0.021745437756180763,548.4507342745543
241,21:30:51:467,-0.0003021240117959678,0.0,0.9932669997215271,129.78370567003262,333.89912026890244,,-400.8273620605469,33.85340118408203,-0.020244140177965164,0.17835672199726105,-0.6207581162452698,0.021452629938721657,548.1395124053637
242,21:30:51:505,-0.0003021240117959678,0.0,0.9932669997215271,128.5972561210484,332.7129513032616,,-399.6401062011719,33.84208297729492,-0.020236700773239136,0.17726388573646545,-0.6610107421875,0.020830022171139717,546.9525981911444
243,21:30:51:533,-0.0003021240117959678,0.0,0.9932669997215271,128.30055832562167,332.4163203495887,,-399.34320068359375,33.839111328125,-0.020235175266861916,0.17703166604042053,-0.668609619140625,0.020749233663082123,546.6557796158207
244,21:30:51:560,-0.0003021240117959678,0.0,0.9932669997215271,127.75629796935655,331.87217942483045,,-398.7985534667969,33.83353805541992,-0.020232582464814186,0.1766355186700821,-0.6806641221046448,0.020581599324941635,546.1112932437037
245,21:30:51:591,-0.0003021240117959678,0.0,0.9932669997215271,127.4079167901701,331.52387249299227,,-398.4499206542969,33.82988739013672,-0.02023109421133995,0.17641010880470276,-0.6873778700828552,0.02043815702199936,545.7627643175491
246,21:30:51:623,-0.0003021240117959678,0.0,0.9932669997215271,127.4079167901701,331.52387249299227,,-398.4499206542969,33.82988739013672,-0.02023109421133995,0.17641010880470276,-0.6873778700828552,0.02043815702199936,545.7627643175491
247,21:30:51:647,0.0020141603890806437,0.0,0.9932669997215271,126.43835271420829,330.554508884772,,-397.4796447753906,33.81958770751953,-0.02022739313542843,0.17584320902824402,-0.69329833984375,0.01673838123679161,544.7927796248239
248,21:30:51:655,0.0020141603890806437,0.0,0.9932669997215271,126.43835271420829,330.554508884772,,-397.4796447753906,33.81958770751953,-0.02022739313542843,0.17584320902824402,-0.69329833984375,0.01673838123679161,544.7927796248239
249,21:30:51:697,0.013696384616196156,0.0,0.9932669997215271,125.53512107056139,329.6514600882167,,-396.57574462890625,33.81016540527344,-0.02017829939723015,0.1685485690832138,-0.66998291015625,0.006380172912031412,543.8891494921718
250,21:30:51:731,0.013797094114124775,0.0,0.9932669997215271,124.99629481013663,329.112746391543,,-396.0365295410156,33.805057525634766,-0.02006351388990879,0.1515687257051468,-0.6238707900047302,-0.006042479537427425,543.3500898812124
251,21:30:51:757,0.013797094114124775,0.0,0.9932669997215271,124.99629481013663,329.112746391543,,-396.0365295410156,33.805057525634766,-0.02006351388990879,0.1515687257051468,-0.6238707900047302,-0.006042479537427425,543.3500898812124
252,21:30:51:793,0.013797094114124775,0.0,0.9932669997215271,123.99855088002803,328.11522326591825,,-395.0380859375,33.79670715332031,-0.01983436569571495,0.11773879081010818,-0.486328125,-0.028656000271439552,542.3519249934037
253,21:30:51:825,0.013797094114124775,0.0,0.9932669997215271,123.51270631584656,327.629495892574,,-394.5519104003906,33.79322814941406,-0.019826697185635567,0.11668011546134949,-0.400665283203125,-0.0384521409869194,541.8658823040422
254,21:30:51:833,0.013797094114124775,0.0,0.9932669997215271,123.51270631584656,327.629495892574,,-394.5519104003906,33.79322814941406,-0.019826697185635567,0.11668011546134949,-0.400665283203125,-0.0384521409869194,541.8658823040422
255,21:30:51:880,0.013797094114124775,0.0,0.9932669997215271,122.90830805803799,327.02525344807805,,-393.9471130371094,33.789546966552734,-0.01987842470407486,0.12439139932394028,-0.2815245985984802,-0.0498657152056694,541.2612459528494
256,21:30:51:901,0.013797094114124775,0.0,0.9932669997215271,122.90830805803799,327.02525344807805,,-393.9471130371094,33.789546966552734,-0.01987842470407486,0.12439139932394028,-0.2815245985984802,-0.0498657152056694,541.2612459528494
257,21:30:51:913,0.013797094114124775,0.0,0.9932669997215271,122.90830805803799,327.02525344807805,,-393.9471130371094,33.789546966552734,-0.01987842470407486,0.12439139932394028,-0.2815245985984802,-0.0498657152056694,541.2612459528494
