tick,time,steerCmd,brakeCmd,throttleCmd,distance1,distance2,distanc3,Location_X,Location_Y,Location_Z,Rotation_Pitch,Rotation_Yaw,Rotation_Roll,distance3
0,21:33:19:305,0.0,0.6212635636329651,0.6212635636329651,162.82953659915046,366.867752137899,,-433.8999938964844,34.900001525878906,0.8460339307785034,0.0,0.0,0.0,581.1592035455809
1,21:33:19:332,0.0,0.6212635636329651,0.6212635636329651,162.8297931831605,366.87040966486677,,-433.8999938964844,34.900001525878906,0.7537344694137573,0.0,0.0,0.0,581.1601824213309
2,21:33:19:367,0.0,0.6212635636329651,0.6212635636329651,162.8297931831605,366.87040966486677,,-433.8999938964844,34.900001525878906,0.7537344694137573,0.0,0.0,0.0,581.1601824213309
3,21:33:19:378,0.0,0.6212635636329651,0.6212635636329651,162.83112772002414,366.87952288701814,,-433.8999938964844,34.900001525878906,0.43051809072494507,0.0,0.0,0.0,581.1647298532423
4,21:33:19:423,0.0,0.6212635636329651,0.6212635636329651,162.8326196902817,366.8865545624039,,-433.8999938964844,34.900001525878906,0.19291090965270996,0.0,0.0,0.0,581.1685423416322
5,21:33:19:456,0.0,0.6212635636329651,0.6212635636329651,162.83340382008166,366.8898500381647,,-433.8999938964844,34.900001525878906,-0.012248954735696316,0.0,0.0,0.0,581.1706071750901
6,21:33:19:483,0.0,0.6212635636329651,0.6212635636329651,162.83494908054953,366.8953522215184,,-433.8999938964844,34.900001525878906,-0.09582827985286713,0.0,0.0,0.0,581.1736411761108
7,21:33:19:510,0.0,0.6212635636329651,0.6212635636329651,162.83456752823403,366.89499601372955,,-433.8996887207031,34.90007400512695,-0.09685836732387543,0.048139169812202454,0.0004086587578058243,-0.0872192233800888,581.1735673460624
8,21:33:19:536,0.0,0.6212635636329651,0.6212635636329651,162.83456752823403,366.89499601372955,,-433.8996887207031,34.90007400512695,-0.09685836732387543,0.048139169812202454,0.0004086587578058243,-0.0872192233800888,581.1735673460624
9,21:33:19:559,0.0,0.6212635636329651,0.6212635636329651,162.83275546755175,366.89223497279136,,-433.8982238769531,34.899784088134766,-0.07581546902656555,0.27477848529815674,-0.0018005366437137127,-0.47741690278053284,581.1726816887772
10,21:33:19:585,0.0,0.6212635636329651,0.6212635636329651,162.83251781350955,366.8918345754342,,-433.8981018066406,34.89964294433594,-0.06945464760065079,0.29141682386398315,-0.0020751948468387127,-0.5012511610984802,581.1727137036315
11,21:33:19:628,0.0,0.6212635636329651,0.6212635636329651,162.8323816726004,366.8911657836272,,-433.8981628417969,34.89937973022461,-0.0561717227101326,0.2856043577194214,-0.001983642578125,-0.48318472504615784,581.1731725890724
12,21:33:19:653,0.0,0.6212635636329651,0.6212635636329651,162.83248788275858,366.89071843229476,,-433.8984375,34.89923095703125,-0.04602577164769173,0.25096163153648376,-0.0014343259390443563,-0.4208373427391052,581.1738680436695
13,21:33:19:685,0.0,0.6212635636329651,0.6212635636329651,162.83260699571633,366.89046562987363,,-433.8987121582031,34.8991584777832,-0.03782188147306442,0.20824562013149261,-0.0008544921875,-0.3480224609375,581.1745189385248
14,21:33:19:710,0.0,0.6212635636329651,0.6212635636329651,162.83260699571633,366.89046562987363,,-433.8987121582031,34.8991584777832,-0.03782188147306442,0.20824562013149261,-0.0008544921875,-0.3480224609375,581.1745189385248
15,21:33:19:733,0.0,0.6212635636329651,0.6212635636329651,162.83260699571633,366.89046562987363,,-433.8987121582031,34.8991584777832,-0.03782188147306442,0.20824562013149261,-0.0008544921875,-0.3480224609375,581.1745189385248
16,21:33:19:760,0.0,0.6212635636329651,0.6212635636329651,162.83287540721727,366.8899104908865,,-433.8992004394531,34.89912033081055,-0.02782546915113926,0.13827717304229736,-0.00018310549785383046,-0.2323608547449112,581.1756407530255
17,21:33:19:793,0.0,0.6212635636329651,0.6212635636329651,162.83309419233228,366.88981901562954,,-433.8994445800781,34.89912414550781,-0.024225082248449326,0.1073978915810585,3.829456545645371e-05,-0.182098388671875,581.1761561651484
18,21:33:19:813,0.0,0.6212635636329651,0.6212635636329651,162.83320527891354,366.88981654580914,,-433.8995666503906,34.89912796020508,-0.022776031866669655,0.09302717447280884,0.00012095180136384442,-0.1586913764476776,581.1763854487476
19,21:33:19:839,0.0,0.6212635636329651,0.6212635636329651,162.8333159655642,366.8897230440836,,-433.8997497558594,34.899139404296875,-0.02076423540711403,0.07098615169525146,0.0002248976961709559,-0.12289426475763321,581.1767719308161
20,21:33:19:864,0.0,0.6212635636329651,0.6212635636329651,162.8333159655642,366.8897230440836,,-433.8997497558594,34.899139404296875,-0.02076423540711403,0.07098615169525146,0.0002248976961709559,-0.12289426475763321,581.1767719308161
21,21:33:19:890,0.0,0.6212635636329651,0.6212635636329651,162.8333159655642,366.8897230440836,,-433.8997497558594,34.899139404296875,-0.02076423540711403,0.07098615169525146,0.0002248976961709559,-0.12289426475763321,581.1767719308161
22,21:33:19:914,0.0,0.6212635636329651,0.6212635636329651,162.83350288587772,366.8888174972727,,-433.9000244140625,34.899166107177734,-0.018297577276825905,0.034820303320884705,0.0003374826046638191,-0.0635681003332138,581.1775640244813
23,21:33:19:942,0.0,0.6212635636329651,0.6212635636329651,162.83359413597034,366.8888189341145,,-433.9001159667969,34.899166107177734,-0.018078232184052467,0.029110264033079147,0.00034865253837779164,-0.0540161095559597,581.1777038237979
24,21:33:19:974,0.0,0.6212635636329651,0.6212635636329651,162.83362907501612,366.8885826254122,,-433.900146484375,34.899173736572266,-0.01781185157597065,0.02025151066482067,0.0003623903030529618,-0.0390624925494194,581.1778568158454
25,21:33:20:027,0.0,0.6212635636329651,0.6212635636329651,162.83372510509406,366.88845229820566,,-433.9002380371094,34.89917755126953,-0.01779056526720524,0.014384377747774124,0.00036904856096953154,-0.02886962704360485,581.1780240534373
26,21:33:20:037,0.0,0.6212635636329651,0.6212635636329651,162.83369811138576,366.8883200224711,,-433.9002380371094,34.89918518066406,-0.01784946396946907,0.011017094366252422,0.00037197512574493885,-0.02291869930922985,581.1780493295039
27,21:33:20:071,0.0,0.6212635636329651,0.6212635636329651,162.83373577971912,366.8880816752389,,-433.9002685546875,34.899192810058594,-0.017987823113799095,0.007267320994287729,0.00037447476643137634,-0.01611328311264515,581.1781300883266
28,21:33:20:113,0.0003021240117959678,0.07973353564739227,0.0,162.83377343076336,366.88784617731136,,-433.9002990722656,34.89919662475586,-0.01816997490823269,0.004719660617411137,0.000375682779122144,-0.011260985396802425,581.1781949028016
29,21:33:20:145,0.0003021240117959678,0.07973353564739227,0.0,162.83377899925878,366.88758658400354,,-433.9002990722656,34.89919662475586,-0.018352508544921875,0.0030189433600753546,0.0003762687847483903,-0.007873534224927425,581.1782109310129
30,21:33:20:171,0.0003021240117959678,0.13204194605350494,0.0,162.83377980486617,366.88758929782045,,-433.9002990722656,34.89919662475586,-0.018352508544921875,0.0030189433600753546,0.0003762687847483903,-0.007873534224927425,581.178212342574
31,21:33:20:196,0.0003021240117959678,0.13204194605350494,0.0,162.83377980486617,366.88758929782045,,-433.9002990722656,34.89919662475586,-0.018352508544921875,0.0030189433600753546,0.0003762687847483903,-0.007873534224927425,581.178212342574
32,21:33:20:218,0.0003021240117959678,0.13204194605350494,0.0,162.83379067980525,366.8869374327171,,-433.9002990722656,34.899192810058594,-0.018467864021658897,0.002513509476557374,0.0003763084241654724,-0.006591796409338713,581.1782605812048
33,21:33:20:244,0.0003021240117959678,0.11275610327720642,0.0,162.83379507357841,366.8867078587402,,-433.9002990722656,34.89919662475586,-0.018593063578009605,0.002083207480609417,0.00037638170761056244,-0.0054931640625,581.1782728739677
34,21:33:20:278,0.0003021240117959678,0.09968198835849762,0.0,162.8337970664964,366.88662607621796,,-433.9002990722656,34.89919662475586,-0.018670883029699326,0.0018441509455442429,0.00037642091047018766,-0.004913330078125,581.178262654167
35,21:33:20:303,0.0003021240117959678,0.07299160957336426,0.0,162.83380159143,366.8863863538228,,-433.9002990722656,34.89919662475586,-0.01876937784254551,0.0014548301696777344,0.0003764816792681813,-0.003936767112463713,581.1782748396582
36,21:33:20:334,0.0003021240117959678,0.07299160957336426,0.0,162.83380159143,366.8863863538228,,-433.9002990722656,34.89919662475586,-0.01876937784254551,0.0014548301696777344,0.0003764816792681813,-0.003936767112463713,581.1782748396582
37,21:33:20:362,0.0003021240117959678,0.0,0.0,162.83381034151273,366.8857497890892,,-433.9002990722656,34.89920425415039,-0.018888015300035477,0.0009698867797851562,0.0003738507512025535,-0.0025634765625,581.1783011228633
38,21:33:20:396,0.0003021240117959678,0.0,0.0,162.83381231971268,366.8856036701705,,-433.9002990722656,34.89921188354492,-0.018978727981448174,0.0006693585310131311,0.0003731210308615118,-0.0019531248835846782,581.1782916876776
39,21:33:20:415,0.0003021240117959678,0.0,0.0,162.8338149242362,366.88544167232055,,-433.9002990722656,34.899208068847656,-0.01900840736925602,0.0005532453069463372,0.0003727779840119183,-0.0016784666804596782,581.1782988244471
40,21:33:20:440,0.0003021240117959678,0.0,0.0,162.83381610029844,366.8853657388756,,-433.9002990722656,34.89920425415039,-0.01904495246708393,0.0004234717052895576,0.00037245903513394296,-0.00146484375,581.1783020027013
41,21:33:20:473,0.0003021240117959678,0.0,0.0,162.83385033635895,366.8851076853271,,-433.90032958984375,34.89920425415039,-0.019071387127041817,0.00025954717420972884,0.00037169005372561514,-0.0010375975398346782,581.178373653336
42,21:33:20:498,0.0003021240117959678,0.0,0.0,162.83385033635895,366.8851076853271,,-433.90032958984375,34.89920425415039,-0.019071387127041817,0.00025954717420972884,0.00037169005372561514,-0.0010375975398346782,581.178373653336
43,21:33:20:505,0.0003021240117959678,0.0,0.0,162.83385033635895,366.8851076853271,,-433.90032958984375,34.89920425415039,-0.019071387127041817,0.00025954717420972884,0.00037169005372561514,-0.0010375975398346782,581.178373653336
44,21:33:20:530,0.0003021240117959678,0.0,0.0,162.8338556500857,366.88450855510666,,-433.90032958984375,34.899200439453125,-0.01913524605333805,3.415094397496432e-05,0.00030978856375440955,-0.0005798339261673391,581.1784065388117
45,21:33:20:559,0.0003021240117959678,0.0,0.0,162.8338566654757,366.88442725161724,,-433.90032958984375,34.89919662475586,-0.019157791510224342,-3.415094397496432e-05,0.0002800821093842387,-0.00048828122089616954,581.1783939694245
46,21:33:20:587,0.0003021240117959678,0.0,0.0,162.83385954943748,366.88416339432325,,-433.90032958984375,34.89919662475586,-0.01916664093732834,-3.415094397496432e-05,0.0002800821093842387,-0.00048828122089616954,581.1784174306825
47,21:33:20:613,0.0003021240117959678,0.0,0.0,162.83386033615196,366.884078075495,,-433.90032958984375,34.89919662475586,-0.019200783222913742,-3.415094397496432e-05,0.0002800821093842387,-0.00048828122089616954,581.1784200029932
48,21:33:20:638,0.0003021240117959678,0.0,0.0,162.83386248846617,366.8838689221464,,-433.90032958984375,34.89919662475586,-0.019203033298254013,4.0981132769957185e-05,0.00019827415235340595,-0.0003662109375,581.1784413874099
49,21:33:20:669,0.0003021240117959678,0.0,0.0,162.83386248846617,366.8838689221464,,-433.90032958984375,34.89919662475586,-0.019203033298254013,4.0981132769957185e-05,0.00019827415235340595,-0.0003662109375,581.1784413874099
50,21:33:20:694,0.0003021240117959678,0.0,0.0,162.83386248846617,366.8838689221464,,-433.90032958984375,34.89919662475586,-0.019203033298254013,4.0981132769957185e-05,0.00019827415235340595,-0.0003662109375,581.1784413874099
51,21:33:20:737,0.0003021240117959678,0.0,0.0,162.83387051887223,366.8822184971984,,-433.90032958984375,34.89919662475586,-0.019210509955883026,2.0490566384978592e-05,0.00012375717051327229,-0.00021362303232308477,581.1785479558399
52,21:33:20:764,0.0003021240117959678,0.0,0.0,162.83387115632797,366.8821322860759,,-433.90032958984375,34.89919662475586,-0.019225120544433594,2.0490566384978592e-05,0.00012375717051327229,-0.00021362303232308477,581.1785497535841
53,21:33:20:791,0.0003021240117959678,0.0,0.0,162.83387257372274,366.8819106152945,,-433.90032958984375,34.89919662475586,-0.019209174439311028,-6.147169915493578e-05,3.552054477040656e-05,-0.00012207030522404239,581.1785540734751
54,21:33:20:817,0.0003021240117959678,0.0,0.0,162.8338729456919,366.8818248547559,,-433.90032958984375,34.89919662475586,-0.019219741225242615,-6.147169915493578e-05,3.552054477040656e-05,-0.00012207030522404239,581.1785555637215
55,21:33:20:841,0.0003021240117959678,0.0,0.0,162.8338729456919,366.8818248547559,,-433.90032958984375,34.89919662475586,-0.019219741225242615,-6.147169915493578e-05,3.552054477040656e-05,-0.00012207030522404239,581.1785555637215
56,21:33:20:851,0.0003021240117959678,0.0,0.0,162.8338729456919,366.8818248547559,,-433.90032958984375,34.89919662475586,-0.019219741225242615,-6.147169915493578e-05,3.552054477040656e-05,-0.00012207030522404239,581.1785555637215
57,21:33:20:905,0.0003021240117959678,0.0,0.0,162.83387713570465,366.8807813873746,,-433.90032958984375,34.89919662475586,-0.0192094799131155,-6.147169915493578e-05,3.552054477040656e-05,-0.00012207030522404239,581.1786164317622
58,21:33:20:931,0.0003021240117959678,0.0,0.0,162.8338778050271,366.8806223721475,,-433.90032958984375,34.89919662475586,-0.019206352531909943,-6.147169915493578e-05,3.552054477040656e-05,-0.00012207030522404239,581.1786339801565
59,21:33:20:958,0.0003021240117959678,0.0,0.0,162.83387843947492,366.8804409066631,,-433.90032958984375,34.89919662475586,-0.019203223288059235,-6.147169915493578e-05,3.552054477040656e-05,-0.00012207030522404239,581.1786363461346
60,21:33:20:995,0.0003021240117959678,0.0,0.0,162.83387938070476,366.88008302466255,,-433.90032958984375,34.89919662475586,-0.019179191440343857,-0.00012294339830987155,-6.103515261202119e-05,-3.0517576306010596e-05,581.1786403195474
61,21:33:21:024,0.0003021240117959678,0.0,0.0,162.83387938070476,366.88008302466255,,-433.90032958984375,34.89919662475586,-0.019179191440343857,-0.00012294339830987155,-6.103515261202119e-05,-3.0517576306010596e-05,581.1786403195474
62,21:33:21:052,0.0003021240117959678,0.0,0.0,162.8338812791316,366.8794059664365,,-433.90032958984375,34.89919662475586,-0.01918075606226921,-0.00012294339830987155,-6.103515261202119e-05,-3.0517576306010596e-05,581.1786476204333
63,21:33:21:085,0.0003021240117959678,0.0,0.0,162.83388167917033,366.8792958924654,,-433.90032958984375,34.89919662475586,-0.01915912516415119,-0.00012294339830987155,-6.103515261202119e-05,-3.0517576306010596e-05,581.1786487848631
64,21:33:21:113,0.0003021240117959678,0.0,0.0,162.83388205329032,366.87905917445374,,-433.90032958984375,34.89919662475586,-0.019163817167282104,-0.00012294339830987155,-6.103515261202119e-05,-3.0517576306010596e-05,581.1786509516463
65,21:33:21:140,0.0003021240117959678,0.0,0.0,162.8338824924382,366.87895976259165,,-433.90032958984375,34.89919662475586,-0.01914054900407791,-0.00012294339830987155,-6.103515261202119e-05,-3.0517576306010596e-05,581.1786520794793
66,21:33:21:165,0.0003021240117959678,0.0,0.0,162.83388277189195,366.8787374760157,,-433.90032958984375,34.89919662475586,-0.019142722710967064,-0.00012294339830987155,-6.103515261202119e-05,-3.0517576306010596e-05,581.1786538703092
67,21:33:21:197,0.0003021240117959678,0.0,0.0,162.83388277189195,366.8787374760157,,-433.90032958984375,34.89919662475586,-0.019142722710967064,-0.00012294339830987155,-6.103515261202119e-05,-3.0517576306010596e-05,581.1786538703092
68,21:33:21:222,0.0003021240117959678,0.0,0.0,162.83388288660183,366.8786497567224,,-433.90032958984375,34.89919662475586,-0.01916622184216976,-0.00012294339830987155,-6.103515261202119e-05,-3.0517576306010596e-05,581.1786547123536
69,21:33:21:246,0.0003021240117959678,0.0,0.0,162.8338842131501,366.87805648908903,,-433.90032958984375,34.89919662475586,-0.019187621772289276,-0.00012294339830987155,-6.103515261202119e-05,-3.0517576306010596e-05,581.1786596680963
70,21:33:21:282,0.0003021240117959678,0.0,0.0,162.8338847767721,366.8778336252583,,-433.90032958984375,34.89919662475586,-0.01917259208858013,-0.00012294339830987155,-6.103515261202119e-05,-3.0517576306010596e-05,581.1786615957387
71,21:33:21:306,0.0003021240117959678,0.0,0.0,162.83388449936473,366.87775154364283,,-433.90032958984375,34.89919662475586,-0.019180145114660263,-0.00012294339830987155,-6.103515261202119e-05,-3.0517576306010596e-05,581.178661652335
72,21:33:21:332,0.0003021240117959678,0.0,0.3221718668937683,162.833732367039,366.8775168494839,,-433.9001770019531,34.89919662475586,-0.01914772018790245,0.0005190943484194577,-0.00018310546875,0.0,581.1785099267067
73,21:33:21:357,0.0003021240117959678,0.0,0.3221718668937683,162.833732367039,366.8775168494839,,-433.9001770019531,34.89919662475586,-0.01914772018790245,0.0005190943484194577,-0.00018310546875,0.0,581.1785099267067
74,21:33:21:379,0.0003021240117959678,0.0,0.6174018979072571,162.83354969861534,366.8767380674675,,-433.8999938964844,34.89919662475586,-0.019138259813189507,0.0008332830620929599,-0.00018310546875,0.0,581.1783300285425
75,21:33:21:407,0.0003021240117959678,0.0,0.7217099070549011,162.8333056976755,366.87642666909386,,-433.8995361328125,34.89919662475586,-0.019141845405101776,0.0021856604143977165,-0.00018310546875,0.0,581.1780873875025
76,21:33:21:433,0.0003021240117959678,0.0,0.7217099070549011,162.83263477188694,366.8755380933291,,-433.8990783691406,34.89919662475586,-0.019167328253388405,0.0033194718416780233,-0.00018310546875,0.0,581.1774166616074
77,21:33:21:460,0.0003021240117959678,0.0,0.7715179324150085,162.8321164284384,366.87494036591596,,-433.8985595703125,34.89919662475586,-0.019189070910215378,0.004589886870235205,-0.00018310546875,0.0,581.1768988711887
78,21:33:21:485,0.0003021240117959678,0.0,0.7715179324150085,162.83144548334445,366.8742066316044,,-433.89788818359375,34.89919662475586,-0.01919330470263958,0.006051547359675169,-0.00018310546875,0.0,581.1762283242075
79,21:33:21:520,0.0003021240117959678,0.0,0.7715179324150085,162.831445916171,366.87412471902076,,-433.89654541015625,34.89919662475586,-0.019192542880773544,0.010095018893480301,-0.00018310546875,0.0,581.1762292651396
80,21:33:21:540,0.0003021240117959678,0.0,0.7747490406036377,162.82244670823277,366.8642600746088,,-433.8888854980469,34.89919662475586,-0.01931377314031124,0.029540566727519035,-0.00021362301777116954,0.0,581.1672344717736
81,21:33:21:565,0.0003021240117959678,0.0,0.7747490406036377,162.81832829884212,366.86006631228446,,-433.884765625,34.899169921875,-0.01939212717115879,0.03815343603491783,0.004045142326503992,0.0,581.1631167066367
82,21:33:21:590,0.0003021240117959678,0.0,0.7747490406036377,162.8147587989191,366.85643726494317,,-433.8811950683594,34.899166107177734,-0.019416464492678642,0.04184173792600632,0.004878324456512928,1.782911022019107e-05,581.1595477075005
83,21:33:21:618,0.0003021240117959678,0.0,0.8728300333023071,162.80581926252307,366.847273231011,,-433.87225341796875,34.89916229248047,-0.01943942904472351,0.04815966263413429,0.005202481523156166,2.587100607343018e-05,581.1506094240373
84,21:33:21:643,0.0003021240117959678,0.0,0.8728300333023071,162.80581926252307,366.847273231011,,-433.87225341796875,34.89916229248047,-0.01943942904472351,0.04815966263413429,0.005202481523156166,2.587100607343018e-05,581.1506094240373
85,21:33:21:666,0.0003021240117959678,0.0,0.8728300333023071,162.80581926252307,366.847273231011,,-433.87225341796875,34.89916229248047,-0.01943942904472351,0.04815966263413429,0.005202481523156166,2.587100607343018e-05,581.1506094240373
86,21:33:21:692,0.0003021240117959678,0.0,0.9984008073806763,162.77698622605925,366.8174748572933,,-433.8434143066406,34.899169921875,-0.01961059495806694,0.07361577451229095,0.004887706600129604,1.4502602425636724e-05,581.1217809932947
87,21:33:21:729,0.0003021240117959678,0.0,1.0,162.7580992529664,366.7983578863423,,-433.82452392578125,34.8991813659668,-0.019741248339414597,0.08852607756853104,0.0050064693205058575,1.9228900782763958e-05,581.1028958547503
88,21:33:21:755,0.0003021240117959678,0.0,1.0,162.74677928061482,366.7869643732275,,-433.8132019042969,34.89918518066406,-0.0198093019425869,0.09585487097501755,0.00506747979670763,2.4146736905095167e-05,581.091576759544
89,21:33:21:781,0.0003021240117959678,0.0,1.0,162.74677928061482,366.7869643732275,,-433.8132019042969,34.89918518066406,-0.0198093019425869,0.09585487097501755,0.00506747979670763,2.4146736905095167e-05,581.091576759544
90,21:33:21:806,0.0003021240117959678,0.0,1.0,162.70439793603174,366.7439842324249,,-433.77081298828125,34.899200439453125,-0.01995193399488926,0.11413928866386414,0.005280790850520134,4.0928043745225295e-05,581.0491989370091
91,21:33:21:837,0.0003021240117959678,0.0,1.0,162.6897213643507,366.72923890277673,,-433.7561340332031,34.89920425415039,-0.019983673468232155,0.11805298179388046,0.005359495524317026,4.620023537427187e-05,581.0345230795557
92,21:33:21:863,0.0003021240117959678,0.0,1.0,162.660337358583,366.69964740483493,,-433.72674560546875,34.89921188354492,-0.020010527223348618,0.12353762239217758,0.0055219694040715694,5.393301762524061e-05,581.0051404107147
93,21:33:21:889,0.0003021240117959678,0.0,1.0,162.64370759883496,366.68295244626535,,-433.7101135253906,34.89921951293945,-0.02002635970711708,0.1256140023469925,0.005615878384560347,5.7023811677936465e-05,580.9885112732394
94,21:33:21:925,0.0003021240117959678,0.0,1.0,162.60455917411747,366.6435401478266,,-433.67095947265625,34.899227142333984,-0.02003318816423416,0.12863977253437042,0.005841969978064299,6.281340029090643e-05,580.9493643514679
95,21:33:21:949,0.0003021240117959678,0.0,1.0,162.60455917411747,366.6435401478266,,-433.67095947265625,34.899227142333984,-0.02003318816423416,0.12863977253437042,0.005841969978064299,6.281340029090643e-05,580.9493643514679
96,21:33:21:974,0.0003021240117959678,0.0,1.0,162.5819490043332,366.6208473712085,,-433.6483459472656,34.899234771728516,-0.020014533773064613,0.12958917021751404,0.005975065752863884,6.431600922951475e-05,580.9267548538126
97,21:33:22:003,0.0003021240117959678,0.0,1.0,162.51201176616024,366.5503205786405,,-433.5783996582031,34.899253845214844,-0.02003837563097477,0.13046343624591827,0.006393449380993843,6.528630183311179e-05,580.8568200744339
98,21:33:22:032,0.0003021240117959678,0.0,1.0,162.4887606606731,366.52700109254715,,-433.5551452636719,34.899261474609375,-0.0200485996901989,0.1303883045911789,0.006534395273774862,6.467744242399931e-05,580.8335696715092
99,21:33:22:058,0.0003021240117959678,0.0,1.0,162.44158679586639,366.47960774785423,,-433.5079650878906,34.8992805480957,-0.020054969936609268,0.1299716681241989,0.006822901777923107,6.239501090021804e-05,580.7863972511867
100,21:33:22:082,0.0003021240117959678,0.0,1.0,162.4157724654705,366.4537244253797,,-433.4821472167969,34.899288177490234,-0.020060233771800995,0.12965747714042664,0.006981670390814543,6.116206350270659e-05,580.7605836224096
101,21:33:22:111,0.0003021240117959678,0.0,1.0,162.39114806543492,366.4290413968024,,-433.45751953125,34.89929962158203,-0.02005290985107422,0.12933646142482758,0.007133687846362591,5.9692356444429606e-05,580.7359598054911
102,21:33:22:126,0.0003021240117959678,0.0,1.0,162.39114806543492,366.4290413968024,,-433.45751953125,34.89929962158203,-0.02005290985107422,0.12933646142482758,0.007133687846362591,5.9692356444429606e-05,580.7359598054911
103,21:33:22:150,0.0003021240117959678,0.0,1.0,162.29792917840572,366.33521802233,,-433.3642883300781,34.89933395385742,-0.02000194415450096,0.1280318945646286,0.007713828701525927,5.325978418113664e-05,580.6427435715831
104,21:33:22:185,0.0003021240117959678,0.0,1.0,162.26820891092012,366.30543193956163,,-433.3345642089844,34.89934158325195,-0.020012740045785904,0.12763573229312897,0.007899844087660313,5.199177758186124e-05,580.6130240107177
105,21:33:22:213,0.0003021240117959678,0.0,1.0,162.20043851288077,366.237390338744,,-433.26678466796875,34.89936828613281,-0.02000938355922699,0.12678197026252747,0.008325942791998386,4.758696013595909e-05,580.545255493873
106,21:33:22:248,0.0003021240117959678,0.0,1.0,162.16516497535383,366.2019853253315,,-433.2019958496094,34.89938735961914,-0.01997993513941765,0.126057967543602,0.0087355375289917,4.3745385482907295e-05,580.5099827284826
107,21:33:22:277,0.0003021240117959678,0.0,1.0,162.10602956139803,366.14273093007773,,-433.17236328125,34.89939880371094,-0.01997726410627365,0.1257437765598297,0.00892303604632616,4.172777698840946e-05,580.4508485872743
108,21:33:22:315,0.0003021240117959678,0.0,1.0,162.10602956139803,366.14273093007773,,-433.17236328125,34.89939880371094,-0.01997726410627365,0.1257437765598297,0.00892303604632616,4.172777698840946e-05,580.4508485872743
109,21:33:22:341,0.0003021240117959678,0.0,1.0,161.96719297144674,366.00307103071094,,-433.03350830078125,34.89944076538086,-0.020025938749313354,0.12470559030771255,0.009804526343941689,3.1823787139728665e-05,580.3120157363117
110,21:33:22:368,0.0003021240117959678,0.0,1.0,161.90610513932,365.94183388794465,,-432.972412109375,34.89946365356445,-0.020014533773064613,0.12449385225772858,0.010192849673330784,2.6332565539632924e-05,580.2509293383457
111,21:33:22:393,0.0003021240117959678,0.0,1.0,161.86887873496053,365.90454943423356,,-432.9351806640625,34.899478912353516,-0.020015716552734375,0.1244528666138649,0.0104293804615736,2.4215009034378454e-05,580.2137037957697
112,21:33:22:420,0.0003021240117959678,0.0,1.0,161.79509707911876,365.83057484865884,,-432.86138916015625,34.89950180053711,-0.020009078085422516,0.12453483045101166,0.010897599160671234,1.842957135522738e-05,580.1399237580514
113,21:33:22:445,0.0003021240117959678,0.0,1.0,161.79509707911876,365.83057484865884,,-432.86138916015625,34.89950180053711,-0.020009078085422516,0.12453483045101166,0.010897599160671234,1.842957135522738e-05,580.1399237580514
114,21:33:22:468,0.0003021240117959678,0.0,1.0,161.79509707911876,365.83057484865884,,-432.86138916015625,34.89950180053711,-0.020009078085422516,0.12453483045101166,0.010897599160671234,1.842957135522738e-05,580.1399237580514
115,21:33:22:490,0.0003021240117959678,0.0,1.0,161.64921177286516,365.68404911031985,,-432.7154846191406,34.89956283569336,-0.019993742927908897,0.12532030045986176,0.011821158230304718,1.0705972272262443e-05,579.9940419250598
116,21:33:22:516,0.0003021240117959678,0.0,1.0,161.57005968075947,365.6047199621901,,-432.6363220214844,34.89959716796875,-0.019994011148810387,0.12603063881397247,0.012320173904299736,7.804995220794808e-06,579.9148915897324
117,21:33:22:525,0.0003021240117959678,0.0,1.0,161.57005968075947,365.6047199621901,,-432.6363220214844,34.89959716796875,-0.019994011148810387,0.12603063881397247,0.012320173904299736,7.804995220794808e-06,579.9148915897324
118,21:33:22:581,0.0003021240117959678,0.0,1.0,161.4326878023574,365.4668794351415,,-432.4989318847656,34.899654388427734,-0.019987067207694054,0.12764939665794373,0.013183677569031715,1.9410448715007078e-07,579.777522765957
119,21:33:22:606,0.0003021240117959678,0.0,1.0,161.4326878023574,365.4668794351415,,-432.4989318847656,34.899654388427734,-0.019987067207694054,0.12764939665794373,0.013183677569031715,1.9410448715007078e-07,579.777522765957
120,21:33:22:636,0.0003021240117959678,0.0,1.0,161.2677006686639,365.30129828339284,,-432.33392333984375,34.89972686767578,-0.019997863098978996,0.13003313541412354,0.01421437319368124,-1.6284481358860847e-12,579.6125392221753
121,21:33:22:660,0.0003021240117959678,0.0,1.0,161.22165580269393,365.25520633878097,,-432.2878723144531,34.89974594116211,-0.020008735358715057,0.130757138133049,0.01450042612850666,0.0,579.5664953541814
122,21:33:22:689,0.0003021240117959678,0.0,1.0,161.16892847810092,365.2023442381397,,-432.183349609375,34.89979553222656,-0.020055389031767845,0.13249200582504272,0.015147778205573559,-3.0517576306010596e-05,579.5137693439357
123,21:33:22:709,0.0003021240117959678,0.0,1.0,161.0697598617261,365.10305964902693,,-432.1359558105469,34.89981460571289,-0.0200569536536932,0.13329796493053436,0.015440420247614384,-3.0517576306010596e-05,579.4146028952556
124,21:33:22:736,0.0003021240117959678,0.0,1.0,161.01578132782922,365.0490239661657,,-432.08197021484375,34.89984130859375,-0.020075226202607155,0.13424736261367798,0.01577313244342804,-3.051757266803179e-05,579.360625553335
125,21:33:22:768,0.0003021240117959678,0.0,1.0,160.95283219842173,364.9860066791396,,-432.0190124511719,34.89986801147461,-0.020058173686265945,0.13534702360630035,0.01616000197827816,-3.051757266803179e-05,579.2976776757291
126,21:33:22:791,0.0003021240117959678,0.0,1.0,160.95283219842173,364.9860066791396,,-432.0190124511719,34.89986801147461,-0.020058173686265945,0.13534702360630035,0.01616000197827816,-3.051757266803179e-05,579.2976776757291
127,21:33:22:817,0.0003021240117959678,0.0,1.0,160.76300713443075,364.7956181720227,,-431.82916259765625,34.899959564208984,-0.02006855048239231,0.13881675899028778,0.017319466918706894,-3.0517576306010596e-05,579.1078565807608
128,21:33:22:845,0.0003021240117959678,0.0,1.0,160.6449808201315,364.677385265243,,-431.71112060546875,34.900020599365234,-0.020116005092859268,0.14103657007217407,0.01803443394601345,-3.051757266803179e-05,578.9898329068759
129,21:33:22:871,0.0003021240117959678,0.0,1.0,160.57885848515392,364.61120455384264,,-431.6449890136719,34.90005111694336,-0.020098190754652023,0.14227966964244843,0.01843378320336342,-3.0517576306010596e-05,578.9237118535452
130,21:33:22:899,0.0003021240117959678,0.0,1.0,160.4670260634352,364.49920771740403,,-431.53314208984375,34.900108337402344,-0.020114745944738388,0.14439702033996582,0.019105657935142517,-3.0517578125e-05,578.8118816510744
131,21:33:22:925,0.0003021240117959678,0.0,1.0,160.39177971047934,364.4238926225881,,-431.4578857421875,34.900150299072266,-0.02010990120470524,0.14582453668117523,0.01955556496977806,-6.103515261202119e-05,578.7366368180803
132,21:33:22:958,0.0003021240117959678,0.0,1.0,160.39177971047934,364.4238926225881,,-431.4578857421875,34.900150299072266,-0.02010990120470524,0.14582453668117523,0.01955556496977806,-6.103515261202119e-05,578.7366368180803
133,21:33:22:994,0.0003021240117959678,0.0,1.0,160.15566579021092,364.1871399250835,,-431.22174072265625,34.90028381347656,-0.02016567252576351,0.15031880140304565,0.020956385880708694,-6.103515625e-05,578.5005279567731
134,21:33:23:019,0.0003021240117959678,0.0,1.0,160.0836844720552,364.1150999433427,,-431.1497497558594,34.900325775146484,-0.020198211073875427,0.15169166028499603,0.02137994021177292,-6.103516352595761e-05,578.4285482343013
135,21:33:23:046,0.0003021240117959678,0.0,1.0,159.95189702404716,363.98313382281947,,-431.0179443359375,34.90039825439453,-0.02021736092865467,0.154157355427742,0.022151878103613853,-6.103516352595761e-05,578.2967636094443
136,21:33:23:070,0.0003021240117959678,0.0,1.0,159.87619301763633,363.9073710396182,,-430.9422302246094,34.90044021606445,-0.020244788378477097,0.1555916965007782,0.02259286306798458,-6.103515625e-05,578.2210611954245
137,21:33:23:096,0.0003021240117959678,0.0,1.0,159.8057679956803,363.8368982396405,,-430.8717956542969,34.900482177734375,-0.020253105089068413,0.15689626336097717,0.023001590743660927,-9.155274165095761e-05,578.1506376090305
138,21:33:23:129,0.0003021240117959678,0.0,1.0,159.72917917433088,363.760153229707,,-430.7951965332031,34.90052795410156,-0.020272331312298775,0.15831011533737183,0.023444442078471184,-9.155274165095761e-05,578.0740504505443
139,21:33:23:153,0.0003021240117959678,0.0,1.0,159.72917917433088,363.760153229707,,-430.7951965332031,34.90052795410156,-0.020272331312298775,0.15831011533737183,0.023444442078471184,-9.155274165095761e-05,578.0740504505443
140,21:33:23:178,0.0003021240117959678,0.0,1.0,159.41061730627285,363.44071273603663,,-430.4765930175781,34.900718688964844,-0.02012248896062374,0.14524395763874054,0.02545587345957756,-9.155274892691523e-05,577.7554941453254
141,21:33:23:204,0.0003021240117959678,0.0,1.0,159.33866537125834,363.36871532309067,,-430.4046325683594,34.90076446533203,-0.02005886100232601,0.13512162864208221,0.025980403646826744,-9.155272709904239e-05,577.6835430507482
142,21:33:23:232,0.0003021240117959678,0.0,1.0,159.1910700872045,363.22092811117716,,-430.25701904296875,34.900856018066406,-0.01992599479854107,0.11352457106113434,0.027080275118350983,-0.0001220703125,577.5359495976257
143,21:33:23:257,0.0003021240117959678,0.0,1.0,159.1910700872045,363.22092811117716,,-430.25701904296875,34.900856018066406,-0.01992599479854107,0.11352457106113434,0.027080275118350983,-0.0001220703125,577.5359495976257
144,21:33:23:283,0.0003021240117959678,0.0,1.0,159.1910700872045,363.22092811117716,,-430.25701904296875,34.900856018066406,-0.01992599479854107,0.11352457106113434,0.027080275118350983,-0.0001220703125,577.5359495976257
145,21:33:23:306,0.0003021240117959678,0.0,1.0,158.91208592256254,362.9413574881387,,-429.9779968261719,34.901039123535156,-0.020047949627041817,0.13355068862438202,0.028642207384109497,-0.00018310548330191523,577.25697163796
146,21:33:23:331,0.0003021240117959678,0.0,1.0,158.75219685318035,362.78131272402334,,-429.8180847167969,34.901145935058594,-0.020189475268125534,0.15977177023887634,0.02937318943440914,-0.00018310543964616954,577.0970867441642
147,21:33:23:358,0.0003021240117959678,0.0,1.0,158.66459321390786,362.69366606159195,,-429.73046875,34.901206970214844,-0.02030620537698269,0.1743132472038269,0.029755987226963043,-0.00018310548330191523,577.0094853698927
148,21:33:23:386,0.0003021240117959678,0.0,1.0,158.49561120951873,362.5245265173195,,-429.56146240234375,34.90132522583008,-0.020486868917942047,0.19949615001678467,0.030481314286589622,-0.00018310546875,576.8405077890561
149,21:33:23:412,0.0003021240117959678,0.0,1.0,158.49561120951873,362.5245265173195,,-429.56146240234375,34.90132522583008,-0.020486868917942047,0.19949615001678467,0.030481314286589622,-0.00018310546875,576.8405077890561
150,21:33:23:437,0.0003021240117959678,0.0,1.0,158.49561120951873,362.5245265173195,,-429.56146240234375,34.90132522583008,-0.020486868917942047,0.19949615001678467,0.030481314286589622,-0.00018310546875,576.8405077890561
151,21:33:23:462,0.0003021240117959678,0.0,1.0,158.09109456060074,362.11917889448387,,-429.1568908691406,34.9016227722168,-0.020616797730326653,0.24282003939151764,0.03221157565712929,-0.00012207029067212716,576.4359995927182
152,21:33:23:487,0.0003021240117959678,0.0,1.0,157.9894842918258,362.0175260372752,,-429.0552673339844,34.90169906616211,-0.020640715956687927,0.24936336278915405,0.03264943137764931,-0.00012207030522404239,576.3343912241435
153,21:33:23:515,0.0003021240117959678,0.0,1.0,157.79560201134345,361.82348751658867,,-428.8613586425781,34.9018440246582,-0.020679473876953125,0.25799670815467834,0.033489130437374115,-9.155272709904239e-05,576.1405127698567
154,21:33:23:541,0.0003021240117959678,0.0,1.0,157.6770878912593,361.70492784566494,,-428.7428283691406,34.90193557739258,-0.02069835551083088,0.2613230347633362,0.0340055413544178,-9.155272709904239e-05,576.0220009785445
155,21:33:23:567,0.0003021240117959678,0.0,1.0,157.6770878912593,361.70492784566494,,-428.7428283691406,34.90193557739258,-0.02069835551083088,0.2613230347633362,0.0340055413544178,-9.155272709904239e-05,576.0220009785445
156,21:33:23:608,0.0003021240117959678,0.0,1.0,157.29157999398512,361.3188564319237,,-428.3572692871094,34.90223693847656,-0.020742416381835938,0.26610416173934937,0.03570105507969856,-9.1552734375e-05,575.6365000684867
157,21:33:23:636,0.0003021240117959678,0.0,1.0,157.08671251522077,361.1138538489334,,-428.1523742675781,34.902400970458984,-0.020755385980010033,0.26617929339408875,0.03661061078310013,-9.1552734375e-05,575.4316363228068
158,21:33:23:662,0.0003021240117959678,0.0,1.0,156.96996791289945,360.9970711275497,,-428.0356140136719,34.90249252319336,-0.020760154351592064,0.26576948165893555,0.03713122382760048,-0.00012207030522404239,575.3148937419653
159,21:33:23:687,0.0003021240117959678,0.0,1.0,156.74020131236685,360.767144696573,,-427.8058166503906,34.90268325805664,-0.020764769986271858,0.2643488049507141,0.03816018998622894,-0.0001220703125,575.0851311914994
160,21:33:23:721,0.0003021240117959678,0.0,1.0,156.74020131236685,360.767144696573,,-427.8058166503906,34.90268325805664,-0.020764769986271858,0.2643488049507141,0.03816018998622894,-0.0001220703125,575.0851311914994
161,21:33:23:747,0.0003021240117959678,0.0,1.0,156.74020131236685,360.767144696573,,-427.8058166503906,34.90268325805664,-0.020764769986271858,0.2643488049507141,0.03816018998622894,-0.0001220703125,575.0851311914994
162,21:33:23:773,0.0003021240117959678,0.0,1.0,156.1811033465624,360.2071156796515,,-427.24664306640625,34.90315246582031,-0.020758742466568947,0.25931495428085327,0.0406804233789444,-0.00018310546875,574.5260430341082
163,21:33:23:799,0.0003021240117959678,0.0,1.0,156.05544886684973,360.08142877252294,,-427.1209716796875,34.90325927734375,-0.0207553468644619,0.25809234380722046,0.04124928265810013,-0.00018310543964616954,574.4003906182458
164,21:33:23:831,0.0003021240117959678,0.0,1.0,155.80661148340465,359.8324435167838,,-426.8721008300781,34.90347671508789,-0.020746802911162376,0.25570178031921387,0.04237772896885872,-0.00021362303232308477,574.1515573100259
165,21:33:23:881,0.0003021240117959678,0.0,1.0,155.66820197664637,359.69399638958055,,-426.7336730957031,34.903602600097656,-0.020741423591971397,0.2543903887271881,0.043006327003240585,-0.00021362303232308477,574.0131499761177
166,21:33:23:906,0.0003021240117959678,0.0,1.0,155.50547408380714,359.53122152164985,,-426.5709228515625,34.903751373291016,-0.020735206082463264,0.25298336148262024,0.04374563694000244,-0.000244140625,573.8504248371232
167,21:33:23:931,0.0003021240117959678,0.0,1.0,155.08325837020695,359.1085318266785,,-426.1486511230469,34.90414047241211,-0.020614242181181908,0.2341388761997223,0.045816875994205475,-0.00027465823222883046,573.4282153205997
168,21:33:23:968,0.0003021240117959678,0.0,1.0,154.82380020948125,358.8489275805424,,-425.88916015625,34.90438461303711,-0.020395392552018166,0.20136763155460358,0.04736892506480217,-0.00030517578125,573.1687597619963
169,21:33:24:023,0.0003021240117959678,0.0,1.0,154.38184003035883,358.40651769515847,,-425.4471435546875,34.904808044433594,-0.020089225843548775,0.15581026673316956,0.05015093460679054,-0.00042724606464616954,572.7268043203362
170,21:33:24:065,0.0003021240117959678,0.0,1.0,154.13626868666816,358.1608369920403,,-425.2015380859375,34.90505599975586,-0.020122794434428215,0.16078947484493256,0.05147014558315277,-0.00048828116268850863,572.4812371613724
171,21:33:24:091,0.0003021240117959678,0.0,1.0,153.84318845282772,357.86760838390336,,-424.9084167480469,34.905357360839844,-0.020246237516403198,0.17910121381282806,0.052881743758916855,-0.0005493164644576609,572.1881623185183
172,21:33:24:124,0.0003021240117959678,0.0,1.0,153.68897405444702,357.7132209793275,,-424.6252746582031,34.90565872192383,-0.020387038588523865,0.19991280138492584,0.05414144694805145,-0.0005798339261673391,572.0339506867842
173,21:33:24:150,0.0003021240117959678,0.0,1.0,153.40376597982058,357.42802390049377,,-424.46893310546875,34.905826568603516,-0.020460013300180435,0.21073181927204132,0.054810814559459686,-0.0005798339261673391,571.7487477657073
174,21:33:24:174,0.0003021240117959678,0.0,1.0,153.40376597982058,357.42802390049377,,-424.46893310546875,34.905826568603516,-0.020460013300180435,0.21073181927204132,0.054810814559459686,-0.0005798339261673391,571.7487477657073
175,21:33:24:199,0.0003021240117959678,0.0,1.0,153.40376597982058,357.42802390049377,,-424.46893310546875,34.905826568603516,-0.020460013300180435,0.21073181927204132,0.054810814559459686,-0.0005798339261673391,571.7487477657073
176,21:33:24:221,0.0003021240117959678,0.0,1.0,152.85193320828756,356.8756680696058,,-423.9170227050781,34.906436920166016,-0.020653648301959038,0.23933663964271545,0.057100992649793625,-0.0005798339261673391,571.1969247148344
177,21:33:24:249,0.0003021240117959678,0.0,1.0,152.7221902925736,356.745747360108,,-423.6150207519531,34.90678024291992,-0.020721320062875748,0.24932238459587097,0.058332767337560654,-0.0005493164644576609,571.0671838613533
178,21:33:24:290,0.0003021240117959678,0.0,1.0,152.22827084787397,356.2517409295695,,-423.29327392578125,34.90715026855469,-0.020768165588378906,0.25620037317276,0.05964211747050285,-0.0005493164644576609,570.5732721477916
179,21:33:24:324,0.0003021240117959678,0.0,1.0,152.0369220485008,356.0603627322531,,-423.1018981933594,34.90737533569336,-0.02078559808433056,0.2587343752384186,0.06042177230119705,-0.0005493164644576609,570.3819262984448
180,21:33:24:348,0.0003021240117959678,0.0,1.0,152.0369220485008,356.0603627322531,,-423.1018981933594,34.90737533569336,-0.02078559808433056,0.2587343752384186,0.06042177230119705,-0.0005493164644576609,570.3819262984448
181,21:33:24:390,-0.043005265295505524,0.0,1.0,151.4640850587588,355.48697056499725,,-422.3681945800781,34.902740478515625,-0.02080024592578411,0.2608380913734436,-0.2084655612707138,0.07537543773651123,569.8090680201951
182,21:33:24:411,-0.043005265295505524,0.0,1.0,151.15357731878723,355.1763926834808,,-422.21832275390625,34.90087890625,-0.020797308534383774,0.2603941261768341,-0.30303955078125,0.09083164483308792,569.4985327001302
183,21:33:24:425,-0.043005265295505524,0.0,1.0,150.98624966977516,355.0090281558374,,-422.0509338378906,34.898460388183594,-0.020792769268155098,0.2597110867500305,-0.4190063178539276,0.10657711327075958,569.3311859028166
184,21:33:24:452,-0.043005265295505524,0.0,1.0,150.80663388350567,354.82936559383546,,-421.8712463378906,34.89547348022461,-0.0207865908741951,0.2587890326976776,-0.553314208984375,0.12139324098825455,569.1515462538312
185,21:33:24:480,-0.043005265295505524,0.0,1.0,150.5956969684045,354.6183667814599,,-421.66021728515625,34.89148712158203,-0.020778503268957138,0.25758689641952515,-0.7207335233688354,0.13549236953258514,568.9405772998389
186,21:33:24:527,-0.0437103696167469,0.0,1.0,149.97400997600752,353.9960887650131,,-421.0382080078125,34.87630844116211,-0.020749244838953018,0.25321558117866516,-1.2614744901657104,0.16816936433315277,568.318765191363
187,21:33:24:553,-0.046530831605196,0.0,1.0,149.78711161088435,353.80912446124785,,-420.8511962890625,34.87070083618164,-0.02073955535888672,0.2517744302749634,-1.4347230195999146,0.17655400931835175,568.1318199123697
188,21:33:24:580,-0.04935137555003166,0.0,1.0,149.44115199949272,353.4629579767784,,-420.5050048828125,34.85895538330078,-0.020721396431326866,0.2491106390953064,-1.767944097518921,0.19186830520629883,567.7857609736617
189,21:33:24:613,-0.05610089749097824,0.0,1.0,149.04668040076461,353.0682158292009,,-420.1102294921875,34.843143463134766,-0.020700568333268166,0.24598924815654755,-2.174041509628296,0.21224404871463776,567.3911537143711
190,21:33:24:656,-0.05610089749097824,0.0,1.0,149.04668040076461,353.0682158292009,,-420.1102294921875,34.843143463134766,-0.020700568333268166,0.24598924815654755,-2.174041509628296,0.21224404871463776,567.3911537143711
191,21:33:24:676,-0.05610089749097824,0.0,1.0,149.04668025833226,353.0678253177051,,-419.44677734375,34.80997085571289,-0.020636213943362236,0.23650211095809937,-2.935913324356079,0.25413039326667786,567.3911535074182
192,21:33:24:713,-0.06053372472524643,0.0,1.0,148.03114387456972,352.0515107261056,,-419.09368896484375,34.78896713256836,-0.02048412337899208,0.2139488309621811,-3.3711860179901123,0.272737056016922,566.3751350499485
193,21:33:24:740,-0.06063447520136833,0.0,1.0,147.8499920568927,351.870243541415,,-418.9123229980469,34.77726364135742,-0.020377235487103462,0.19810280203819275,-3.6002817153930664,0.2810027003288269,566.1938757768875
194,21:33:24:768,-0.06002998352050781,0.0,1.0,147.43298803679804,351.4528500846879,,-418.4947814941406,34.747886657714844,-0.020134277641773224,0.16218283772468567,-4.1387038230896,0.29797786474227905,565.7765978389039
195,21:33:24:792,-0.06002998352050781,0.0,1.0,147.43298803679804,351.4528500846879,,-418.4947814941406,34.747886657714844,-0.020134277641773224,0.16218283772468567,-4.1387038230896,0.29797786474227905,565.7765978389039
196,21:33:24:817,-0.06002998352050781,0.0,1.0,147.43298803679804,351.4528500846879,,-418.4947814941406,34.747886657714844,-0.020134277641773224,0.16218283772468567,-4.1387038230896,0.29797786474227905,565.7765978389039
197,21:33:24:842,-0.049149904400110245,0.0,1.0,146.59441644398768,350.61294076191143,,-417.6549377441406,34.679100036621094,-0.02014877274632454,0.16446411609649658,-5.182284832000732,0.3132822811603546,564.937364331997
198,21:33:24:867,-0.04230016469955444,0.0,1.0,146.3801223149803,350.3984445770808,,-417.4402770996094,34.659488677978516,-0.020203514024615288,0.1725374013185501,-5.433627128601074,0.314266175031662,564.7228756832113
199,21:33:24:903,-0.033637885004282,0.0,1.0,145.963611100846,349.9814321504726,,-417.02301025390625,34.619564056396484,-0.020308570936322212,0.18804876506328583,-5.886417865753174,0.3082044720649719,564.305960527937
200,21:33:24:931,-0.01923549361526966,0.0,1.0,145.72709408157434,349.7446697050804,,-416.7860412597656,34.595947265625,-0.020363083109259605,0.19608789682388306,-6.115726947784424,0.29953426122665405,564.0691992211321
201,21:33:24:956,-0.01923549361526966,0.0,1.0,145.72709408157434,349.7446697050804,,-416.7860412597656,34.595947265625,-0.020363083109259605,0.19608789682388306,-6.115726947784424,0.29953426122665405,564.0691992211321
202,21:33:24:983,0.004531863611191511,0.0,1.0,145.0099008694027,349.02631591688345,,-416.0674133300781,34.5224494934082,-0.0204911045730114,0.21482309699058533,-6.58838415145874,0.2341434359550476,563.3512194707665
203,21:33:25:011,0.009365875273942947,0.0,1.0,144.77881744437036,348.7949642449881,,-415.8358459472656,34.49814987182617,-0.020518988370895386,0.2189212143421173,-6.679418563842773,0.21103523671627045,563.1198672948445
204,21:33:25:048,0.009365875273942947,0.0,1.0,144.50849342093915,348.52422703559904,,-415.31195068359375,34.44226837158203,-0.020557746291160583,0.2246585637331009,-6.805334568023682,0.1670219749212265,562.8492197783567
205,21:33:25:078,0.014199934899806976,0.0,1.0,144.01057183286028,348.0256649702668,,-415.06591796875,34.41569900512695,-0.0205673985183239,0.22613389790058136,-6.829748153686523,0.1481994390487671,562.3506778538197
206,21:33:25:110,0.019638342782855034,0.0,1.0,143.52724032943908,347.54161215928616,,-414.58148193359375,34.36309814453125,-0.020574798807501793,0.22727453708648682,-6.817724704742432,0.11096668988466263,561.8667175333421
207,21:33:25:138,0.024472588673233986,0.0,1.0,143.2523386284808,347.26635211351555,,-414.3059387207031,34.33314895629883,-0.020573386922478676,0.22710378468036652,-6.779088973999023,0.0906834527850151,561.5914485149018
208,21:33:25:188,0.04149434342980385,0.0,1.0,142.92908954485526,346.94266190634755,,-413.98193359375,34.29836654663086,-0.02056705392897129,0.226188525557518,-6.690923690795898,0.059826791286468506,561.2677637446013
209,21:33:25:216,0.04149434342980385,0.0,1.0,142.31133609571742,346.32380549551254,,-413.36273193359375,34.233402252197266,-0.0205466840416193,0.22323788702487946,-6.412968635559082,-0.0017700194148346782,560.6491701046722
210,21:33:25:244,0.05358235538005829,0.0,1.0,142.06426078466322,346.0764104217064,,-413.1150817871094,34.20819854736328,-0.020535850897431374,0.22168061137199402,-6.263737678527832,-0.028350830078125,560.4017590897182
211,21:33:25:287,0.060735225677490234,0.0,1.0,141.54470115190534,345.5560811659015,,-412.5943298339844,34.157066345214844,-0.020511435344815254,0.2181698977947235,-5.881107330322266,-0.08398435264825821,559.8815009053958
212,21:33:25:313,0.060735225677490234,0.0,1.0,141.54470115190534,345.5560811659015,,-412.5943298339844,34.157066345214844,-0.020511435344815254,0.2181698977947235,-5.881107330322266,-0.08398435264825821,559.8815009053958
213,21:33:25:339,0.06315324455499649,0.0,1.0,140.7660150642757,344.77609430173715,,-411.8139343261719,34.086387634277344,-0.020471839234232903,0.21243253350257874,-5.145845890045166,-0.16915889084339142,559.1018063940318
214,21:33:25:366,0.06063447520136833,0.0,1.0,140.28751976517813,344.2969654870575,,-411.3344421386719,34.04669189453125,-0.0204495619982481,0.20918136835098267,-4.632630825042725,-0.2122497409582138,558.622720813001
215,21:33:25:394,0.05207126960158348,0.0,1.0,140.01947352066512,344.02862565541625,,-411.06585693359375,34.025691986083984,-0.02043807879090309,0.20750796794891357,-4.337402820587158,-0.2317199409008026,558.3543545806683
216,21:33:25:420,0.05207126960158348,0.0,1.0,139.73033472861644,343.7391734058663,,-410.7761535644531,34.004058837890625,-0.020426597446203232,0.20578676462173462,-4.018067359924316,-0.249755859375,558.0648800255938
217,21:33:25:448,0.045221321284770966,0.0,1.0,139.51330895423848,343.5219301069093,,-410.5587158203125,33.9885139465332,-0.02041831985116005,0.2045641541481018,-3.7808544635772705,-0.2609557807445526,557.8476089240302
218,21:33:25:472,0.045221321284770966,0.0,1.0,139.51330895423848,343.5219301069093,,-410.5587158203125,33.9885139465332,-0.02041831985116005,0.2045641541481018,-3.7808544635772705,-0.2609557807445526,557.8476089240302
219,21:33:25:497,0.03917764127254486,0.0,1.0,138.71313937154116,342.7206271842757,,-409.7571105957031,33.93600845336914,-0.02039237879216671,0.20058898627758026,-2.955231189727783,-0.2856749892234802,557.0465830823939
220,21:33:25:523,0.03847256675362587,0.0,1.0,138.24988200420458,342.2568806981649,,-409.2930908203125,33.90932846069336,-0.02037864550948143,0.19851261377334595,-2.506988286972046,-0.2974547743797302,556.5828708847382
221,21:33:25:549,0.03847256675362587,0.0,1.0,137.9799442184902,341.9867111709701,,-409.0227355957031,33.8951301574707,-0.020370865240693092,0.19734464585781097,-2.254089832305908,-0.3047789931297302,556.3126840368337
222,21:33:25:577,0.03756605088710785,0.0,1.0,137.4931300401776,341.49943182138674,,-408.53521728515625,33.87195587158203,-0.020357590168714523,0.19537754356861115,-1.810546636581421,-0.317901611328125,555.8254507124467
223,21:33:25:602,0.03756605088710785,0.0,1.0,137.4931300401776,341.49943182138674,,-408.53521728515625,33.87195587158203,-0.020357590168714523,0.19537754356861115,-1.810546636581421,-0.317901611328125,555.8254507124467
224,21:33:25:627,0.03756605088710785,0.0,1.0,137.4931300401776,341.49943182138674,,-408.53521728515625,33.87195587158203,-0.020357590168714523,0.19537754356861115,-1.810546636581421,-0.317901611328125,555.8254507124467
225,21:33:25:651,0.02084689401090145,0.0,1.0,136.58258911418443,340.58782904371446,,-407.6235046386719,33.83567810058594,-0.020338820293545723,0.1924542337656021,-1.093414068222046,-0.3182372450828552,554.9142142034772
226,21:33:25:677,0.002517700893804431,0.0,1.0,136.08998905826016,340.09485704893393,,-407.1303405761719,33.81939697265625,-0.020330658182501793,0.19117015600204468,-0.7821045517921448,-0.30743408203125,554.4212807741897
227,21:33:25:716,0.002517700893804431,0.0,1.0,135.56838376572261,339.5728656125914,,-406.6081848144531,33.80429458618164,-0.020322760567069054,0.1899338960647583,-0.52740478515625,-0.2875975966453552,553.8993500787483
228,21:33:25:742,-0.0063446140848100185,0.0,1.0,135.28110409103527,339.2854377708196,,-406.32061767578125,33.7967643737793,-0.020318832248449326,0.18933282792568207,-0.41656494140625,-0.2754516303539276,553.6119015630552
229,21:33:25:767,-0.0063446140848100185,0.0,1.0,135.28110409103527,339.2854377708196,,-406.32061767578125,33.7967643737793,-0.020318832248449326,0.18933282792568207,-0.41656494140625,-0.2754516303539276,553.6119015630552
230,21:33:25:791,-0.0063446140848100185,0.0,1.0,135.28110409103527,339.2854377708196,,-406.32061767578125,33.7967643737793,-0.020318832248449326,0.18933282792568207,-0.41656494140625,-0.2754516303539276,553.6119015630552
231,21:33:25:810,-0.0006042480817995965,0.0,1.0,134.36439662260653,338.36815841961516,,-405.403076171875,33.77645492553711,-0.020306510850787163,0.18753649294376373,-0.178863525390625,-0.238677978515625,552.694705106291
232,21:33:25:843,0.0014099122490733862,0.0,1.0,133.82951911183895,337.83388476956225,,-404.8677673339844,33.76711654663086,-0.02030002512037754,0.18660758435726166,-0.0898437425494194,-0.22369384765625,552.1595771228134
233,21:33:25:868,0.0014099122490733862,0.0,1.0,133.6071524952849,337.6141376441615,,-404.3816833496094,33.76008987426758,-0.02029411308467388,0.18578113615512848,-0.02770995907485485,-0.2121276706457138,551.9371133556366
234,21:33:25:876,0.0014099122490733862,0.0,1.0,133.34379332797945,337.3507549714356,,-404.3816833496094,33.76008987426758,-0.02029411308467388,0.18578113615512848,-0.02770995907485485,-0.2121276706457138,551.6736443776364
235,21:33:25:913,0.0014099122490733862,0.0,1.0,133.34379332797945,337.3507549714356,,-404.3816833496094,33.76008987426758,-0.02029411308467388,0.18578113615512848,-0.02770995907485485,-0.2121276706457138,551.6736443776364
236,21:33:25:928,0.0014099122490733862,0.0,1.0,133.34379332797945,337.3507549714356,,-404.3816833496094,33.76008987426758,-0.02029411308467388,0.18578113615512848,-0.02770995907485485,-0.2121276706457138,551.6736443776364
237,21:33:25:953,0.0009063720935955644,0.0,1.0,132.11015477756573,336.1204325520177,,-403.1472473144531,33.74722671508789,-0.020281486213207245,0.18397796154022217,0.0745646208524704,-0.182861328125,550.4395509213228
238,21:33:25:987,0.0003021240117959678,0.0,1.0,131.53751432221605,335.54761664594537,,-402.57427978515625,33.743167877197266,-0.020276641473174095,0.1832539588212967,0.10282279551029205,-0.1683044284582138,549.8667263853333
239,21:33:26:033,-0.0009063720935955644,0.0,1.0,130.98995551334423,334.99975045749835,,-402.02642822265625,33.74015808105469,-0.020272444933652878,0.18261875212192535,0.11952976882457733,-0.15283203125,549.3190036842213
240,21:33:26:057,-0.0015106202336028218,0.0,1.0,130.66016933824926,334.6697822764565,,-401.69647216796875,33.738670349121094,-0.02027004212141037,0.18227042257785797,0.12512211501598358,-0.1436462551355362,548.9891232870965
241,21:33:26:099,-0.0015106202336028218,0.0,1.0,130.66016933824926,334.6697822764565,,-401.69647216796875,33.738670349121094,-0.02027004212141037,0.18227042257785797,0.12512211501598358,-0.1436462551355362,548.9891232870965
242,21:33:26:128,-0.0015106202336028218,0.0,1.0,129.43901932023152,333.4479903916744,,-400.4747314453125,33.73484802246094,-0.020262641832232475,0.18115027248859406,0.122834712266922,-0.10968017578125,547.7676461563029
243,21:33:26:153,-0.0015106202336028218,0.0,1.0,129.11385210890586,333.1227206507785,,-400.1494140625,33.734188079833984,-0.020260848104953766,0.1808975487947464,0.11797526478767395,-0.1015930026769638,547.4423963280335
244,21:33:26:182,-0.004129030741751194,0.0,1.0,128.56884265693412,332.577552092742,,-399.6041564941406,33.73324966430664,-0.020258178934454918,0.1804877370595932,0.10304878652095795,-0.08673093467950821,546.8972496837677
245,21:33:26:219,-0.00674744788557291,0.0,1.0,128.23760355117105,332.2462494780303,,-399.27276611328125,33.732723236083984,-0.020256690680980682,0.18026234209537506,0.08853793889284134,-0.0773315280675888,546.5659271084506
246,21:33:26:249,-0.00674744788557291,0.0,1.0,128.23760355117105,332.2462494780303,,-399.27276611328125,33.732723236083984,-0.020256690680980682,0.18026234209537506,0.08853793889284134,-0.0773315280675888,546.5659271084506
247,21:33:26:256,-0.00674744788557291,0.0,1.0,128.23760355117105,332.2462494780303,,-399.27276611328125,33.732723236083984,-0.020256690680980682,0.18026234209537506,0.08853793889284134,-0.0773315280675888,546.5659271084506
248,21:33:26:301,-0.01087651215493679,0.0,1.0,126.66401694988333,330.6723386915252,,-397.69842529296875,33.72917938232422,-0.020168837159872055,0.167189359664917,-0.0740966722369194,-0.02328491024672985,544.9919151309006
249,21:33:26:327,-0.01087651215493679,0.0,1.0,126.3813543157413,330.3896485689133,,-397.4156188964844,33.728302001953125,-0.02010166086256504,0.15723778307437897,-0.11544797569513321,-0.014953612349927425,544.7091697810328
250,21:33:26:353,-0.00866091251373291,0.0,1.0,126.07511582039993,330.08338354967196,,-396.79608154296875,33.72611618041992,-0.019915809854865074,0.12976676225662231,-0.2105407565832138,0.0002399384102318436,544.4028394244178
251,21:33:26:400,-0.00866091251373291,0.0,1.0,125.76213972257679,329.7703741129681,,-396.79608154296875,33.72611618041992,-0.019915809854865074,0.12976676225662231,-0.2105407565832138,0.0002399384102318436,544.0897669307232
252,21:33:26:407,-0.00866091251373291,0.0,1.0,125.76213972257679,329.7703741129681,,-396.79608154296875,33.72611618041992,-0.019915809854865074,0.12976676225662231,-0.2105407565832138,0.0002399384102318436,544.0897669307232
253,21:33:26:433,0.0006042480817995965,0.0,1.0,124.51150522154435,328.519618966113,,-395.5447692871094,33.72132873535156,-0.019839515909552574,0.1186198890209198,-0.356414794921875,0.007706710137426853,542.8387383865728
254,21:33:26:458,0.002517700893804431,0.0,1.0,124.20122261311076,328.2093168212218,,-395.23431396484375,33.72003936767578,-0.01987338997423649,0.12366056442260742,-0.3802489936351776,0.007943605072796345,542.5283543990054
255,21:33:26:510,0.003222657600417733,0.0,1.0,123.61750879536638,327.6255668149468,,-394.6502685546875,33.7175178527832,-0.01994827203452587,0.13477328419685364,-0.4116820991039276,0.007509994320571423,541.9444460799424
256,21:33:26:540,0.003222657600417733,0.0,1.0,123.61750879536638,327.6255668149468,,-394.6502685546875,33.7175178527832,-0.01994827203452587,0.13477328419685364,-0.4116820991039276,0.007509994320571423,541.9444460799424
257,21:33:26:562,0.003222657600417733,0.0,1.0,122.52836352682932,326.53634692082744,,-393.56048583984375,33.71241760253906,-0.020076027140021324,0.1536792516708374,-0.4337157905101776,0.0069691212847828865,540.8549227464734
258,21:33:26:589,0.003222657600417733,0.0,1.0,122.28891375301984,326.2968757288996,,-392.9812316894531,33.70952606201172,-0.020124472677707672,0.16082362830638885,-0.4311522841453552,0.0068916743621230125,540.6153872799562
259,21:33:26:616,0.003222657600417733,0.0,1.0,121.63559268088669,325.6435209978473,,-392.66717529296875,33.70791244506836,-0.02014617808163166,0.1640133261680603,-0.426422119140625,0.006781180389225483,539.9618278252578
260,21:33:26:643,0.003222657600417733,0.0,1.0,121.36680674071461,325.3747198289408,,-392.0438537597656,33.70466613769531,-0.02018924616277218,0.1677016317844391,-0.4119262397289276,0.005278604105114937,539.692942101596
261,21:33:26:669,0.003222657600417733,0.0,1.0,121.01265631021866,325.0205518478556,,-392.0438537597656,33.70466613769531,-0.02018924616277218,0.1677016317844391,-0.4119262397289276,0.005278604105114937,539.3386590139285
262,21:33:26:694,0.003222657600417733,0.0,1.0,121.01265631021866,325.0205518478556,,-392.0438537597656,33.70466613769531,-0.02018924616277218,0.1677016317844391,-0.4119262397289276,0.005278604105114937,539.3386590139285
263,21:33:26:717,0.003222657600417733,0.0,1.0,119.921667347017,323.9294740916901,,-390.9521789550781,33.69889450073242,-0.02035629190504551,0.16367864608764648,-0.3734435737133026,0.0020449648145586252,538.2472526913635
264,21:33:26:745,0.003222657600417733,0.0,1.0,119.36068477847358,323.3684556950754,,-390.3908386230469,33.69594955444336,-0.020473670214414597,0.1586311310529709,-0.348968505859375,0.00015975987480487674,537.6860515870794
265,21:33:26:771,0.003222657600417733,0.0,1.0,119.04042462496825,323.04818112189025,,-390.07037353515625,33.694297790527344,-0.020546531304717064,0.15523652732372284,-0.33392333984375,-0.0010681151179596782,537.365665868562
266,21:33:26:816,0.003222657600417733,0.0,1.0,118.34674876205568,322.35446325393093,,-389.3762512207031,33.6908073425293,-0.020737724378705025,0.14882297813892365,-0.2992859184741974,-0.004547119606286287,536.6717163691019
