tick,time,steerCmd,brakeCmd,throttleCmd,distance1,distance2,distanc3,Location_X,Location_Y,Location_Z,Rotation_Pitch,Rotation_Yaw,Rotation_Roll,distance3
0,21:25:31:728,0.0,0.6212635636329651,0.6212635636329651,581.1913162748468,366.92477470501774,,-433.8999938964844,34.900001525878906,0.38474035263061523,0.0,0.0,0.0,162.82287022930745
1,21:25:31:746,0.0,0.6212635636329651,0.6212635636329651,581.1927612771536,366.9277744162455,,-433.8999938964844,34.900001525878906,0.29779067635536194,0.0,0.0,0.0,162.82375601417314
2,21:25:31:769,0.0,0.6212635636329651,0.6212635636329651,581.1927612771536,366.9277744162455,,-433.8999938964844,34.900001525878906,0.29779067635536194,0.0,0.0,0.0,162.82375601417314
3,21:25:31:794,0.0,0.6212635636329651,0.6212635636329651,581.1927612771536,366.9277744162455,,-433.8999938964844,34.900001525878906,0.29779067635536194,0.0,0.0,0.0,162.82375601417314
4,21:25:31:818,0.0,0.6212635636329651,0.6212635636329651,581.1996896078743,366.94207194962587,,-433.8999938964844,34.900001525878906,-0.1087242066860199,0.0,0.0,0.0,162.8285132394242
5,21:25:31:850,0.0,0.6212635636329651,0.6212635636329651,581.1991116718614,366.94130502637614,,-433.89959716796875,34.90029525756836,-0.09840404242277145,0.0613897368311882,-3.0517578125e-05,-0.0909423828125,162.82797928652195
6,21:25:31:875,0.0,0.6212635636329651,0.6212635636329651,581.19859879554,366.94066618966326,,-433.8992004394531,34.89974594116211,-0.0915118008852005,0.12366056442260742,-0.00030517575214616954,-0.18310546875,162.8275013726548
7,21:25:31:902,0.0,0.6212635636329651,0.6212635636329651,581.19859879554,366.94066618966326,,-433.8992004394531,34.89974594116211,-0.0915118008852005,0.12366056442260742,-0.00030517575214616954,-0.18310546875,162.8275013726548
8,21:25:31:927,0.0,0.6212635636329651,0.6212635636329651,581.19859879554,366.94066618966326,,-433.8992004394531,34.89974594116211,-0.0915118008852005,0.12366056442260742,-0.00030517575214616954,-0.18310546875,162.8275013726548
9,21:25:31:952,0.0,0.6212635636329651,0.6212635636329651,581.1978869882932,366.93952385281506,,-433.8988952636719,34.89951705932617,-0.0679783970117569,0.16522227227687836,-0.0006408691988326609,-0.23663330078125,162.82689875722224
10,21:25:31:990,0.0,0.6212635636329651,0.6212635636329651,581.1978702260144,366.9393600880965,,-433.8990173339844,34.89946365356445,-0.05994231998920441,0.1523473560810089,-0.0005187987117096782,-0.2166442573070526,162.82691966466908
11,21:25:32:019,0.0,0.6212635636329651,0.6212635636329651,581.197889605682,366.93923837121827,,-433.899169921875,34.8994140625,-0.0522267147898674,0.13456837832927704,-0.0003967284574173391,-0.1905212104320526,162.82697546846697
12,21:25:32:048,0.0,0.6212635636329651,0.6212635636329651,581.1979279339766,366.939123441908,,-433.89935302734375,34.899383544921875,-0.04384307935833931,0.11096324771642685,-0.00027465817402116954,-0.1569213569164276,162.8270535059733
13,21:25:32:075,0.0,0.6212635636329651,0.6212635636329651,581.1979458257604,366.9390633882742,,-433.8994445800781,34.899375915527344,-0.03957778960466385,0.0976785272359848,-0.00018310546875,-0.138336181640625,162.82709166322087
14,21:25:32:101,0.0,0.6212635636329651,0.6212635636329651,581.1980009393474,366.939015316781,,-433.89959716796875,34.89936447143555,-0.03393062576651573,0.0784105658531189,-0.00012207030522404239,-0.1116332933306694,162.82717374127975
15,21:25:32:107,0.0,0.6212635636329651,0.6212635636329651,581.1980009393474,366.939015316781,,-433.89959716796875,34.89936447143555,-0.03393062576651573,0.0784105658531189,-0.00012207030522404239,-0.1116332933306694,162.82717374127975
16,21:25:32:134,0.0,0.6212635636329651,0.6212635636329651,581.1980009393474,366.939015316781,,-433.89959716796875,34.89936447143555,-0.03393062576651573,0.0784105658531189,-0.00012207030522404239,-0.1116332933306694,162.82717374127975
17,21:25:32:158,0.0,0.6212635636329651,0.6212635636329651,581.1981162700804,366.93899433736436,,-433.89984130859375,34.89936447143555,-0.02646915428340435,0.050119925290346146,-3.051757266803179e-05,-0.07275390625,162.8273248078041
18,21:25:32:186,0.0,0.6212635636329651,0.6212635636329651,581.1981472992832,366.93899363068914,,-433.89990234375,34.89936828613281,-0.024731673300266266,0.042852602899074554,1.6284444495986983e-12,-0.0627746433019638,162.82736416654134
19,21:25:32:212,-0.008056660182774067,0.0,0.16952106356620789,581.1981970708757,366.9389992214573,,-433.8999938964844,34.899375915527344,-0.022312773391604424,0.032218001782894135,1.065827291313326e-05,-0.048095703125,162.82742554007885
20,21:25:32:220,-0.008056660182774067,0.0,0.16952106356620789,581.1981970708757,366.9389992214573,,-433.8999938964844,34.899375915527344,-0.022312773391604424,0.032218001782894135,1.065827291313326e-05,-0.048095703125,162.82742554007885
21,21:25:32:261,-0.008056660182774067,0.0,0.485421359539032,581.1982268800051,366.938995997848,,-433.9000549316406,34.89937973022461,-0.020503805950284004,0.02335241623222828,2.4449169359286316e-05,-0.0357971154153347,162.82746405611923
22,21:25:32:288,-0.008056660182774067,0.0,0.485421359539032,581.1982268800051,366.938995997848,,-433.9000549316406,34.89937973022461,-0.020503805950284004,0.02335241623222828,2.4449169359286316e-05,-0.0357971154153347,162.82746405611923
23,21:25:32:295,-0.008056660182774067,0.0,0.485421359539032,581.1982268800051,366.938995997848,,-433.9000549316406,34.89937973022461,-0.020503805950284004,0.02335241623222828,2.4449169359286316e-05,-0.0357971154153347,162.82746405611923
24,21:25:32:319,-0.008056660182774067,0.0,0.694058895111084,581.1982844658287,366.939017663634,,-433.900146484375,34.89938735961914,-0.018537215888500214,0.011276641860604286,3.744865534827113e-05,-0.01861572079360485,162.82753109907082
25,21:25:32:343,-0.008056660182774067,0.0,0.784378170967102,581.1983102833434,366.93903852326986,,-433.9001770019531,34.899391174316406,-0.018266258761286736,0.00907049048691988,3.9161222957773134e-05,-0.015380859375,162.82755820119084
26,21:25:32:369,-0.008056660182774067,0.0,0.855181097984314,581.1983082817467,366.9390344035456,,-433.9001770019531,34.899391174316406,-0.01815013773739338,0.007403924595564604,4.020247797598131e-05,-0.012908935546875,162.82755676189885
27,21:25:32:396,-0.008056660182774067,0.0,0.9777001142501831,581.1983673872957,366.93909147365304,,-433.9002380371094,34.89939498901367,-0.01804019883275032,0.00514996238052845,4.14678142988123e-05,-0.009490965865552425,162.82761637264716
28,21:25:32:420,-0.008056660182774067,0.0,0.9906898140907288,581.1983677068964,366.9390921564989,,-433.9002380371094,34.89939880371094,-0.018060149624943733,0.004139094613492489,4.1922834498109296e-05,-0.007904052734375,162.82761656835757
29,21:25:32:430,-0.008056660182774067,0.0,0.9906898140907288,581.1983677068964,366.9390921564989,,-433.9002380371094,34.89939880371094,-0.018060149624943733,0.004139094613492489,4.1922834498109296e-05,-0.007904052734375,162.82761656835757
30,21:25:32:478,-0.05126536637544632,0.0,0.9906898140907288,581.1983702463735,366.93909740834295,,-433.9002380371094,34.8994026184082,-0.018208885565400124,0.002158339601010084,4.449369589565322e-05,-0.004669188987463713,162.82761836028035
31,21:25:32:503,-0.058015041053295135,0.0,0.9906898140907288,581.1983710965613,366.9390991582145,,-433.9002380371094,34.8994026184082,-0.01825820840895176,0.0017621887382119894,4.5166008931118995e-05,-0.00396728515625,162.82761897163252
32,21:25:32:529,-0.06023148074746132,0.0,1.0,581.1983721013166,366.939101226217,,-433.9002380371094,34.8994026184082,-0.018316498026251793,0.0014275094727054238,4.574973718263209e-05,-0.0033874509390443563,162.8276196941463
33,21:25:32:556,-0.06023148074746132,0.0,1.0,581.1957211860007,366.93645451867354,,-433.8975830078125,34.89925765991211,-0.0184756089001894,0.015244981274008751,-0.006713866721838713,2.9566803277703002e-05,162.82496904288598
34,21:25:32:583,-0.06023148074746132,0.0,1.0,581.1830383086149,366.92378484736463,,-433.8848876953125,34.898677825927734,-0.0188584141433239,0.06355490535497665,-0.03350830078125,0.008593888953328133,162.81228845079818
35,21:25:32:606,-0.06023148074746132,0.0,1.0,581.1830383086149,366.92378484736463,,-433.8848876953125,34.898677825927734,-0.0188584141433239,0.06355490535497665,-0.03350830078125,0.008593888953328133,162.81228845079818
36,21:25:32:635,-0.06023148074746132,0.0,1.0,581.1714204554206,366.91217710607555,,-433.8732604980469,34.89817428588867,-0.01910049468278885,0.09610075503587723,-0.056243881583213806,0.013687871396541595,162.8006730220977
37,21:25:32:663,-0.05861951783299446,0.0,1.0,581.1264390071287,366.86723079366504,,-433.8282470703125,34.89628982543945,-0.019817885011434555,0.17161531746387482,-0.1388244777917862,0.024311916902661324,162.75570158184547
38,21:25:32:695,-0.05610089749097824,0.0,1.0,581.0886800364514,366.82949626218357,,-433.79046630859375,34.894752502441406,-0.020143013447523117,0.20212577283382416,-0.2036743015050888,0.027718815952539444,162.71795205824077
39,21:25:32:715,-0.05610089749097824,0.0,1.0,581.0693723759925,366.81019990581166,,-433.7711486816406,34.89397430419922,-0.02024383470416069,0.21127822995185852,-0.2355041652917862,0.028487110510468483,162.6986494963207
40,21:25:32:740,-0.05257496237754822,0.0,1.0,581.0461296137497,366.78697052993994,,-433.7478942871094,34.893062591552734,-0.02035316452383995,0.2183406502008438,-0.2722167670726776,0.028558680787682533,162.6754127570141
41,21:25:32:766,-0.049049168825149536,0.0,1.0,581.0211170001198,366.7619717433026,,-433.7228698730469,34.89210891723633,-0.02043922431766987,0.22244559228420258,-0.3093261420726776,0.027761012315750122,162.65040658860477
42,21:25:32:791,-0.049049168825149536,0.0,1.0,581.0211170001198,366.7619717433026,,-433.7228698730469,34.89210891723633,-0.02043922431766987,0.22244559228420258,-0.3093261420726776,0.027761012315750122,162.65040658860477
43,21:25:32:815,-0.04129289090633392,0.0,1.0,580.942169982332,366.6830652775869,,-433.6438903808594,34.88939666748047,-0.020543593913316727,0.22153034806251526,-0.40838623046875,0.021479524672031403,162.57147862910477
44,21:25:32:848,-0.034242209047079086,0.0,1.0,580.8905532724358,366.6314735547269,,-433.5922546386719,34.88774490356445,-0.020528677850961685,0.2152397334575653,-0.46453848481178284,0.01736355945467949,162.51987394256955
45,21:25:32:875,-0.031019171699881554,0.0,1.0,580.8345122589914,366.57545926516156,,-433.53619384765625,34.88603210449219,-0.020490454509854317,0.20652441680431366,-0.5194092392921448,0.013530810363590717,162.46384553873042
46,21:25:32:901,-0.031019171699881554,0.0,1.0,580.8044018780242,366.5453632340784,,-433.5060729980469,34.885135650634766,-0.02046939730644226,0.20157936215400696,-0.5468139052391052,0.01181790791451931,162.433741775896
47,21:25:32:932,-0.031019171699881554,0.0,1.0,580.8044018780242,366.5453632340784,,-433.5060729980469,34.885135650634766,-0.02046939730644226,0.20157936215400696,-0.5468139052391052,0.01181790791451931,162.433741775896
48,21:25:32:937,-0.031019171699881554,0.0,1.0,580.8044018780242,366.5453632340784,,-433.5060729980469,34.885135650634766,-0.02046939730644226,0.20157936215400696,-0.5468139052391052,0.01181790791451931,162.433741775896
49,21:25:32:961,-0.030717015266418457,0.0,1.0,580.6993967337285,366.44040797314153,,-433.4010314941406,34.88200759887695,-0.020385589450597763,0.18498200178146362,-0.6385497450828552,0.009045650251209736,162.32875984336084
50,21:25:32:985,-0.030717015266418457,0.0,1.0,580.6358813843729,366.37692277290836,,-433.3374938964844,34.880069732666016,-0.020331840962171555,0.17621886730194092,-0.6930847764015198,0.009074216708540916,162.26525893410218
51,21:25:33:011,-0.030717015266418457,0.0,1.0,580.5994565115751,366.34051542756015,,-433.3010559082031,34.878936767578125,-0.020313339307904243,0.1717246025800705,-0.7242432236671448,0.009399285539984703,162.22884245906283
52,21:25:33:038,-0.030717015266418457,0.0,1.0,580.5304499180411,366.271541064623,,-433.2320251464844,34.87675094604492,-0.020223693922162056,0.16433434188365936,-0.7830504775047302,0.010309305042028427,162.15985236250566
53,21:25:33:064,-0.030717015266418457,0.0,1.0,580.5304499180411,366.271541064623,,-433.2320251464844,34.87675094604492,-0.020223693922162056,0.16433434188365936,-0.7830504775047302,0.010309305042028427,162.15985236250566
54,21:25:33:088,-0.030717015266418457,0.0,1.0,580.5304499180411,366.271541064623,,-433.2320251464844,34.87675094604492,-0.020223693922162056,0.16433434188365936,-0.7830504775047302,0.010309305042028427,162.15985236250566
55,21:25:33:112,-0.02890409342944622,0.0,1.0,580.363001394759,366.10417327036924,,-433.06451416015625,34.871212005615234,-0.020136451348662376,0.1515345722436905,-0.9239501357078552,0.012682363390922546,161.99244517674714
56,21:25:33:138,-0.02890409342944622,0.0,1.0,580.3216661455484,366.0628584023615,,-433.0231628417969,34.869808197021484,-0.020138168707489967,0.14932841062545776,-0.9576416611671448,0.012966313399374485,161.9511203369393
57,21:25:33:166,-0.02568116970360279,0.0,1.0,580.2427474313141,365.98397830225497,,-432.9442138671875,34.867149353027344,-0.020124206319451332,0.14598162472248077,-1.017852783203125,0.01228776853531599,161.87222147764749
58,21:25:33:213,-0.02568116970360279,0.0,1.0,580.2427474313141,365.98397830225497,,-432.9442138671875,34.867149353027344,-0.020124206319451332,0.14598162472248077,-1.017852783203125,0.01228776853531599,161.87222147764749
59,21:25:33:238,-0.01732197031378746,0.0,1.0,580.0907041462647,365.83200977786106,,-432.7921142578125,34.862396240234375,-0.02011745423078537,0.14204061031341553,-1.10595703125,0.0052735693752765656,161.72021382089528
60,21:25:33:246,-0.01732197031378746,0.0,1.0,580.0515641922284,365.7928888445719,,-432.7529602050781,34.861202239990234,-0.02010292001068592,0.1414327174425125,-1.1257933378219604,0.004056079313158989,161.68108292030402
61,21:25:33:279,-0.01661699078977108,0.0,1.0,579.9642243485223,365.7055919414534,,-432.66558837890625,34.85852813720703,-0.020096130669116974,0.1405448019504547,-1.167999267578125,0.002402086742222309,161.59376328531678
62,21:25:33:303,-0.01661699078977108,0.0,1.0,579.9176717005867,365.65906228815163,,-432.6190185546875,34.85709762573242,-0.02009754069149494,0.14029207825660706,-1.189849853515625,0.002087162109091878,161.54722145553566
63,21:25:33:330,-0.01661699078977108,0.0,1.0,579.8593738178507,365.60079280085506,,-432.5606994628906,34.85529327392578,-0.020076559856534004,0.14014863967895508,-1.2169188261032104,0.0021142519544810057,161.48893735683458
64,21:25:33:357,-0.01661699078977108,0.0,1.0,579.8593738178507,365.60079280085506,,-432.5606994628906,34.85529327392578,-0.020076559856534004,0.14014863967895508,-1.2169188261032104,0.0021142519544810057,161.48893735683458
65,21:25:33:363,-0.01661699078977108,0.0,1.0,579.8593738178507,365.60079280085506,,-432.5606994628906,34.85529327392578,-0.020076559856534004,0.14014863967895508,-1.2169188261032104,0.0021142519544810057,161.48893735683458
66,21:25:33:386,-0.01661699078977108,0.0,1.0,579.6503772080979,365.3919004148841,,-432.35162353515625,34.84865951538086,-0.02012474089860916,0.1409272849559784,-1.312530517578125,0.004469839856028557,161.27999110450816
67,21:25:33:417,-0.01661699078977108,0.0,1.0,579.5895478868648,365.33110073526115,,-432.290771484375,34.8466796875,-0.02009834162890911,0.14141905307769775,-1.340179443359375,0.005402094684541225,161.21917708966438
68,21:25:33:448,-0.01661699078977108,0.0,1.0,579.4908615202793,365.2324632548376,,-432.1920471191406,34.843406677246094,-0.02009616792201996,0.14241626858711243,-1.3849486112594604,0.0069622318260371685,161.1205159096363
69,21:25:33:474,-0.01661699078977108,0.0,1.0,579.424419872009,365.16605434669873,,-432.1255798339844,34.84116744995117,-0.02008342742919922,0.14320173859596252,-1.4150391817092896,0.007980952039361,161.05409160407507
70,21:25:33:495,-0.01661699078977108,0.0,1.0,579.3643242989002,365.1059891080274,,-432.0654602050781,34.839111328125,-0.020109785720705986,0.14397354423999786,-1.44219970703125,0.008876489475369453,160.99401181461863
71,21:25:33:508,-0.01661699078977108,0.0,1.0,579.3643242989002,365.1059891080274,,-432.0654602050781,34.839111328125,-0.020109785720705986,0.14397354423999786,-1.44219970703125,0.008876489475369453,160.99401181461863
72,21:25:33:531,-0.01661699078977108,0.0,1.0,579.3643242989002,365.1059891080274,,-432.0654602050781,34.839111328125,-0.020109785720705986,0.14397354423999786,-1.44219970703125,0.008876489475369453,160.99401181461863
73,21:25:33:556,-0.01661699078977108,0.0,1.0,579.1081098627965,364.84990237029115,,-431.80914306640625,34.83007049560547,-0.02011905610561371,0.1477096676826477,-1.5577391386032104,0.012190577574074268,160.73786774153248
74,21:25:33:581,-0.01661699078977108,0.0,1.0,579.0367887735396,364.7786167201395,,-431.73779296875,34.82746887207031,-0.020111503079533577,0.1488366425037384,-1.5898133516311646,0.012979245744645596,160.66656708252427
75,21:25:33:608,-0.01661699078977108,0.0,1.0,578.9200460828971,364.6619321849351,,-431.6210021972656,34.82313537597656,-0.020103072747588158,0.1507491022348404,-1.6422119140625,0.014165746979415417,160.54985853421113
76,21:25:33:633,-0.01661699078977108,0.0,1.0,578.8556204290988,364.5975392939051,,-431.5565490722656,34.82069396972656,-0.02013244666159153,0.15184876322746277,-1.6711119413375854,0.014777932316064835,160.48545202373353
77,21:25:33:659,-0.01661699078977108,0.0,1.0,578.7769792937178,364.518937583338,,-431.4778747558594,34.817684173583984,-0.02013549767434597,0.15317381918430328,-1.7063294649124146,0.015479909256100655,160.40683471774693
78,21:25:33:683,-0.01661699078977108,0.0,1.0,578.7769792937178,364.518937583338,,-431.4778747558594,34.817684173583984,-0.02013549767434597,0.15317381918430328,-1.7063294649124146,0.015479909256100655,160.40683471774693
79,21:25:33:709,-0.01661699078977108,0.0,1.0,578.5500578882776,364.29213156498224,,-431.2508544921875,34.80874252319336,-0.02021888643503189,0.15711483359336853,-1.807708740234375,0.017320115119218826,160.17998420449396
80,21:25:33:743,-0.01661699078977108,0.0,1.0,578.4173039683498,364.1594447950993,,-431.1180419921875,34.80333709716797,-0.020238876342773438,0.15942344069480896,-1.8668519258499146,0.018296964466571808,160.04727360570755
81,21:25:33:749,-0.01661699078977108,0.0,1.0,578.4173039683498,364.1594447950993,,-431.1180419921875,34.80333709716797,-0.020238876342773438,0.15942344069480896,-1.8668519258499146,0.018296964466571808,160.04727360570755
82,21:25:33:775,-0.01661699078977108,0.0,1.0,578.2917189879664,364.03392309801256,,-430.9924011230469,34.79811096191406,-0.02023818902671337,0.16072116792201996,-1.922668218612671,0.019120795652270317,159.9217308322336
83,21:25:33:819,-0.01661699078977108,0.0,1.0,578.208900109617,363.95114506863194,,-430.9095458984375,34.794612884521484,-0.020186424255371094,0.15607663989067078,-1.959136724472046,0.019351905211806297,159.8389405720826
84,21:25:33:836,-0.01661699078977108,0.0,1.0,578.208900109617,363.95114506863194,,-430.9095458984375,34.794612884521484,-0.020186424255371094,0.15607663989067078,-1.959136724472046,0.019351905211806297,159.8389405720826
85,21:25:33:858,-0.01661699078977108,0.0,1.0,577.9635565228567,363.70592228251394,,-430.6640930175781,34.783958435058594,-0.02000480517745018,0.12261554598808289,-2.065674066543579,0.01926889829337597,159.59368486398765
86,21:25:33:883,-0.01661699078977108,0.0,1.0,577.8939467404922,363.6363465943587,,-430.5944519042969,34.78085708618164,-0.019938888028264046,0.11301913112401962,-2.095764398574829,0.019300896674394608,159.52410089142688
87,21:25:33:909,-0.01661699078977108,0.0,1.0,577.7468304763227,363.48930549610577,,-430.447265625,34.77416229248047,-0.019960440695285797,0.11588098108768463,-2.160369873046875,0.020496021956205368,159.37703982502623
88,21:25:33:918,-0.01661699078977108,0.0,1.0,577.7468304763227,363.48930549610577,,-430.447265625,34.77416229248047,-0.019960440695285797,0.11588098108768463,-2.160369873046875,0.020496021956205368,159.37703982502623
89,21:25:33:950,-0.01661699078977108,0.0,1.0,577.5944099521029,363.33696511897574,,-430.2947692871094,34.76704406738281,-0.020094947889447212,0.1363510638475418,-2.228179931640625,0.022272227331995964,159.22467784661396
90,21:25:33:979,-0.01661699078977108,0.0,1.0,577.4996089195965,363.2422139157832,,-430.1999206542969,34.762542724609375,-0.020172271877527237,0.15182827413082123,-2.270477533340454,0.02337123453617096,159.12991407879883
91,21:25:34:033,-0.01661699078977108,0.0,1.0,577.3915403601798,363.1342026461389,,-430.091796875,34.75733184814453,-0.02028152346611023,0.16978482902050018,-2.318695545196533,0.02456788718700409,159.0218887607773
92,21:25:34:065,-0.01661699078977108,0.0,1.0,576.989069810953,362.73194421392105,,-429.6891174316406,34.73722839355469,-0.020572127774357796,0.22494544088840485,-2.497314453125,0.028542395681142807,158.61958759602945
93,21:25:34:094,-0.01661699078977108,0.0,1.0,576.8656603582156,362.60859898319194,,-429.5656433105469,34.7308464050293,-0.02060115709900856,0.23650895059108734,-2.551696538925171,0.029619241133332253,158.4962328499264
94,21:25:34:122,-0.01661699078977108,0.0,1.0,576.7489009346358,362.49190042084194,,-429.4488220214844,34.72471618652344,-0.02062702178955078,0.24490325152873993,-2.602966070175171,0.030562257394194603,158.3795262726451
95,21:25:34:142,-0.01661699078977108,0.0,1.0,576.6541030275838,362.39715200779443,,-429.3539733886719,34.71967315673828,-0.020647278055548668,0.250394731760025,-2.644408941268921,0.031326889991760254,158.2847720553229
96,21:25:34:179,-0.016113435849547386,0.0,1.0,576.4134803799064,362.156655194394,,-429.11322021484375,34.706626892089844,-0.020689353346824646,0.25939691066741943,-2.748199462890625,0.03275956213474274,158.04426336618832
97,21:25:34:207,-0.011178640648722649,0.0,1.0,576.2006148487892,361.9439012168189,,-428.9002380371094,34.69493865966797,-0.020717620849609375,0.26345404982566833,-2.830872058868408,0.030927421525120735,157.83150111534243
98,21:25:34:236,-0.011178640648722649,0.0,1.0,576.2006148487892,361.9439012168189,,-428.9002380371094,34.69493865966797,-0.020717620849609375,0.26345404982566833,-2.830872058868408,0.030927421525120735,157.83150111534243
99,21:25:34:261,-0.011178640648722649,0.0,1.0,576.2006148487892,361.9439012168189,,-428.9002380371094,34.69493865966797,-0.020717620849609375,0.26345404982566833,-2.830872058868408,0.030927421525120735,157.83150111534243
100,21:25:34:286,-0.0013092041481286287,0.0,1.0,575.7398652132985,361.4833933635609,,-428.4392395019531,34.670257568359375,-0.02075176127254963,0.26502498984336853,-2.931182861328125,0.011296887882053852,157.3709737309195
101,21:25:34:320,0.0007049560663290322,0.0,1.0,575.6061173252164,361.3497157836155,,-428.305419921875,34.66320037841797,-0.020756034180521965,0.2644580900669098,-2.946075677871704,0.006547597236931324,157.23729042488128
102,21:25:34:346,0.0020141603890806437,0.0,1.0,575.3706472414062,361.11436964148857,,-428.06982421875,34.65089416503906,-0.02075912430882454,0.26279833912849426,-2.959717273712158,-0.0011291508562862873,157.00193407119093
103,21:25:34:372,0.0020141603890806437,0.0,1.0,575.252424004033,360.9962087205394,,-427.9515380859375,34.64475631713867,-0.020758818835020065,0.2618011236190796,-2.962433099746704,-0.003997802268713713,156.8837680822029
104,21:25:34:398,0.0020141603890806437,0.0,1.0,575.252424004033,360.9962087205394,,-427.9515380859375,34.64475631713867,-0.020758818835020065,0.2618011236190796,-2.962433099746704,-0.003997802268713713,156.8837680822029
105,21:25:34:421,0.0020141603890806437,0.0,1.0,574.8617928425824,360.6057839691679,,-427.5606994628906,34.62460708618164,-0.020752182230353355,0.2581879794597626,-2.960541248321533,-0.009307860396802425,156.4933272886635
106,21:25:34:446,0.0020141603890806437,0.0,1.0,574.7432949073934,360.48734880547164,,-427.442138671875,34.6185302734375,-0.020748596638441086,0.2570473253726959,-2.957855701446533,-0.010040282271802425,156.374887502407
107,21:25:34:453,0.0020141603890806437,0.0,1.0,574.6290671818301,360.3731816709172,,-427.3278503417969,34.6126823425293,-0.020744971930980682,0.2559613287448883,-2.954712152481079,-0.010437010787427425,156.26071605425858
108,21:25:34:497,0.001913452404551208,0.0,1.0,574.3704458525074,360.1146978080288,,-427.069091796875,34.599483489990234,-0.020735664293169975,0.25355708599090576,-2.946258783340454,-0.010711668990552425,156.00222290526438
109,21:25:34:522,0.001712036319077015,0.0,1.0,574.2473422631631,359.9916597996382,,-426.9459228515625,34.59321594238281,-0.02073104865849018,0.25246426463127136,-2.941925287246704,-0.010559081099927425,155.87918074501707
110,21:25:34:547,0.001712036319077015,0.0,1.0,574.2473422631631,359.9916597996382,,-426.9459228515625,34.59321594238281,-0.02073104865849018,0.25246426463127136,-2.941925287246704,-0.010559081099927425,155.87918074501707
111,21:25:34:562,0.001712036319077015,0.0,1.0,574.2473422631631,359.9916597996382,,-426.9459228515625,34.59321594238281,-0.02073104865849018,0.25246426463127136,-2.941925287246704,-0.010559081099927425,155.87918074501707
112,21:25:34:586,0.0006042480817995965,0.0,1.0,573.6898978377495,359.4345111252797,,-426.38818359375,34.56483459472656,-0.020576972514390945,0.22848346829414368,-2.926880359649658,-0.007476808037608862,155.3220195554389
113,21:25:34:613,0.0006042480817995965,0.0,1.0,573.4585730586009,359.2033071543861,,-426.15673828125,34.553062438964844,-0.020378150045871735,0.19875849783420563,-2.922150135040283,-0.006164550315588713,155.09081502535554
114,21:25:34:656,0.0006042480817995965,0.0,1.0,573.3074066791851,359.05221973062396,,-426.0054931640625,34.54537582397461,-0.020238647237420082,0.17801521718502045,-2.919312000274658,-0.005462646018713713,154.93972789854104
115,21:25:34:680,0.0006042480817995965,0.0,1.0,573.3074066791851,359.05221973062396,,-426.0054931640625,34.54537582397461,-0.020238647237420082,0.17801521718502045,-2.919312000274658,-0.005462646018713713,154.93972789854104
116,21:25:34:703,0.0006042480817995965,0.0,1.0,572.8336309557576,358.57869935584534,,-425.5314636230469,34.521331787109375,-0.020169448107481003,0.1677016317844391,-2.911712884902954,-0.003967285621911287,154.46620203496843
117,21:25:34:730,0.0009063720935955644,0.0,1.0,572.5657110254948,358.3109272671415,,-425.2633972167969,34.507774353027344,-0.020278358832001686,0.18382087349891663,-2.907593011856079,-0.003631591796875,154.19842476457364
118,21:25:34:763,0.0009063720935955644,0.0,1.0,572.3087414702679,358.0541002342209,,-425.00628662109375,34.494789123535156,-0.020397109910845757,0.2013949453830719,-2.903351068496704,-0.003509521484375,153.94159343623426
119,21:25:34:769,0.0009063720935955644,0.0,1.0,572.3087414702679,358.0541002342209,,-425.00628662109375,34.494789123535156,-0.020397109910845757,0.2013949453830719,-2.903351068496704,-0.003509521484375,153.94159343623426
120,21:25:34:793,0.0009063720935955644,0.0,1.0,572.1376928123146,357.8831465907599,,-424.83514404296875,34.48616027832031,-0.02047100104391575,0.21235056221485138,-2.900452136993408,-0.0034790034405887127,153.77063755824463
121,21:25:34:817,0.0009063720935955644,0.0,1.0,572.1376928123146,357.8831465907599,,-424.83514404296875,34.48616027832031,-0.02047100104391575,0.21235056221485138,-2.900452136993408,-0.0034790034405887127,153.77063755824463
122,21:25:34:845,0.0009063720935955644,0.0,1.0,571.6252789272855,357.3710177876445,,-424.32244873046875,34.46036148071289,-0.020653609186410904,0.2393161505460739,-2.891449213027954,-0.003387450473383069,153.25850556325395
123,21:25:34:870,0.0009063720935955644,0.0,1.0,571.4827179977732,357.2285362001684,,-424.1798095703125,34.45319747924805,-0.02068931609392166,0.24458223581314087,-2.888885736465454,-0.0033569333609193563,153.11602413522618
124,21:25:34:897,0.0009063720935955644,0.0,1.0,571.1863107789459,356.9322940528888,,-423.88323974609375,34.438323974609375,-0.020746231079101562,0.25297653675079346,-2.883545160293579,-0.003356932895258069,152.81978367314525
125,21:25:34:922,0.0009063720935955644,0.0,1.0,571.0291094213827,356.7751803244521,,-423.7259521484375,34.43044662475586,-0.020768165588378906,0.25618672370910645,-2.880676746368408,-0.00335693359375,152.66267156190952
126,21:25:34:946,0.0009063720935955644,0.0,1.0,570.8290849236167,356.5752674225235,,-423.52581787109375,34.42042922973633,-0.02078830637037754,0.2591441869735718,-2.877044677734375,-0.0033569338265806437,152.462761481497
127,21:25:34:982,0.0009063720935955644,0.0,1.0,570.8290849236167,356.5752674225235,,-423.52581787109375,34.42042922973633,-0.02078830637037754,0.2591441869735718,-2.877044677734375,-0.0033569338265806437,152.462761481497
128,21:25:35:015,0.0009063720935955644,0.0,1.0,570.225382169484,355.97190243851725,,-422.9217834472656,34.39027404785156,-0.02081417106091976,0.2628939747810364,-2.865997791290283,-0.0033874507062137127,151.85940943437822
129,21:25:35:040,0.0009063720935955644,0.0,1.0,569.8809368137349,355.6276505806773,,-422.5771484375,34.373111724853516,-0.020812224596738815,0.26256611943244934,-2.8596808910369873,-0.003448486328125,151.5151678891213
130,21:25:35:068,0.0009063720935955644,0.0,1.0,569.5629664584073,355.30985943805047,,-422.2590026855469,34.3572998046875,-0.02080417610704899,0.2613503336906433,-2.853851795196533,-0.003509521484375,151.19738802892297
131,21:25:35:112,0.0009063720935955644,0.0,1.0,569.3665112758007,355.11351528279084,,-422.06243896484375,34.3475456237793,-0.02079727128148079,0.2603258192539215,-2.850250720977783,-0.003540039760991931,151.0010516682548
132,21:25:35:125,0.0009063720935955644,0.0,1.0,569.3665112758007,355.11351528279084,,-422.06243896484375,34.3475456237793,-0.02079727128148079,0.2603258192539215,-2.850250720977783,-0.003540039760991931,151.0010516682548
133,21:25:35:166,0.0014099122490733862,0.0,1.0,568.7535387641311,354.5008907006291,,-421.4491271972656,34.317222595214844,-0.020769042894244194,0.25614574551582336,-2.836975574493408,-0.00439453125,150.388455030926
134,21:25:35:191,0.002316284691914916,0.0,1.0,568.4124803496775,354.1600269020661,,-421.1078796386719,34.30043029785156,-0.020751381292939186,0.2535366117954254,-2.827942132949829,-0.005157470237463713,150.04760904577068
135,21:25:35:217,0.002517700893804431,0.0,1.0,568.2466787199339,353.9943201435233,,-420.9419860839844,34.29230499267578,-0.020742911845445633,0.2522730231285095,-2.822601795196533,-0.005767821799963713,149.88191133943712
136,21:25:35:243,0.0028198249638080597,0.0,1.0,568.0633697309097,353.81111624307636,,-420.7585754394531,34.28334426879883,-0.020733412355184555,0.2508455216884613,-2.8158881664276123,-0.006561279296875,149.69871781547894
137,21:25:35:274,0.0028198249638080597,0.0,1.0,568.0633697309097,353.81111624307636,,-420.7585754394531,34.28334426879883,-0.020733412355184555,0.2508455216884613,-2.8158881664276123,-0.006561279296875,149.69871781547894
138,21:25:35:299,0.0028198249638080597,0.0,1.0,567.2285351638551,352.9767619453409,,-419.92327880859375,34.24287796020508,-0.020639952272176743,0.23701438307762146,-2.777435779571533,-0.01004028134047985,148.86441632407465
139,21:25:35:324,0.0028198249638080597,0.0,1.0,567.031407968384,352.7797474752878,,-419.7260437011719,34.233402252197266,-0.020549887791275978,0.22367502748966217,-2.766968250274658,-0.01065063290297985,148.66741697749177
140,21:25:35:350,0.0028198249638080597,0.0,1.0,566.6937014431609,352.4422337801482,,-419.3881530761719,34.21723937988281,-0.020352210849523544,0.19439400732517242,-2.748169422149658,-0.011535645462572575,148.3299311487434
141,21:25:35:378,0.0028198249638080597,0.0,1.0,566.4788526851706,352.2275079828251,,-419.1731872558594,34.207000732421875,-0.02022228203713894,0.17520800232887268,-2.735748529434204,-0.012054442428052425,148.11522381895736
142,21:25:35:404,0.0028198249638080597,0.0,1.0,566.4788526851706,352.2275079828251,,-419.1731872558594,34.207000732421875,-0.02022228203713894,0.17520800232887268,-2.735748529434204,-0.012054442428052425,148.11522381895736
143,21:25:35:427,0.0028198249638080597,0.0,1.0,566.4788526851706,352.2275079828251,,-419.1731872558594,34.207000732421875,-0.02022228203713894,0.17520800232887268,-2.735748529434204,-0.012054442428052425,148.11522381895736
144,21:25:35:451,0.0028198249638080597,0.0,1.0,565.6549069877301,351.40404495155383,,-418.3487854003906,34.16814422607422,-0.020168952643871307,0.16751721501350403,-2.686920404434204,-0.01388549618422985,147.29182483344624
145,21:25:35:477,0.0028198249638080597,0.0,1.0,565.4416165780322,351.1908813528217,,-418.1353759765625,34.1581916809082,-0.0202178955078125,0.17479819059371948,-2.67413330078125,-0.014312744140625,147.07867726186788
146,21:25:35:509,0.0028198249638080597,0.0,1.0,565.0623420983769,350.8118331590348,,-417.7558898925781,34.140594482421875,-0.02031116373836994,0.1886429786682129,-2.651428461074829,-0.01498412899672985,146.69965841268953
147,21:25:35:529,0.0028198249638080597,0.0,1.0,565.0623420983769,350.8118331590348,,-417.7558898925781,34.140594482421875,-0.02031116373836994,0.1886429786682129,-2.651428461074829,-0.01498412899672985,146.69965841268953
148,21:25:35:552,0.0028198249638080597,0.0,1.0,565.0623420983769,350.8118331590348,,-417.7558898925781,34.140594482421875,-0.02031116373836994,0.1886429786682129,-2.651428461074829,-0.01498412899672985,146.69965841268953
149,21:25:35:576,0.0028198249638080597,0.0,1.0,564.3675383168551,350.1174456393955,,-417.0606994628906,34.108699798583984,-0.020457573235034943,0.21028785407543182,-2.609802722930908,-0.0160827673971653,146.0053283733046
150,21:25:35:602,0.0028198249638080597,0.0,1.0,563.9792647941397,349.72940545793983,,-416.6722106933594,34.09107208251953,-0.020513687282800674,0.2185865342617035,-2.586609363555908,-0.01663207821547985,145.6173226265505
151,21:25:35:630,0.0028198249638080597,0.0,1.0,563.5867815849194,349.33715865444555,,-416.2795104980469,34.073394775390625,-0.020552443340420723,0.2242487519979477,-2.563202142715454,-0.0171508751809597,145.2251122905898
152,21:25:35:668,0.003927614539861679,0.0,1.0,563.3577513291349,349.1082666000632,,-416.05035400390625,34.06315994262695,-0.020567817613482475,0.22650271654129028,-2.5488898754119873,-0.01776122860610485,144.99624208129455
153,21:25:35:705,0.003927614539861679,0.0,1.0,563.3577513291349,349.1082666000632,,-416.05035400390625,34.06315994262695,-0.020567817613482475,0.22650271654129028,-2.5488898754119873,-0.01776122860610485,144.99624208129455
154,21:25:35:730,0.007653824985027313,0.0,1.0,562.432229376914,348.18330456342585,,-415.12432861328125,34.022891998291016,-0.0205875001847744,0.22934408485889435,-2.461944818496704,-0.02755737118422985,144.0713663432346
155,21:25:35:753,0.008358785882592201,0.0,1.0,562.2087470548697,347.95995782958124,,-414.9007263183594,34.013431549072266,-0.02058517374098301,0.22896158695220947,-2.434875965118408,-0.0302734375,143.8480398161
156,21:25:35:787,0.00866091251373291,0.0,1.0,561.7714495142762,347.5229260747126,,-414.46319580078125,33.995216369628906,-0.020575828850269318,0.2275545746088028,-2.376434326171875,-0.0351867601275444,143.41104670939646
157,21:25:35:812,0.00866091251373291,0.0,1.0,561.7714495142762,347.5229260747126,,-414.46319580078125,33.995216369628906,-0.020575828850269318,0.2275545746088028,-2.376434326171875,-0.0351867601275444,143.41104670939646
158,21:25:35:847,0.00866091251373291,0.0,1.0,561.0127838642808,346.7647229721173,,-413.7041320800781,33.96460723876953,-0.020549315959215164,0.22357940673828125,-2.261687994003296,-0.0426025316119194,142.65290671282432
159,21:25:35:856,0.00866091251373291,0.0,1.0,561.0127838642808,346.7647229721173,,-413.7041320800781,33.96460723876953,-0.020549315959215164,0.22357940673828125,-2.261687994003296,-0.0426025316119194,142.65290671282432
160,21:25:35:882,0.00866091251373291,0.0,1.0,560.5818844399749,346.33408704698724,,-413.27301025390625,33.94780731201172,-0.02053104341030121,0.22086098790168762,-2.19146728515625,-0.0461425743997097,142.22230383838152
161,21:25:35:909,0.008358785882592201,0.0,1.0,560.3610195992513,346.11335748723485,,-413.0520324707031,33.939361572265625,-0.02052135393023491,0.2194403111934662,-2.154662847518921,-0.047698974609375,142.00159035861572
162,21:25:35:950,0.008056660182774067,0.0,1.0,559.8805805053341,345.63321319824826,,-412.57135009765625,33.92136764526367,-0.02050079219043255,0.21635988354682922,-2.07373046875,-0.0505981370806694,141.52147902545195
163,21:25:36:013,0.007452407851815224,0.0,1.0,559.021875735453,344.77503697621603,,-411.71221923828125,33.89053726196289,-0.020463943481445312,0.21089573204517365,-1.9312134981155396,-0.0541686937212944,140.66335387985112
164,21:25:36:042,0.0066467393189668655,0.0,1.0,558.4164565350012,344.1699916600742,,-411.10650634765625,33.86981201171875,-0.02044013887643814,0.2073918581008911,-1.8348388671875,-0.05572509765625,140.05833824685598
165,21:25:36:068,0.006445322185754776,0.0,1.0,558.1283558311512,343.8820692244466,,-410.8182678222656,33.86023712158203,-0.020429495722055435,0.20582090318202972,-1.790557861328125,-0.0562744066119194,139.77042806727715
166,21:25:36:077,0.006445322185754776,0.0,1.0,558.1283558311512,343.8820692244466,,-410.8182678222656,33.86023712158203,-0.020429495722055435,0.20582090318202972,-1.790557861328125,-0.0562744066119194,139.77042806727715
167,21:25:36:102,0.0057403636164963245,0.0,1.0,557.6994205909739,343.4533998065568,,-410.3891296386719,33.8463134765625,-0.02041419968008995,0.20355328917503357,-1.727264404296875,-0.056793201714754105,139.341774730444
168,21:25:36:127,0.0057403636164963245,0.0,1.0,557.6994205909739,343.4533998065568,,-410.3891296386719,33.8463134765625,-0.02041419968008995,0.20355328917503357,-1.727264404296875,-0.056793201714754105,139.341774730444
169,21:25:36:150,0.0057403636164963245,0.0,1.0,557.6994205909739,343.4533998065568,,-410.3891296386719,33.8463134765625,-0.02041419968008995,0.20355328917503357,-1.727264404296875,-0.056793201714754105,139.341774730444
170,21:25:36:190,0.0020141603890806437,0.0,1.0,556.6346392625094,342.38928108394776,,-409.3238525390625,33.81302261352539,-0.02038070559501648,0.19860823452472687,-1.6045225858688354,-0.0511474534869194,138.27769006341993
171,21:25:36:201,0.0016113283345475793,0.0,1.0,556.3803005186197,342.13510119235696,,-409.06939697265625,33.80532455444336,-0.020373458042740822,0.19753588736057281,-1.581969976425171,-0.049560535699129105,138.02351718529678
172,21:25:36:225,0.0009063720935955644,0.0,1.0,556.12818795138,341.8831463104214,,-408.8171691894531,33.797786712646484,-0.020366668701171875,0.19652502238750458,-1.5619810819625854,-0.0479125939309597,137.77156885086134
173,21:25:36:252,0.0009063720935955644,0.0,1.0,555.6193248557265,341.37460222788326,,-408.3080749511719,33.78281021118164,-0.020354270935058594,0.19469453394412994,-1.5278626680374146,-0.0447998121380806,137.26303730896208
174,21:25:36:287,0.0009063720935955644,0.0,1.0,555.6193248557265,341.37460222788326,,-408.3080749511719,33.78281021118164,-0.020354270935058594,0.19469453394412994,-1.5278626680374146,-0.0447998121380806,137.26303730896208
175,21:25:36:323,0.0009063720935955644,0.0,1.0,554.7328514959556,340.4886868873365,,-407.42120361328125,33.75748825073242,-0.020334891974925995,0.19183267652988434,-1.4835203886032104,-0.0401611253619194,136.37714138536342
176,21:25:36:355,0.0009063720935955644,0.0,1.0,554.0738422984231,339.8300944883341,,-406.76190185546875,33.73922348022461,-0.020322531461715698,0.18998169898986816,-1.458953857421875,-0.037353515625,135.71856224183128
177,21:25:36:381,0.0009063720935955644,0.0,1.0,553.7706923737925,339.5271368765405,,-406.4586181640625,33.73096466064453,-0.02031734399497509,0.1892167180776596,-1.4493408203125,-0.036163330078125,135.4156105940993
178,21:25:36:406,0.0009063720935955644,0.0,1.0,553.7706923737925,339.5271368765405,,-406.4586181640625,33.73096466064453,-0.02031734399497509,0.1892167180776596,-1.4493408203125,-0.036163330078125,135.4156105940993
179,21:25:36:430,0.0009063720935955644,0.0,1.0,553.7706923737925,339.5271368765405,,-406.4586181640625,33.73096466064453,-0.02031734399497509,0.1892167180776596,-1.4493408203125,-0.036163330078125,135.4156105940993
180,21:25:36:452,0.0009063720935955644,0.0,1.0,552.858952143321,338.61597731192904,,-405.5464782714844,33.70661163330078,-0.02030307799577713,0.18713350594043732,-1.42486572265625,-0.032623291015625,134.50446917756645
181,21:25:36:479,0.0009063720935955644,0.0,1.0,552.3562719698889,338.1136188121282,,-405.0435791015625,33.69345474243164,-0.020296363160014153,0.18612264096736908,-1.413482666015625,-0.030731201171875,134.00212136575817
182,21:25:36:504,0.0009063720935955644,0.0,1.0,552.0935686957217,337.8510840839196,,-404.78076171875,33.686649322509766,-0.020293043926358223,0.18563087284564972,-1.4079283475875854,-0.0297851525247097,133.73959249427998
183,21:25:36:536,0.0013092041481286287,0.0,1.0,551.5293599928507,337.2872384139975,,-404.21630859375,33.67218017578125,-0.02028656005859375,0.1846814751625061,-1.3964537382125854,-0.02792358212172985,133.1757602574828
184,21:25:36:567,0.0013092041481286287,0.0,1.0,551.5293599928507,337.2872384139975,,-404.21630859375,33.67218017578125,-0.02028656005859375,0.1846814751625061,-1.3964537382125854,-0.02792358212172985,133.1757602574828
185,21:25:36:592,0.0035247819032520056,0.0,1.0,551.2174217328516,336.97550142637925,,-403.90423583984375,33.6642951965332,-0.020283393561840057,0.1842033565044403,-1.388671875,-0.02767944149672985,132.8640307588615
186,21:25:36:640,0.0035247819032520056,0.0,1.0,550.0878383720311,335.8466500720406,,-402.774169921875,33.6364860534668,-0.02027309313416481,0.18264608085155487,-1.3462828397750854,-0.02920532040297985,131.73520583672186
187,21:25:36:666,0.004129030741751194,0.0,1.0,549.5543419892788,335.31350114184994,,-402.2404479980469,33.62374496459961,-0.020268898457288742,0.18201087415218353,-1.3197935819625854,-0.03021240048110485,131.20206910190728
188,21:25:36:691,0.004129030741751194,0.0,1.0,549.5543419892788,335.31350114184994,,-402.2404479980469,33.62374496459961,-0.020268898457288742,0.18201087415218353,-1.3197935819625854,-0.03021240048110485,131.20206910190728
189,21:25:36:715,0.004129030741751194,0.0,1.0,549.5543419892788,335.31350114184994,,-402.2404479980469,33.62374496459961,-0.020268898457288742,0.18201087415218353,-1.3197935819625854,-0.03021240048110485,131.20206910190728
190,21:25:36:738,0.004129030741751194,0.0,1.0,548.5845941006552,334.3443876149459,,-401.2702941894531,33.60123825073242,-0.020262336358428,0.18106147646903992,-1.262817144393921,-0.0320129357278347,130.23297694153587
191,21:25:36:783,0.004129030741751194,0.0,1.0,547.7397893273251,333.5001383173071,,-400.4251403808594,33.58234405517578,-0.020257681608200073,0.1803511381149292,-1.2066649198532104,-0.0334167443215847,129.38874479248662
192,21:25:36:808,0.004129030741751194,0.0,1.0,547.4745781784766,333.23510208841907,,-400.1598205566406,33.5765495300293,-0.020256347954273224,0.18015305697917938,-1.188201665878296,-0.033843994140625,129.1237136278153
193,21:25:36:835,0.004129030741751194,0.0,1.0,547.1766344588743,332.9373551599179,,-399.86175537109375,33.57012939453125,-0.02025497332215309,0.179941326379776,-1.1670225858688354,-0.0343627892434597,128.82597200446023
194,21:25:36:862,0.004129030741751194,0.0,1.0,547.1766344588743,332.9373551599179,,-399.86175537109375,33.57012939453125,-0.02025497332215309,0.179941326379776,-1.1670225858688354,-0.0343627892434597,128.82597200446023
195,21:25:36:884,0.004129030741751194,0.0,1.0,546.2021129044202,331.96347929713886,,-398.8868408203125,33.549739837646484,-0.020244330167770386,0.1783430576324463,-1.0956724882125854,-0.0361022986471653,127.85211152425231
196,21:25:36:915,0.004129030741751194,0.0,1.0,545.7147875072754,331.47647683457245,,-398.3993225097656,33.539913177490234,-0.020184746012091637,0.16953212022781372,-1.058807373046875,-0.0370788611471653,127.36511640177282
197,21:25:36:927,0.004129030741751194,0.0,1.0,545.4484121721102,331.2102777812762,,-398.1328430175781,33.53465270996094,-0.020125960931181908,0.16081678867340088,-1.038299322128296,-0.0376586876809597,127.09892137750523
198,21:25:36:951,0.004129030741751194,0.0,1.0,545.1136116378751,330.87569882031,,-397.79791259765625,33.52814483642578,-0.02003704011440277,0.14766867458820343,-1.012176513671875,-0.0383911095559597,126.76434733613519
199,21:25:36:974,0.004129030741751194,0.0,1.0,545.1136116378751,330.87569882031,,-397.79791259765625,33.52814483642578,-0.02003704011440277,0.14766867458820343,-1.012176513671875,-0.0383911095559597,126.76434733613519
200,21:25:36:999,0.004129030741751194,0.0,1.0,545.1136116378751,330.87569882031,,-397.79791259765625,33.52814483642578,-0.02003704011440277,0.14766867458820343,-1.012176513671875,-0.0383911095559597,126.76434733613519
201,21:25:37:030,0.004129030741751194,0.0,1.0,543.8572563955235,329.62018033344367,,-396.54107666015625,33.50489044189453,-0.019817618653178215,0.1153140738606453,-0.9119873046875,-0.0414428748190403,125.50883709765857
202,21:25:37:066,0.004229739308357239,0.0,1.0,543.25558599946,329.0189153846006,,-395.9391784667969,33.49442672729492,-0.019863052293658257,0.12210328876972198,-0.8638305068016052,-0.0429382286965847,124.9075677676882
203,21:25:37:088,0.0057403636164963245,0.0,1.0,542.9679435388566,328.73146736318404,,-395.65142822265625,33.48959732055664,-0.019898796454072,0.12739668786525726,-0.8400574326515198,-0.04400634765625,124.62011583592407
204,21:25:37:116,0.007049573585391045,0.0,1.0,542.6119658774547,328.3757305928055,,-395.2953186035156,33.48379898071289,-0.019944800063967705,0.13424736261367798,-0.8086852431297302,-0.0459289476275444,124.26437240752455
205,21:25:37:139,0.007049573585391045,0.0,1.0,542.6119658774547,328.3757305928055,,-395.2953186035156,33.48379898071289,-0.019944800063967705,0.13424736261367798,-0.8086852431297302,-0.0459289476275444,124.26437240752455
206,21:25:37:162,0.008056660182774067,0.0,1.0,541.626054503571,327.3904872364035,,-394.3090515136719,33.46888732910156,-0.02006629854440689,0.15223807096481323,-0.7068786025047302,-0.0539855919778347,123.27909807415821
207,21:25:37:186,0.008056660182774067,0.0,1.0,541.3499064184709,327.1145263791096,,-394.0328063964844,33.465003967285156,-0.02009357325732708,0.15628838539123535,-0.6751403212547302,-0.05624387785792351,123.00312541849524
208,21:25:37:212,0.008056660182774067,0.0,1.0,540.7870816835461,326.5520833365698,,-393.46978759765625,33.45750045776367,-0.020139388740062714,0.16304343938827515,-0.6070556640625,-0.0605163648724556,122.44065371746686
209,21:25:37:236,0.008056660182774067,0.0,1.0,540.4850901856202,326.25029667577314,,-393.1676940917969,33.45370864868164,-0.020158691331744194,0.165891632437706,-0.5689086318016052,-0.0626220554113388,122.13884894924038
210,21:25:37:270,0.007754534017294645,0.0,1.0,540.0908731042258,325.8563470477334,,-392.7733459472656,33.44898986816406,-0.02017822302877903,0.16873981058597565,-0.5179443955421448,-0.065093994140625,121.7448730297853
211,21:25:37:295,0.007754534017294645,0.0,1.0,540.0908731042258,325.8563470477334,,-392.7733459472656,33.44898986816406,-0.02017822302877903,0.16873981058597565,-0.5179443955421448,-0.065093994140625,121.7448730297853
212,21:25:37:319,0.0022155765909701586,0.0,1.0,539.0722531749947,324.8384201993538,,-391.75439453125,33.43769073486328,-0.020245589315891266,0.1704951673746109,-0.4034423232078552,-0.0652770847082138,120.72686867925127
213,21:25:37:346,0.0022155765909701586,0.0,1.0,538.5322031327228,324.2987394853884,,-391.21417236328125,33.43222427368164,-0.02032451517879963,0.16710740327835083,-0.353057861328125,-0.0638122484087944,120.1871402956291
214,21:25:37:371,0.0,0.0,1.0,538.2208998584798,323.98764964386345,,-390.90277099609375,33.429229736328125,-0.020380515605211258,0.16434800624847412,-0.3277588188648224,-0.0624694749712944,119.87602108052707
215,21:25:37:401,-0.001712036319077015,0.0,1.0,537.8589831907997,323.6259816502462,,-390.5407409667969,33.42584991455078,-0.02045280486345291,0.16066652536392212,-0.3029479682445526,-0.0601806603372097,119.51431801706669
216,21:25:37:427,-0.001712036319077015,0.0,1.0,537.8589831907997,323.6259816502462,,-390.5407409667969,33.42584991455078,-0.02045280486345291,0.16066652536392212,-0.3029479682445526,-0.0601806603372097,119.51431801706669
217,21:25:37:449,-0.002517700893804431,0.0,1.0,536.8282658083683,322.5959757471553,,-389.50970458984375,33.41680908203125,-0.02070365846157074,0.14949917793273926,-0.2608337700366974,-0.0517272911965847,118.48420687867049
218,21:25:37:477,-0.003222657600417733,0.0,1.0,536.2115421794449,321.9796810302397,,-388.8927917480469,33.41176986694336,-0.020921630784869194,0.14560596644878387,-0.2521972060203552,-0.0467529259622097,117.86784529103302
219,21:25:37:502,-0.003222657600417733,0.0,1.0,535.8780563710209,321.64642807080804,,-388.5592041015625,33.40914535522461,-0.021055258810520172,0.14417162537574768,-0.2520751655101776,-0.0439758338034153,117.5345553466747
220,21:25:37:529,-0.0038269064389169216,0.0,1.0,535.292541412408,321.0613234167217,,-387.9735107421875,33.40464401245117,-0.021305693313479424,0.14240260422229767,-0.2588805556297302,-0.039093017578125,116.94938582901898
221,21:25:37:554,-0.0038269064389169216,0.0,1.0,534.9079231581535,320.67697560876644,,-387.5887756347656,33.401756286621094,-0.02147567644715309,0.1415761560201645,-0.26763907074928284,-0.0360107384622097,116.5649956863585
222,21:25:37:564,-0.0038269064389169216,0.0,1.0,534.9079231581535,320.67697560876644,,-387.5887756347656,33.401756286621094,-0.02147567644715309,0.1415761560201645,-0.26763907074928284,-0.0360107384622097,116.5649956863585
223,21:25:37:590,-0.0038269064389169216,0.0,1.0,534.9079231581535,320.67697560876644,,-387.5887756347656,33.401756286621094,-0.02147567644715309,0.1415761560201645,-0.26763907074928284,-0.0360107384622097,116.5649956863585
224,21:25:37:631,-0.0038269064389169216,0.0,1.0,533.5124972237774,319.28253104746545,,-386.19293212890625,33.39160919189453,-0.021841850131750107,0.15462864935398102,-0.3215026557445526,-0.0382995642721653,115.1704086685534
225,21:25:37:661,-0.0028198249638080597,0.0,1.0,532.9084903870777,318.6789499842089,,-385.5887451171875,33.38714599609375,-0.02189384400844574,0.16439580917358398,-0.3524780571460724,-0.02783203125,114.56677571651862
226,21:25:37:687,-0.001007080078125,0.0,1.0,532.5664292872632,318.3371308266145,,-385.24658203125,33.384647369384766,-0.02192516252398491,0.16908815503120422,-0.369659423828125,-0.02398681640625,114.22492817222319
227,21:25:37:703,-0.001007080078125,0.0,1.0,532.1973069723078,317.9682700724261,,-384.8773498535156,33.38197326660156,-0.0219518281519413,0.1729198843240738,-0.3872680962085724,-0.02212524227797985,113.85603783583423
228,21:25:37:746,-0.001007080078125,0.0,1.0,532.1973069723078,317.9682700724261,,-384.8773498535156,33.38197326660156,-0.0219518281519413,0.1729198843240738,-0.3872680962085724,-0.02212524227797985,113.85603783583423
229,21:25:37:773,0.0006042480817995965,0.0,1.0,531.0453634398436,316.81714288482834,,-383.7250671386719,33.373741149902344,-0.021842803806066513,0.17081619799137115,-0.4290771186351776,-0.02355956844985485,112.7048295386297
230,21:25:37:801,0.0006042480817995965,0.0,1.0,530.4647848086296,316.2369771670858,,-383.1443176269531,33.36954879760742,-0.021729545667767525,0.1658574789762497,-0.4436034858226776,-0.0196533165872097,112.12463051898459
231,21:25:37:830,0.0006042480817995965,0.0,1.0,529.8133359333585,315.5859944597148,,-382.49267578125,33.36482620239258,-0.02163219451904297,0.161930114030838,-0.4557494819164276,-0.01654052548110485,111.47361453606375
232,21:25:37:873,0.0006042480817995965,0.0,1.0,529.4130646180887,315.1860110927294,,-382.09228515625,33.36190414428711,-0.02158740907907486,0.16020891070365906,-0.46148681640625,-0.01507568545639515,111.07361316030624
233,21:25:37:940,0.0006042480817995965,0.0,1.0,527.8741299295835,313.6481934888778,,-380.5528869628906,33.350494384765625,-0.021479034796357155,0.15604932606220245,-0.4733887016773224,-0.010498045943677425,109.53574592048982
234,21:25:37:974,0.005136113613843918,0.0,1.0,527.1270718385972,312.9016827614784,,-379.80560302734375,33.345027923583984,-0.021452559158205986,0.15488135814666748,-0.4662780463695526,-0.01220703125,108.78921920522286
235,21:25:38:019,0.0063446140848100185,0.0,1.0,526.519740993509,312.2947989008452,,-379.1980895996094,33.34075164794922,-0.021438445895910263,0.15413004159927368,-0.44845572113990784,-0.01596069522202015,108.18232358684165
236,21:25:38:063,0.0066467393189668655,0.0,1.0,525.4695776468884,311.2454123877268,,-378.1476135253906,33.33378219604492,-0.02142433077096939,0.1530986875295639,-0.394195556640625,-0.02392578311264515,107.13291797740436
237,21:25:38:093,0.0066467393189668655,0.0,1.0,524.9886098142259,310.764801935347,,-377.66650390625,33.33078384399414,-0.021420707926154137,0.15271618962287903,-0.361480712890625,-0.02737426944077015,106.6522990230868
238,21:25:38:121,0.0066467393189668655,0.0,1.0,524.3046358170985,310.0813377434574,,-376.9823303222656,33.32677459716797,-0.021417617797851562,0.1522449105978012,-0.3080444037914276,-0.0322265587747097,105.96882198835412
239,21:25:38:149,0.0066467393189668655,0.0,1.0,523.9192184272855,309.6962083742985,,-376.5968017578125,33.324668884277344,-0.0214164350181818,0.15199902653694153,-0.2749328315258026,-0.035003662109375,105.58368449038086
240,21:25:38:174,0.0066467393189668655,0.0,1.0,523.5909127200815,309.36814843017436,,-376.2684020996094,33.32296371459961,-0.02141578681766987,0.15182143449783325,-0.245330810546875,-0.0372314415872097,105.25561707134466
241,21:25:38:200,0.0066467393189668655,0.0,1.0,523.2241343729798,309.0016450532199,,-375.9015197753906,33.321170806884766,-0.021415138617157936,0.15160970389842987,-0.210845947265625,-0.0398559607565403,104.88910437440563
242,21:25:38:230,0.0066467393189668655,0.0,1.0,523.2241343729798,309.0016450532199,,-375.9015197753906,33.321170806884766,-0.021415138617157936,0.15160970389842987,-0.210845947265625,-0.0398559607565403,104.88910437440563
243,21:25:38:255,0.0066467393189668655,0.0,1.0,521.9736860183774,307.7521362402167,,-374.6507263183594,33.31602478027344,-0.021374281495809555,0.15363827347755432,-0.0844116061925888,-0.052276596426963806,103.63955491755625
244,21:25:38:307,0.0063446140848100185,0.0,1.0,520.889373545852,306.6686362478929,,-373.5661315917969,33.312923431396484,-0.021101798862218857,0.16856223344802856,0.0330871045589447,-0.0629577562212944,102.55600872111424
245,21:25:38:318,0.005236821714788675,0.0,1.0,520.593457862981,306.3729420495706,,-373.2701416015625,33.31230545043945,-0.02099582552909851,0.17380781471729279,0.06542652100324631,-0.0648803636431694,102.26029967201791
246,21:25:38:360,0.0020141603890806437,0.0,1.0,519.7992813223984,305.5793613342136,,-372.47576904296875,33.311031341552734,-0.020715713500976562,0.18481124937534332,0.14698520302772522,-0.0610351487994194,101.46667494573192
247,21:25:38:386,0.0020141603890806437,0.0,1.0,519.7992813223984,305.5793613342136,,-372.47576904296875,33.311031341552734,-0.020715713500976562,0.18481124937534332,0.14698520302772522,-0.0610351487994194,101.46667494573192
248,21:25:38:397,0.0020141603890806437,0.0,1.0,519.7992813223984,305.5793613342136,,-372.47576904296875,33.311031341552734,-0.020715713500976562,0.18481124937534332,0.14698520302772522,-0.0610351487994194,101.46667494573192
249,21:25:38:421,0.0006042480817995965,0.0,1.0,518.5633374852997,304.34434674248683,,-371.2395324707031,33.31024932861328,-0.020214233547449112,0.17712728679180145,0.24744924902915955,-0.057220458984375,100.23157905147312
250,21:25:38:447,0.0006042480817995965,0.0,1.0,517.8484428187155,303.6299911512222,,-370.52447509765625,33.310482025146484,-0.019910888746380806,0.16516079008579254,0.2923813462257385,-0.0555725060403347,99.51716804112081
251,21:25:38:472,0.0006042480817995965,0.0,1.0,517.4410025575448,303.2228595631069,,-370.116943359375,33.31081771850586,-0.019770050421357155,0.15907509624958038,0.3147043287754059,-0.0532531701028347,99.11000174378286
252,21:25:38:506,0.0006042480817995965,0.0,1.0,516.7697035608952,302.55207195944934,,-369.44549560546875,33.311744689941406,-0.019617995247244835,0.15242932736873627,0.34676724672317505,-0.0511474534869194,98.43914994059112
253,21:25:38:530,0.0006042480817995965,0.0,1.0,516.7697035608952,302.55207195944934,,-369.44549560546875,33.311744689941406,-0.019617995247244835,0.15242932736873627,0.34676724672317505,-0.0511474534869194,98.43914994059112
254,21:25:38:556,0.0006042480817995965,0.0,1.0,516.7697035608952,302.55207195944934,,-369.44549560546875,33.311744689941406,-0.019617995247244835,0.15242932736873627,0.34676724672317505,-0.0511474534869194,98.43914994059112
255,21:25:38:580,0.0006042480817995965,0.0,1.0,515.160613317304,300.9442191389757,,-367.8360595703125,33.315673828125,-0.01951858401298523,0.14691735804080963,0.40529364347457886,-0.0500488206744194,96.83111483958736
256,21:25:38:605,0.0006042480817995965,0.0,1.0,514.7890781785742,300.57297153730576,,-367.4644470214844,33.31690216064453,-0.019524002447724342,0.14663049578666687,0.4158654510974884,-0.049896229058504105,96.45982042392087
257,21:25:38:655,0.0006042480817995965,0.0,1.0,514.069804004677,299.85425565238035,,-366.7450256347656,33.31959533691406,-0.0195479579269886,0.14650754630565643,0.43394356966018677,-0.0493774376809597,95.74100982361747
258,21:25:38:663,0.0006042480817995965,0.0,1.0,514.069804004677,299.85425565238035,,-366.7450256347656,33.31959533691406,-0.0195479579269886,0.14650754630565643,0.43394356966018677,-0.0493774376809597,95.74100982361747
259,21:25:38:687,0.0006042480817995965,0.0,1.0,514.069804004677,299.85425565238035,,-366.7450256347656,33.31959533691406,-0.0195479579269886,0.14650754630565643,0.43394356966018677,-0.0493774376809597,95.74100982361747
260,21:25:38:729,-0.0009063720935955644,0.0,1.0,512.0622661602279,297.84828755721566,,-364.7370910644531,33.328758239746094,-0.01964210532605648,0.14732716977596283,0.4578632414340973,-0.0428161583840847,93.7347643175176
261,21:25:38:736,-0.0009063720935955644,0.0,1.0,512.0622661602279,297.84828755721566,,-364.7370910644531,33.328758239746094,-0.01964210532605648,0.14732716977596283,0.4578632414340973,-0.0428161583840847,93.7347643175176
262,21:25:38:769,-0.0009063720935955644,0.0,1.0,511.38151844993297,297.1680754664164,,-364.05621337890625,33.332332611083984,-0.019649390131235123,0.14901423454284668,0.45839810371398926,-0.04058837890625,93.05445667434367
263,21:25:38:792,-0.0009063720935955644,0.0,1.0,510.958807484629,296.7456977832231,,-363.6334228515625,33.334651947021484,-0.01963840425014496,0.15072177350521088,0.45734769105911255,-0.0390014573931694,92.63202000318277
264,21:25:38:816,-0.0009063720935955644,0.0,1.0,510.958807484629,296.7456977832231,,-363.6334228515625,33.334651947021484,-0.01963840425014496,0.15072177350521088,0.45734769105911255,-0.0390014573931694,92.63202000318277
265,21:25:38:846,-0.0009063720935955644,0.0,1.0,509.622567941435,295.41051617553353,,-362.29693603515625,33.34238052368164,-0.019549064338207245,0.1576066017150879,0.4482651352882385,-0.0332336388528347,91.29665615318258
266,21:25:38:876,-0.0009063720935955644,0.0,1.0,509.25700344895205,295.0452422433693,,-361.9313049316406,33.34458541870117,-0.019506873562932014,0.15922535955905914,0.44455569982528687,-0.0317382775247097,90.93133399590307
267,21:25:38:890,-0.0006042480817995965,0.0,1.0,508.88896695642006,294.677498668811,,-361.5632019042969,33.34684371948242,-0.01945243775844574,0.16037283837795258,0.44053786993026733,-0.03021240048110485,90.5635427144496
268,21:25:38:927,-0.0006042480817995965,0.0,1.0,508.1358061720408,293.9249389334165,,-360.8099060058594,33.35154724121094,-0.019314231351017952,0.16169105470180511,0.43171384930610657,-0.02706908993422985,89.81088889232714
269,21:25:38:963,-0.0006042480817995965,0.0,1.0,507.74622683946063,293.53567102103915,,-360.4202575683594,33.35401916503906,-0.01921459101140499,0.16327565908432007,0.4268973171710968,-0.02517700009047985,89.42157464537573
