tick,time,steerCmd,brakeCmd,throttleCmd,distance1,distance2,distanc3,Location_X,Location_Y,Location_Z,Rotation_Pitch,Rotation_Yaw,Rotation_Roll,distance3
0,21:26:17:662,0.0,0.6212635636329651,0.6212635636329651,162.829848391697,366.86532006757403,,-433.8999938964844,34.900001525878906,0.7674545645713806,0.0,0.0,0.0,581.1556527809031
1,21:26:17:674,0.0,0.6212635636329651,0.6212635636329651,162.8307604207997,366.87317519080773,,-433.8999938964844,34.900001525878906,0.7674545645713806,0.0,0.0,0.0,581.1595186162454
2,21:26:17:700,0.0,0.6212635636329651,0.6212635636329651,162.83143386662957,366.87875527255784,,-433.8999938964844,34.900001525878906,0.5747057199478149,0.0,0.0,0.0,581.1619380834153
3,21:26:17:726,0.0,0.6212635636329651,0.6212635636329651,162.8318790569198,366.88153266017747,,-433.8999938964844,34.900001525878906,0.48187750577926636,0.0,0.0,0.0,581.163228520978
4,21:26:17:754,0.0,0.6212635636329651,0.6212635636329651,162.83299464427526,366.8873195890682,,-433.8999938964844,34.900001525878906,0.28805869817733765,0.0,0.0,0.0,581.1662452884156
5,21:26:17:798,0.0,0.6212635636329651,0.6212635636329651,162.83379348202345,366.89089155484197,,-433.8999938964844,34.900001525878906,0.17154273390769958,0.0,0.0,0.0,581.1681912621431
6,21:26:17:816,0.0,0.6212635636329651,0.6212635636329651,162.83379348202345,366.89089155484197,,-433.8999938964844,34.900001525878906,0.17154273390769958,0.0,0.0,0.0,581.1681912621431
7,21:26:17:843,-0.013394254259765148,0.0,0.31692805886268616,162.83588014277993,366.89885435275977,,-433.8999938964844,34.900001525878906,-0.09903182834386826,0.0,0.0,0.0,581.1733228851424
8,21:26:17:869,-0.013394254259765148,0.0,0.39274919033050537,162.83501945754134,366.8977125369508,,-433.8992919921875,34.89978790283203,-0.09325110912322998,0.10768475383520126,-0.000244140625,-0.1585693508386612,581.1730604079701
9,21:26:17:907,-0.013394254259765148,0.0,0.6691986322402954,162.83451559330157,366.8968020927066,,-433.89898681640625,34.89968490600586,-0.08332870155572891,0.15967614948749542,-0.0006103515042923391,-0.2311096042394638,581.1732066281381
10,21:26:17:935,-0.013394254259765148,0.0,0.6691986322402954,162.83437245704516,366.8964549655706,,-433.89892578125,34.899620056152344,-0.07722404599189758,0.16794751584529877,-0.0007019042386673391,-0.24084468185901642,581.1733681560567
11,21:26:17:963,-0.013394254259765148,0.0,0.7650231122970581,162.83425477887795,366.89613684599317,,-433.89892578125,34.899559020996094,-0.07052089273929596,0.16658830642700195,-0.0006713866023346782,-0.23684684932231903,581.1735982249164
12,21:26:18:007,-0.013394254259765148,0.0,0.8844196200370789,162.83423371456098,366.8954234493864,,-433.8991394042969,34.89945983886719,-0.05600932985544205,0.14270997047424316,-0.00048828122089616954,-0.2003478705883026,581.1743916030003
13,21:26:18:029,-0.013394254259765148,0.0,0.8844196200370789,162.8342096381517,366.89529557671193,,-433.8992614746094,34.89943313598633,-0.049637794494628906,0.1266385316848755,-0.000396728515625,-0.1773376166820526,581.1747467047003
14,21:26:18:063,-0.013394254259765148,0.0,0.9618786573410034,162.8343108219588,366.89463398489085,,-433.8994445800781,34.89940643310547,-0.041763875633478165,0.1034432128071785,-0.00027465823222883046,-0.1448974460363388,581.1753694530269
15,21:26:18:090,-0.013394254259765148,0.0,0.9906898140907288,162.8343725844252,366.8945333374137,,-433.8995361328125,34.89939880371094,-0.03820835053920746,0.09188652783632278,-0.000213623046875,-0.12896728515625,581.1756121167898
16,21:26:18:139,-0.013394254259765148,0.0,0.9906898140907288,162.8344493660077,366.89425078971067,,-433.89971923828125,34.89939498901367,-0.032127074897289276,0.07071977108716965,-0.00012207030522404239,-0.10003662109375,581.176111593838
17,21:26:18:165,-0.013394254259765148,0.0,0.9906898140907288,162.8344493660077,366.89425078971067,,-433.89971923828125,34.89939498901367,-0.032127074897289276,0.07071977108716965,-0.00012207030522404239,-0.10003662109375,581.176111593838
18,21:26:18:188,-0.013394254259765148,0.0,0.9932669997215271,162.83452858478287,366.89355860451826,,-433.89996337890625,34.8994026184082,-0.024916380643844604,0.043043848127126694,-3.0517576306010596e-05,-0.06243894621729851,581.1768596312772
19,21:26:18:208,-0.013394254259765148,0.0,0.9984008073806763,162.8345500472275,366.8935033515675,,-433.8999938964844,34.8994026184082,-0.023743705824017525,0.03816026449203491,-3.051757266803179e-05,-0.0557861290872097,581.176967959589
20,21:26:18:241,-0.013394254259765148,0.0,0.9984008073806763,162.83456701005363,366.8931633092994,,-433.9000549316406,34.899410247802734,-0.021138953045010567,0.026487471535801888,0.0,-0.0398254357278347,581.1772621377389
21,21:26:18:268,-0.07091163843870163,0.0,0.9984008073806763,162.83462260134914,366.8931114302847,,-433.9001159667969,34.899410247802734,-0.020243605598807335,0.022061510011553764,6.4138262132473756e-06,-0.0336913987994194,581.1773932313818
22,21:26:18:295,-0.07756244391202927,0.0,0.9984008073806763,162.83464982186118,366.8930646969937,,-433.900146484375,34.8994140625,-0.01968849077820778,0.019008414819836617,1.5078291653480846e-05,-0.02941894344985485,581.1774815034612
23,21:26:18:332,-0.08340771496295929,0.0,0.9984008073806763,162.8346238478596,366.89247090212973,,-433.9001770019531,34.89940643310547,-0.018487509340047836,0.010873660445213318,-3.0517578125e-05,-0.01770019344985485,581.1777069254199
24,21:26:18:357,-0.08371006697416306,0.0,0.9984008073806763,162.83252137029365,366.89030057502094,,-433.8980712890625,34.89925003051758,-0.01837821863591671,0.02030615136027336,-0.007507323753088713,-0.011962889693677425,581.1756210690598
25,21:26:18:385,-0.08371006697416306,0.0,0.9984008073806763,162.82021201088995,366.8777432401617,,-433.8857421875,34.898460388183594,-0.018504180014133453,0.06597279012203217,-0.0439453162252903,0.00356511352583766,581.1633802842667
26,21:26:18:410,-0.08371006697416306,0.0,0.9984008073806763,162.8096970933232,366.8671447255568,,-433.8752136230469,34.8978385925293,-0.01868278533220291,0.09506256878376007,-0.0722961276769638,0.011556166224181652,581.1528815974018
27,21:26:18:443,-0.08371006697416306,0.0,0.9984008073806763,162.7983890854405,366.8557688431973,,-433.8638916015625,34.89717483520508,-0.01885131746530533,0.12031377851963043,-0.102020263671875,0.017971668392419815,581.1415736345259
28,21:26:18:469,-0.08371006697416306,0.0,0.9984008073806763,162.7983890854405,366.8557688431973,,-433.8638916015625,34.89717483520508,-0.01885131746530533,0.12031377851963043,-0.102020263671875,0.017971668392419815,581.1415736345259
29,21:26:18:494,-0.08371006697416306,0.0,0.9984008073806763,162.72956981355475,366.7859893299632,,-433.7950439453125,34.8931884765625,-0.01958724856376648,0.19969423115253448,-0.2735595405101776,0.03654855862259865,581.0729083827455
30,21:26:18:527,-0.08371006697416306,0.0,0.9984008073806763,162.70816921207947,366.76450346797105,,-433.77362060546875,34.891929626464844,-0.019754065200686455,0.21000099182128906,-0.32543936371803284,0.03902304172515869,581.0514879572023
31,21:26:18:553,-0.08371006697416306,0.0,1.0,162.6661623569552,366.7222591438061,,-433.7315673828125,34.88943862915039,-0.019967498257756233,0.22040335834026337,-0.4261779487133026,0.041920337826013565,581.0094739647512
32,21:26:18:577,-0.08371006697416306,0.0,1.0,162.64034116564955,366.6963466813067,,-433.7057189941406,34.88787841796875,-0.0200811754912138,0.22235679626464844,-0.48742660880088806,0.04288129135966301,580.9836305835266
33,21:26:18:602,-0.08371006697416306,0.0,1.0,162.64034116564955,366.6963466813067,,-433.7057189941406,34.88787841796875,-0.0200811754912138,0.22235679626464844,-0.48742660880088806,0.04288129135966301,580.9836305835266
34,21:26:18:626,-0.08371006697416306,0.0,1.0,162.64034116564955,366.6963466813067,,-433.7057189941406,34.88787841796875,-0.0200811754912138,0.22235679626464844,-0.48742660880088806,0.04288129135966301,580.9836305835266
35,21:26:18:661,-0.08239986002445221,0.0,1.0,162.52270277753638,366.57798276314674,,-433.58795166015625,34.88054656982422,-0.02025638520717621,0.2124461978673935,-0.7618712186813354,0.0434437058866024,580.865979897585
36,21:26:18:687,-0.08219829201698303,0.0,1.0,162.4664285792797,366.52146899302437,,-433.5316162109375,34.876895904541016,-0.020292013883590698,0.2034098505973816,-0.8907777070999146,0.042966388165950775,580.8096717712749
37,21:26:18:713,-0.08219829201698303,0.0,1.0,162.43457238379634,366.48952722920023,,-433.4997253417969,34.87478256225586,-0.02031024917960167,0.19809596240520477,-0.9633787870407104,0.042711976915597916,580.7778031399841
38,21:26:18:723,-0.08219829201698303,0.0,1.0,162.4059477721439,366.4608358472164,,-433.4710693359375,34.872859954833984,-0.02030361071228981,0.1934104561805725,-1.0283812284469604,0.042534638196229935,580.7491820571332
39,21:26:18:748,-0.08219829201698303,0.0,1.0,162.4059477721439,366.4608358472164,,-433.4710693359375,34.872859954833984,-0.02030361071228981,0.1934104561805725,-1.0283812284469604,0.042534638196229935,580.7491820571332
40,21:26:18:771,-0.08219829201698303,0.0,1.0,162.4059477721439,366.4608358472164,,-433.4710693359375,34.872859954833984,-0.02030361071228981,0.1934104561805725,-1.0283812284469604,0.042534638196229935,580.7491820571332
41,21:26:18:799,-0.08119046688079834,0.0,1.0,162.28551574431506,366.3393150320745,,-433.3238220214844,34.86259078979492,-0.020241089165210724,0.17222321033477783,-1.3578184843063354,0.041578326374292374,580.6287311996816
42,21:26:18:825,-0.07988031953573227,0.0,1.0,162.21918504222452,366.27288235697847,,-433.2840881347656,34.859710693359375,-0.02025524154305458,0.16755136847496033,-1.445220947265625,0.0413544736802578,580.562368144047
43,21:26:18:852,-0.07524465769529343,0.0,1.0,162.15215635598832,366.2056340624843,,-433.21697998046875,34.85482406616211,-0.02021949738264084,0.16081678867340088,-1.5879210233688354,0.0397527776658535,580.4953242853171
44,21:26:18:878,-0.07524465769529343,0.0,1.0,162.15215635598832,366.2056340624843,,-433.21697998046875,34.85482406616211,-0.02021949738264084,0.16081678867340088,-1.5879210233688354,0.0397527776658535,580.4953242853171
45,21:26:18:902,-0.07524465769529343,0.0,1.0,162.15215635598832,366.2056340624843,,-433.21697998046875,34.85482406616211,-0.02021949738264084,0.16081678867340088,-1.5879210233688354,0.0397527776658535,580.4953242853171
46,21:26:18:926,-0.050459470599889755,0.0,1.0,162.01101465401734,366.0637394025027,,-433.07568359375,34.84550857543945,-0.02017265185713768,0.15080374479293823,-1.818664312362671,0.020427687093615532,580.3541600144672
47,21:26:18:952,-0.043911825865507126,0.0,1.0,161.9317206065727,365.9842069899019,,-432.9963073730469,34.84054946899414,-0.020168723538517952,0.1470334678888321,-1.92498779296875,0.011971374973654747,580.2748495672838
48,21:26:18:991,-0.03303356096148491,0.0,1.0,161.88187459543423,365.9341841428995,,-432.90130615234375,34.83501052856445,-0.020140113309025764,0.14388476312160492,-2.0255126953125,0.00036807742435485125,580.2249849309195
49,21:26:19:006,-0.024069730192422867,0.0,1.0,161.8368117121079,365.88911968206776,,-432.90130615234375,34.83501052856445,-0.020140113309025764,0.14388476312160492,-2.0255126953125,0.00036807742435485125,580.1799035351846
50,21:26:19:045,-0.024069730192422867,0.0,1.0,161.79345622163336,365.8455894270651,,-432.85791015625,34.8326416015625,-0.020137175917625427,0.1428329050540924,-2.061492919921875,-0.004913330078125,580.1365337521768
51,21:26:19:074,-0.010574384592473507,0.0,1.0,161.64526743568527,365.6967991122521,,-432.7095947265625,34.82541275024414,-0.020160675048828125,0.1406540721654892,-2.135833740234375,-0.02328491024672985,579.9883323100829
52,21:26:19:102,-0.008258077315986156,0.0,1.0,161.55494679057708,365.60626043229405,,-432.61920166015625,34.82130432128906,-0.02013988420367241,0.14014863967895508,-2.164825439453125,-0.028350822627544403,579.8979848273175
53,21:26:19:108,-0.008258077315986156,0.0,1.0,161.55494679057708,365.60626043229405,,-432.61920166015625,34.82130432128906,-0.02013988420367241,0.14014863967895508,-2.164825439453125,-0.028350822627544403,579.8979848273175
54,21:26:19:136,-0.008056660182774067,0.0,1.0,161.4656006966062,365.51671473526153,,-432.52978515625,34.81732940673828,-0.020113905891776085,0.14008717238903046,-2.188415288925171,-0.0295104943215847,579.8086276803011
55,21:26:19:161,-0.008056660182774067,0.0,1.0,161.4074184104092,365.4584468245486,,-432.4715576171875,34.81475830078125,-0.020085792988538742,0.140244260430336,-2.202575445175171,-0.028717035427689552,579.7504275988794
56,21:26:19:210,-0.008056660182774067,0.0,1.0,161.4074184104092,365.4584468245486,,-432.4715576171875,34.81475830078125,-0.020085792988538742,0.140244260430336,-2.202575445175171,-0.028717035427689552,579.7504275988794
57,21:26:19:229,-0.008056660182774067,0.0,1.0,161.18060780854148,365.2306484963057,,-432.24456787109375,34.804771423339844,-0.020072631537914276,0.1419108361005783,-2.254578113555908,-0.02035522274672985,579.523600326293
58,21:26:19:256,-0.008056660182774067,0.0,1.0,161.1223951780565,365.17235701463864,,-432.1863098144531,34.80219268798828,-0.02009895257651806,0.14254604279994965,-2.267609119415283,-0.01779174618422985,579.4653693748925
59,21:26:19:315,-0.008056660182774067,0.0,1.0,160.98215682932093,365.0317715763576,,-432.04595947265625,34.795955657958984,-0.020085640251636505,0.1443013995885849,-2.298767328262329,-0.012115479446947575,579.3250881554258
60,21:26:19:346,-0.008056660182774067,0.0,1.0,160.8027051009044,364.851800290553,,-431.8663635253906,34.78788375854492,-0.020143775269389153,0.14690369367599487,-2.33843994140625,-0.00604248046875,579.1455804819383
61,21:26:19:370,-0.008056660182774067,0.0,1.0,160.74178023923696,364.7908036787532,,-431.8053894042969,34.785118103027344,-0.0201574694365263,0.1478462666273117,-2.351837396621704,-0.00433349609375,579.0846352891481
62,21:26:19:416,-0.008056660182774067,0.0,1.0,160.60447203578747,364.65321232176905,,-431.66796875,34.77884292602539,-0.020155638456344604,0.15003876388072968,-2.382019281387329,-0.0010375980054959655,578.9472969335475
63,21:26:19:443,-0.008056660182774067,0.0,1.0,160.47902590134936,364.5275364233505,,-431.54241943359375,34.77305603027344,-0.020182380452752113,0.15213562548160553,-2.409515142440796,0.0013665287988260388,578.8218081550442
64,21:26:19:486,-0.008056660182774067,0.0,1.0,160.40770468167838,364.45613009584997,,-431.4710388183594,34.769737243652344,-0.020209770649671555,0.15335823595523834,-2.425140619277954,0.002526573371142149,578.7504620440917
65,21:26:19:521,-0.008056660182774067,0.0,1.0,160.40770694221575,364.45548446194,,-431.2394714355469,34.758853912353516,-0.020245283842086792,0.15734022855758667,-2.475677728652954,0.005460900254547596,578.7504695071616
66,21:26:19:527,-0.008056660182774067,0.0,1.0,160.17633348379476,364.22411121675833,,-431.2394714355469,34.758853912353516,-0.020245283842086792,0.15734022855758667,-2.475677728652954,0.005460900254547596,578.519010915007
67,21:26:19:561,-0.008056660182774067,0.0,1.0,160.03659135745866,364.08412872921633,,-431.099609375,34.75218963623047,-0.020258445292711258,0.15977177023887634,-2.506134271621704,0.006778163369745016,578.3792179044976
68,21:26:19:587,-0.008056660182774067,0.0,1.0,159.95661270050573,364.0040599229171,,-431.0195617675781,34.748348236083984,-0.020284004509449005,0.16117195785045624,-2.52349853515625,0.007422975264489651,578.2992094345618
69,21:26:19:613,-0.008056660182774067,0.0,1.0,159.8169633602894,363.86417898503436,,-430.8797912597656,34.74158477783203,-0.020238036289811134,0.15591271221637726,-2.553619146347046,0.008197085931897163,578.1595071735119
70,21:26:19:637,-0.008056660182774067,0.0,1.0,159.8169633602894,363.86417898503436,,-430.8797912597656,34.74158477783203,-0.020238036289811134,0.15591271221637726,-2.553619146347046,0.008197085931897163,578.1595071735119
71,21:26:19:662,-0.008056660182774067,0.0,1.0,159.8169633602894,363.86417898503436,,-430.8797912597656,34.74158477783203,-0.020238036289811134,0.15591271221637726,-2.553619146347046,0.008197085931897163,578.1595071735119
72,21:26:19:685,-0.008056660182774067,0.0,1.0,159.5030012542613,363.5492021827831,,-430.5655517578125,34.72613525390625,-0.019889984279870987,0.113025963306427,-2.61993408203125,0.008886306546628475,577.8454236144632
73,21:26:19:710,-0.008056660182774067,0.0,1.0,159.4216534405157,363.46776526641804,,-430.484130859375,34.722068786621094,-0.019900016486644745,0.11112717539072037,-2.63726806640625,0.009252915158867836,577.7640429140552
74,21:26:19:735,-0.008056660182774067,0.0,1.0,159.3374411927569,363.383462765709,,-430.39984130859375,34.717830657958984,-0.019961051642894745,0.1172538474202156,-2.655456781387329,0.00976807251572609,577.6797967183269
75,21:26:19:766,-0.008056660182774067,0.0,1.0,159.26917562635361,363.31513928731937,,-430.3315124511719,34.714378356933594,-0.02000347152352333,0.12555935978889465,-2.670319080352783,0.010216287337243557,577.6115033610022
76,21:26:19:803,-0.008056660182774067,0.0,1.0,159.17816619028704,363.22349134985524,,-430.0503845214844,34.69999694824219,-0.02027927339076996,0.17115770280361176,-2.731720447540283,0.011992025189101696,577.5204591621218
77,21:26:19:815,-0.008056660182774067,0.0,1.0,158.9883122701297,363.0336304487872,,-430.0503845214844,34.69999694824219,-0.02027927339076996,0.17115770280361176,-2.731720447540283,0.011992025189101696,577.330525290966
78,21:26:19:846,-0.008056660182774067,0.0,1.0,158.81711997359488,362.86228982212174,,-429.8790283203125,34.691104888916016,-0.020474815741181374,0.19731049239635468,-2.769104480743408,0.012930432334542274,577.1592600426303
79,21:26:19:871,-0.008056660182774067,0.0,1.0,158.63864291831214,362.6835647160487,,-429.70037841796875,34.68172836303711,-0.020557556301355362,0.22114785015583038,-2.807892322540283,0.013880478218197823,576.9807049992114
80,21:26:19:897,-0.008056660182774067,0.0,1.0,158.53434422046806,362.57917618397653,,-429.5959777832031,34.676204681396484,-0.02058284729719162,0.23189173638820648,-2.830475330352783,0.014358321204781532,576.8763596298581
81,21:26:19:923,-0.008056660182774067,0.0,1.0,158.53434422046806,362.57917618397653,,-429.5959777832031,34.676204681396484,-0.02058284729719162,0.23189173638820648,-2.830475330352783,0.014358321204781532,576.8763596298581
82,21:26:19:947,-0.008056660182774067,0.0,1.0,158.53434422046806,362.57917618397653,,-429.5959777832031,34.676204681396484,-0.02058284729719162,0.23189173638820648,-2.830475330352783,0.014358321204781532,576.8763596298581
83,21:26:19:981,-0.0005035400390625,0.0,1.0,158.06708695206515,362.1111041589877,,-429.1282653808594,34.65172576904297,-0.020687445998191833,0.2596769332885742,-2.896270990371704,0.0067566558718681335,576.4088932389142
84,21:26:20:025,0.0006042480817995965,0.0,1.0,157.88504366827442,361.92885650918174,,-428.946044921875,34.64231872558594,-0.020715445280075073,0.26400044560432434,-2.907837152481079,0.00276488671079278,576.2267677128577
85,21:26:20:062,0.0006042480817995965,0.0,1.0,157.61729838688186,361.66072024472396,,-428.67803955078125,34.62858581542969,-0.020745201036334038,0.26678717136383057,-2.9157721996307373,-0.0016479489859193563,575.9589010907806
86,21:26:20:093,0.0006042480817995965,0.0,1.0,157.40339558671744,361.44656878968664,,-428.46392822265625,34.61765670776367,-0.02075939066708088,0.2669784128665924,-2.9180610179901123,-0.0035095210187137127,575.7449002643526
87,21:26:20:130,0.0006042480817995965,0.0,1.0,157.29772515602838,361.34082389697284,,-428.358154296875,34.61225891113281,-0.020764006301760674,0.26665741205215454,-2.9184272289276123,-0.004058837890625,575.6391809750304
88,21:26:20:154,0.0006042480817995965,0.0,1.0,157.29772515602838,361.34082389697284,,-428.358154296875,34.61225891113281,-0.020764006301760674,0.26665741205215454,-2.9184272289276123,-0.004058837890625,575.6391809750304
89,21:26:20:177,0.0006042480817995965,0.0,1.0,156.88544226533656,360.92780385794146,,-427.9454650878906,34.59126663208008,-0.02077026292681694,0.2638433575630188,-2.917175769805908,-0.004638672340661287,575.2267064110598
90,21:26:20:203,0.0006042480817995965,0.0,1.0,156.77818768223318,360.82047893449743,,-427.8381042480469,34.5858154296875,-0.020769309252500534,0.2628802955150604,-2.916412830352783,-0.004577636253088713,575.1194010731656
91,21:26:20:230,0.0006042480817995965,0.0,1.0,156.50270525701612,360.5446946656243,,-427.5623474121094,34.57182312011719,-0.020764274522662163,0.26023703813552856,-2.9140634536743164,-0.004241944756358862,574.8437875143943
92,21:26:20:256,0.0006042480817995965,0.0,1.0,156.37093957644424,360.4128322779589,,-427.4304504394531,34.56513977050781,-0.020760230720043182,0.25891879200935364,-2.912750482559204,-0.004028318915516138,574.711958204983
93,21:26:20:283,0.0006042480817995965,0.0,1.0,156.12530654039043,360.1669397712733,,-427.1845703125,34.55268859863281,-0.020752066746354103,0.25653505325317383,-2.9101874828338623,-0.0036621096078306437,574.4662061308233
94,21:26:20:309,0.0006042480817995965,0.0,1.0,156.12530654039043,360.1669397712733,,-427.1845703125,34.55268859863281,-0.020752066746354103,0.25653505325317383,-2.9101874828338623,-0.0036621096078306437,574.4662061308233
95,21:26:20:335,0.0006042480817995965,0.0,1.0,156.12530654039043,360.1669397712733,,-427.1845703125,34.55268859863281,-0.020752066746354103,0.25653505325317383,-2.9101874828338623,-0.0036621096078306437,574.4662061308233
96,21:26:20:361,0.0006042480817995965,0.0,1.0,155.5437134840563,359.5842075733038,,-426.6023864746094,34.523258209228516,-0.020695114508271217,0.24640588462352753,-2.903595447540283,-0.0028381338343024254,573.8843266171181
97,21:26:20:385,0.0006042480817995965,0.0,1.0,155.5437134840563,359.5841113684327,,-426.441162109375,34.51511764526367,-0.02059783972799778,0.2316800057888031,-2.901581048965454,-0.002655028598383069,573.8843268059752
98,21:26:20:412,0.0006042480817995965,0.0,1.0,155.2537867605383,359.2939580796517,,-426.3121643066406,34.508609771728516,-0.020489463582634926,0.21543781459331512,-2.899902820587158,-0.002532958984375,573.5942525050635
99,21:26:20:438,0.0006042480817995965,0.0,1.0,154.9966341550515,359.03644641438893,,-426.05474853515625,34.495628356933594,-0.020244751125574112,0.17894411087036133,-2.896423816680908,-0.0023193359375,573.3369671979444
100,21:26:20:466,0.0006042480817995965,0.0,1.0,154.9966341550515,359.03644641438893,,-426.05474853515625,34.495628356933594,-0.020244751125574112,0.17894411087036133,-2.896423816680908,-0.0023193359375,573.3369671979444
101,21:26:20:496,0.0006042480817995965,0.0,1.0,154.83609496952582,358.87578697291013,,-425.89404296875,34.48753356933594,-0.02012805826961994,0.1615954339504242,-2.894226312637329,-0.0022277822718024254,573.1763447664321
102,21:26:20:514,0.0006042480817995965,0.0,1.0,154.38323163912492,358.42218648546424,,-425.4407043457031,34.46472930908203,-0.020172080025076866,0.16809777915477753,-2.888428211212158,-0.0021057126577943563,572.7232464616134
103,21:26:20:546,0.0006042480817995965,0.0,1.0,154.2527851576512,358.2916589404984,,-425.31011962890625,34.458168029785156,-0.020230025053024292,0.1766696572303772,-2.886841058731079,-0.0021057126577943563,572.5927315485941
104,21:26:20:590,0.0006042480817995965,0.0,1.0,153.95729265850028,357.9957841327772,,-424.85943603515625,34.43556213378906,-0.02044902741909027,0.20909257233142853,-2.88153076171875,-0.00201416015625,572.2970828884426
105,21:26:20:622,0.0006042480817995965,0.0,1.0,153.80258161380883,357.8410502722911,,-424.85943603515625,34.43556213378906,-0.02044902741909027,0.20909257233142853,-2.88153076171875,-0.00201416015625,572.142289122131
106,21:26:20:647,0.0006042480817995965,0.0,1.0,153.63000772951585,357.66836104723654,,-424.6866760253906,34.426902770996094,-0.020519675686955452,0.2195700854063034,-2.879547357559204,-0.0019836421124637127,571.9696224683486
107,21:26:20:690,0.0006042480817995965,0.0,1.0,152.97797498037062,357.01541071299283,,-424.033935546875,34.39424133300781,-0.020714377984404564,0.24828419089317322,-2.872101306915283,-0.0019226070726290345,571.317232914985
108,21:26:20:721,0.0006042480817995965,0.0,1.0,152.81924409273927,356.85651215017117,,-423.7257080078125,34.378841400146484,-0.02076461724936962,0.25568127632141113,-2.868591785430908,-0.0019226076547056437,571.1584135230288
109,21:26:20:746,0.0006042480817995965,0.0,1.0,152.67008552160206,356.7073272672222,,-423.7257080078125,34.378841400146484,-0.02076461724936962,0.25568127632141113,-2.868591785430908,-0.0019226076547056437,571.0091710367766
110,21:26:20:769,0.0006042480817995965,0.0,1.0,152.67008552160206,356.7073272672222,,-423.7257080078125,34.378841400146484,-0.02076461724936962,0.25568127632141113,-2.868591785430908,-0.0019226076547056437,571.0091710367766
111,21:26:20:792,0.0006042480817995965,0.0,1.0,152.08790632523514,356.12432918696106,,-423.14288330078125,34.34977340698242,-0.020809020847082138,0.2621358036994934,-2.861999750137329,-0.0019226070726290345,570.4266599835566
112,21:26:20:825,0.0006042480817995965,0.0,1.0,151.77045199275517,355.8065899059026,,-422.8250732421875,34.33395004272461,-0.02081424742937088,0.2628939747810364,-2.858429431915283,-0.0019531252328306437,570.1090211408996
113,21:26:20:858,0.001007080078125,0.0,1.0,151.5828585635692,355.6188777132277,,-422.63726806640625,34.324607849121094,-0.020813370123505592,0.2627437114715576,-2.8560798168182373,-0.0020751950796693563,569.9213175665202
114,21:26:20:885,0.0033233657013624907,0.0,1.0,151.23160062663896,355.26729048142107,,-422.2856140136719,34.30721664428711,-0.020805319771170616,0.2615211009979248,-2.847717523574829,-0.0038146974984556437,569.5698518370579
115,21:26:20:911,0.0033233657013624907,0.0,1.0,151.23160062663896,355.26729048142107,,-422.2856140136719,34.30721664428711,-0.020805319771170616,0.2615211009979248,-2.847717523574829,-0.0038146974984556437,569.5698518370579
116,21:26:20:935,0.0035247819032520056,0.0,1.0,151.03230310785605,355.067864796651,,-422.0860900878906,34.29741287231445,-0.020798567682504654,0.26052388548851013,-2.840332508087158,-0.005249023903161287,569.3704359323602
117,21:26:20:960,0.0038269064389169216,0.0,1.0,150.48229920309365,354.51713580392504,,-421.53546142578125,34.27060317993164,-0.020773811265826225,0.2568492591381073,-2.811096429824829,-0.009674072265625,568.8201028550394
118,21:26:20:986,0.0038269064389169216,0.0,1.0,150.29385398379185,354.3285694872882,,-421.3468017578125,34.26149368286133,-0.02076423540711403,0.25543540716171265,-2.799041986465454,-0.010925290174782276,568.6315437972706
119,21:26:21:012,0.0038269064389169216,0.0,1.0,149.94955129575268,353.983966448609,,-421.0021057128906,34.24494171142578,-0.020746726542711258,0.25283992290496826,-2.775269031524658,-0.012817381881177425,568.2870320102111
120,21:26:21:037,0.0038269064389169216,0.0,1.0,149.94955129575268,353.983966448609,,-421.0021057128906,34.24494171142578,-0.020746726542711258,0.25283992290496826,-2.775269031524658,-0.012817381881177425,568.2870320102111
121,21:26:21:077,0.0038269064389169216,0.0,1.0,149.2921027810882,353.32567756913085,,-420.3439025878906,34.213706970214844,-0.02071334794163704,0.24790170788764954,-2.725800037384033,-0.01544189453125,567.629180641713
122,21:26:21:110,0.0038269064389169216,0.0,1.0,148.93314090820178,352.9664120355699,,-419.9845275878906,34.19685363769531,-0.020666083320975304,0.2409212440252304,-2.69732666015625,-0.01654052548110485,567.2699962589154
123,21:26:21:116,0.0038269064389169216,0.0,1.0,148.93314090820178,352.9664120355699,,-419.9845275878906,34.19685363769531,-0.020666083320975304,0.2409212440252304,-2.69732666015625,-0.01654052548110485,567.2699962589154
124,21:26:21:148,0.0038269064389169216,0.0,1.0,148.57097823434506,352.603938154516,,-419.6219482421875,34.18000030517578,-0.02050628699362278,0.2172205001115799,-2.667724847793579,-0.0174560509622097,566.9076070013416
125,21:26:21:173,0.0038269064389169216,0.0,1.0,148.34354878724665,352.37635840098557,,-419.3942565917969,34.16950225830078,-0.020372619852423668,0.1974402666091919,-2.648773431777954,-0.0179443322122097,566.6800344888705
126,21:26:21:201,0.0038269064389169216,0.0,1.0,148.34354878724665,352.37635840098557,,-419.3942565917969,34.16950225830078,-0.020372619852423668,0.1974402666091919,-2.648773431777954,-0.0179443322122097,566.6800344888705
127,21:26:21:224,0.0038269064389169216,0.0,1.0,148.12538582166843,352.158054814149,,-418.7450256347656,34.139923095703125,-0.020097998902201653,0.15693041682243347,-2.593933343887329,-0.0195007286965847,566.4617336058982
128,21:26:21:250,0.0038269064389169216,0.0,1.0,147.49555971496432,351.52744589668936,,-418.5452880859375,34.130943298339844,-0.020103873685002327,0.1578456610441208,-2.577057361602783,-0.02001952938735485,565.8315091056232
129,21:26:21:279,0.0038269064389169216,0.0,1.0,147.10928995480373,351.1408469737332,,-418.1585693359375,34.113704681396484,-0.020173339173197746,0.1682138890028,-2.544495105743408,-0.0209655724465847,565.4449945590097
130,21:26:21:312,0.0038269064389169216,0.0,1.0,146.71930287785037,350.75054066172333,,-417.76812744140625,34.09648513793945,-0.020268669351935387,0.18235920369625092,-2.511780261993408,-0.021759033203125,565.0547592832888
131,21:26:21:361,0.0038269064389169216,0.0,1.0,146.48218265831682,350.5132735809558,,-417.5307312011719,34.086124420166016,-0.020327109843492508,0.19100622832775116,-2.492004871368408,-0.02224731259047985,564.8174876267728
132,21:26:21:402,0.0038269064389169216,0.0,1.0,146.48218263230953,350.5131793238741,,-417.28717041015625,34.07556915283203,-0.020382309332489967,0.19920246303081512,-2.471740961074829,-0.02270507626235485,564.8174876587553
133,21:26:21:410,0.0038269064389169216,0.0,1.0,145.72592142330112,349.75607658737255,,-416.7735900878906,34.05357360839844,-0.020478248596191406,0.21335460245609283,-2.429291009902954,-0.0236206017434597,564.0607405851162
134,21:26:21:435,0.0038269064389169216,0.0,1.0,145.32285670865153,349.3526835688879,,-416.37005615234375,34.03653335571289,-0.020528677850961685,0.22077901661396027,-2.396087884902954,-0.0242919884622097,563.6574152893763
135,21:26:21:473,0.0038269064389169216,0.0,1.0,145.08463936698843,349.114248324076,,-415.9169921875,34.01765060424805,-0.020562704652547836,0.22577188909053802,-2.358978271484375,-0.0249938927590847,563.4190434123636
136,21:26:21:513,0.0038269064389169216,0.0,1.0,144.42753609128735,348.4565140493995,,-415.47369384765625,33.99943542480469,-0.020579032599925995,0.22812147438526154,-2.3228156566619873,-0.02566528134047985,562.7615115904101
137,21:26:21:538,0.0038269064389169216,0.0,1.0,144.42753609128735,348.4565140493995,,-415.47369384765625,33.99943542480469,-0.020579032599925995,0.22812147438526154,-2.3228156566619873,-0.02566528134047985,562.7615115904101
138,21:26:21:563,0.0038269064389169216,0.0,1.0,144.42753609128735,348.4565140493995,,-415.47369384765625,33.99943542480469,-0.020579032599925995,0.22812147438526154,-2.3228156566619873,-0.02566528134047985,562.7615115904101
139,21:26:21:586,0.004229739308357239,0.0,1.0,143.62405754260044,347.65207918161946,,-414.6692810058594,33.967063903808594,-0.02057792618870735,0.22786876559257507,-2.255584716796875,-0.027435302734375,561.9575064513756
140,21:26:21:615,0.0066467393189668655,0.0,1.0,143.17587704209998,347.2035426761698,,-414.2205810546875,33.94944381713867,-0.020566977560520172,0.22620902955532074,-2.214111089706421,-0.0296325646340847,561.5090317012026
141,21:26:21:641,0.0066467393189668655,0.0,1.0,142.94070417821402,346.9682294901025,,-413.9851379394531,33.940364837646484,-0.020559081807732582,0.22500690817832947,-2.189880609512329,-0.0313720703125,561.2737047563456
142,21:26:21:669,0.00866091251373291,0.0,1.0,142.49605279389814,346.5232276267048,,-413.53997802734375,33.92353820800781,-0.020542029291391373,0.22247974574565887,-2.137298345565796,-0.0359191820025444,560.8287636667786
143,21:26:21:697,0.00866091251373291,0.0,1.0,142.49605279389814,346.5232276267048,,-413.53997802734375,33.92353820800781,-0.020542029291391373,0.22247974574565887,-2.137298345565796,-0.0359191820025444,560.8287636667786
144,21:26:21:733,0.00866091251373291,0.0,1.0,142.4960532038839,346.5224764388213,,-412.6971435546875,33.89291763305664,-0.02050601877272129,0.21715901792049408,-2.016815185546875,-0.0450134351849556,560.8287643593115
145,21:26:21:747,0.009063748642802238,0.0,1.0,141.48739160452914,345.51327085681913,,-412.5301818847656,33.887046813964844,-0.02049911394715309,0.21613448858261108,-1.9905699491500854,-0.046539306640625,559.8194532682321
146,21:26:21:790,0.009063748642802238,0.0,1.0,141.01467607352825,345.04019268352647,,-412.05694580078125,33.87076950073242,-0.020478324964642525,0.21307456493377686,-1.912994623184204,-0.0506896898150444,559.346437689125
147,21:26:21:828,0.009063748642802238,0.0,1.0,140.50811728452157,344.5332438238659,,-411.5498352050781,33.85392379760742,-0.020457686856389046,0.21000781655311584,-1.8261414766311646,-0.0544128380715847,558.839561315429
148,21:26:21:853,0.009063748642802238,0.0,1.0,140.50811728452157,344.5332438238659,,-411.5498352050781,33.85392379760742,-0.020457686856389046,0.21000781655311584,-1.8261414766311646,-0.0544128380715847,558.839561315429
149,21:26:21:884,0.009063748642802238,0.0,1.0,140.50811661826776,344.5325429514156,,-410.70068359375,33.82704544067383,-0.02042533829808235,0.20519936084747314,-1.6812745332717896,-0.058074939996004105,558.8395606365989
150,21:26:21:910,0.006445322185754776,0.0,1.0,139.42485670038408,343.4486379737639,,-410.4654235839844,33.819889068603516,-0.020416907966136932,0.20396310091018677,-1.6424559354782104,-0.0585937425494194,557.7556338989951
151,21:26:21:935,0.006445322185754776,0.0,1.0,139.17219032405237,343.19583930754254,,-410.2124938964844,33.81233215332031,-0.020407982170581818,0.2026585340499878,-1.6018069982528687,-0.0589294359087944,557.5028145350273
152,21:26:21:963,0.005538946948945522,0.0,1.0,138.6830407555513,342.70634343565223,,-409.72283935546875,33.7980842590332,-0.02039218880236149,0.20032261312007904,-1.527221441268921,-0.058868397027254105,557.013371313009
153,21:26:22:008,0.005538946948945522,0.0,1.0,138.27455143606434,342.2975934745905,,-409.3139343261719,33.786582946777344,-0.020379867404699326,0.1984989494085312,-1.468658447265625,-0.0587158128619194,556.6046395245621
154,21:26:22:035,0.005538946948945522,0.0,1.0,137.84108923451228,341.8638032583486,,-408.66168212890625,33.76896286010742,-0.02036277763545513,0.19595128297805786,-1.380340576171875,-0.0588684044778347,556.170922826
155,21:26:22:073,0.005538946948945522,0.0,1.0,137.14323044377875,341.1654279582155,,-408.1814880371094,33.7565803527832,-0.020350951701402664,0.19421641528606415,-1.3184510469436646,-0.0592651292681694,555.4726607525778
156,21:26:22:098,0.005538946948945522,0.0,1.0,136.8596928611947,340.8817579040046,,-407.8976745605469,33.749488830566406,-0.02034481056034565,0.19329434633255005,-1.282806396484375,-0.0595397911965847,555.1889617236068
157,21:26:22:123,0.005538946948945522,0.0,1.0,136.8596928611947,340.8817579040046,,-407.8976745605469,33.749488830566406,-0.02034481056034565,0.19329434633255005,-1.282806396484375,-0.0595397911965847,555.1889617236068
158,21:26:22:157,0.005538946948945522,0.0,1.0,135.95939508246207,339.9806196932729,,-406.99652099609375,33.72810363769531,-0.020326079800724983,0.19056226313114166,-1.1733094453811646,-0.0606079064309597,554.2881603995032
159,21:26:22:170,0.005538946948945522,0.0,1.0,135.7421296258044,339.76326777292616,,-406.779052734375,33.72319412231445,-0.020322304219007492,0.18997487425804138,-1.1475220918655396,-0.0608520470559597,554.0707756111345
160,21:26:22:207,0.005538946948945522,0.0,1.0,135.22127644264037,339.242087590199,,-406.2577209472656,33.71182632446289,-0.020313110202550888,0.1886361539363861,-1.0865478515625,-0.0614318773150444,553.5496397878569
161,21:26:22:235,0.005538946948945522,0.0,1.0,134.95604444037633,338.97674132486566,,-405.99224853515625,33.70624542236328,-0.020308837294578552,0.18800094723701477,-1.055816411972046,-0.0616760179400444,553.2842657257241
162,21:26:22:262,0.005538946948945522,0.0,1.0,134.95604444037633,338.97674132486566,,-405.99224853515625,33.70624542236328,-0.020308837294578552,0.18800094723701477,-1.055816411972046,-0.0616760179400444,553.2842657257241
163,21:26:22:286,0.005538946948945522,0.0,1.0,134.04712267669842,338.0670313936292,,-405.08251953125,33.68817138671875,-0.02029605768620968,0.1861158162355423,-0.9520261883735657,-0.0624389573931694,552.3748669484272
164,21:26:22:313,0.005538946948945522,0.0,1.0,133.76916511449596,337.7889587494769,,-404.8043212890625,33.6829719543457,-0.02029258757829666,0.18558989465236664,-0.9206845760345459,-0.06265256553888321,552.0967665575752
165,21:26:22:339,0.005538946948945522,0.0,1.0,133.25449945702766,337.274011234915,,-404.2892150878906,33.67372131347656,-0.02028682641685009,0.1847156286239624,-0.8629149198532104,-0.0629577487707138,551.5818401221512
166,21:26:22:366,0.005538946948945522,0.0,1.0,132.97473517195607,336.9941364849835,,-404.00921630859375,33.668914794921875,-0.020283736288547516,0.18425117433071136,-0.8317259550094604,-0.0631408542394638,551.3019362124428
167,21:26:22:393,0.005538946948945522,0.0,1.0,132.6669776341572,336.68626032318764,,-403.7012023925781,33.66378402709961,-0.020280685275793076,0.18380038440227509,-0.7975158095359802,-0.0633239597082138,550.9940266353992
168,21:26:22:420,0.005538946948945522,0.0,1.0,132.3580878963925,336.37725433465977,,-403.3920593261719,33.658817291259766,-0.020277785137295723,0.18337690830230713,-0.7632750272750854,-0.0635070726275444,550.6849861599205
169,21:26:22:466,0.005538946948945522,0.0,1.0,131.40416711168396,335.4225678007401,,-402.4373779296875,33.644615173339844,-0.020269470289349556,0.1821611374616623,-0.6582642197608948,-0.0640563890337944,549.730611706945
170,21:26:22:478,0.005538946948945522,0.0,1.0,131.40416711168396,335.4225678007401,,-402.4373779296875,33.644615173339844,-0.020269470289349556,0.1821611374616623,-0.6582642197608948,-0.0640563890337944,549.730611706945
171,21:26:22:520,0.005538946948945522,0.0,1.0,130.54017369530257,334.5581589799821,,-401.5727233886719,33.633216857910156,-0.020263632759451866,0.181239053606987,-0.5638732314109802,-0.064605712890625,548.866223365101
172,21:26:22:544,0.005538946948945522,0.0,1.0,130.2647137485255,334.28260992162546,,-401.29705810546875,33.6298713684082,-0.020261801779270172,0.18097950518131256,-0.5339049100875854,-0.0647582858800888,548.5906407775707
173,21:26:22:571,0.005538946948945522,0.0,1.0,129.9990402129874,334.01685474060577,,-401.03118896484375,33.62677001953125,-0.020260315388441086,0.18075411021709442,-0.5050353407859802,-0.0649413913488388,548.3248503639603
174,21:26:22:617,0.005538946948945522,0.0,1.0,129.66359056970086,333.6812938400548,,-400.69549560546875,33.62303161621094,-0.020258331671357155,0.18048091232776642,-0.46868887543678284,-0.0651550218462944,547.9892552035071
175,21:26:22:640,0.005538946948945522,0.0,1.0,128.67029840952162,332.6872748140883,,-399.7015075683594,33.6131591796875,-0.020253676921129227,0.1797705739736557,-0.3614806830883026,-0.06591796875,546.9955463457003
176,21:26:22:663,0.005538946948945522,0.0,1.0,128.37148902426674,332.3883771972007,,-399.4024963378906,33.61054229736328,-0.020252380520105362,0.17957931756973267,-0.329376220703125,-0.0661621019244194,546.6966159444412
177,21:26:22:692,0.005538946948945522,0.0,1.0,128.01497619440536,332.0317553006492,,-399.0457458496094,33.60761642456055,-0.020250968635082245,0.17936758697032928,-0.2911376357078552,-0.0664672777056694,546.3399611845123
178,21:26:22:718,0.005538946948945522,0.0,1.0,127.47147369376005,331.4880261135158,,-398.50189208984375,33.60359573364258,-0.02021671272814274,0.17428593337535858,-0.23275752365589142,-0.0669555515050888,545.7962476937055
179,21:26:22:745,0.005538946948945522,0.0,1.0,127.16636776514208,331.18283611007564,,-398.19659423828125,33.60157012939453,-0.02016296423971653,0.1663014441728592,-0.1997680515050888,-0.0672607272863388,545.4910261344289
180,21:26:22:773,0.005538946948945522,0.0,1.0,126.87974066725769,330.8961360218753,,-397.9097900390625,33.599815368652344,-0.020093917846679688,0.1561039686203003,-0.168609619140625,-0.0675659105181694,545.2042922846674
181,21:26:22:799,0.005538946948945522,0.0,1.0,126.87974066725769,330.8961360218753,,-397.9097900390625,33.599815368652344,-0.020093917846679688,0.1561039686203003,-0.168609619140625,-0.0675659105181694,545.2042922846674
182,21:26:22:825,0.005236821714788675,0.0,1.0,125.84785108553427,329.8635398936268,,-396.8772888183594,33.594661712646484,-0.019827498123049736,0.11671426892280579,-0.05630491301417351,-0.0683898776769638,544.1720338379324
183,21:26:22:851,0.004129030741751194,0.0,1.0,125.32171985646875,329.337036825097,,-396.3508605957031,33.592735290527344,-0.019809989258646965,0.11416660249233246,-0.0013732911320403218,-0.0681152269244194,543.645724688052
184,21:26:22:878,0.001913452404551208,0.0,1.0,125.00612894360187,329.02137326329233,,-396.03509521484375,33.59177780151367,-0.019831351935863495,0.11739728599786758,0.028789319097995758,-0.0671386569738388,543.3300298603755
185,21:26:22:907,0.0013092041481286287,0.0,1.0,124.39568065877357,328.41068757314116,,-395.42431640625,33.59027862548828,-0.01990283839404583,0.12800456583499908,0.07931772619485855,-0.0638732761144638,542.719385163061
186,21:26:22:933,0.0013092041481286287,0.0,1.0,124.39568065877357,328.41068757314116,,-395.42431640625,33.59027862548828,-0.01990283839404583,0.12800456583499908,0.07931772619485855,-0.0638732761144638,542.719385163061
187,21:26:22:956,0.0013092041481286287,0.0,1.0,124.39568065877357,328.41068757314116,,-395.42431640625,33.59027862548828,-0.01990283839404583,0.12800456583499908,0.07931772619485855,-0.0638732761144638,542.719385163061
188,21:26:22:982,0.0,0.0,1.0,123.09594090458857,327.1099738783949,,-394.1239013671875,33.588497161865234,-0.020061569288372993,0.1515345722436905,0.15232062339782715,-0.0547485314309597,541.4192445890143
189,21:26:23:027,-0.0009063720935955644,0.0,1.0,122.45355940456568,326.4673560168,,-393.481201171875,33.588260650634766,-0.02012042887508869,0.16021573543548584,0.1737222969532013,-0.05023193359375,540.7766724077488
190,21:26:23:062,-0.002316284691914916,0.0,1.0,121.82319215739308,325.8367767974052,,-392.85052490234375,33.58833312988281,-0.020159529522061348,0.16598725318908691,0.18583926558494568,-0.0455932542681694,540.1461210854513
191,21:26:23:087,-0.002316284691914916,0.0,1.0,121.82319215739308,325.8367767974052,,-392.85052490234375,33.58833312988281,-0.020159529522061348,0.16598725318908691,0.18583926558494568,-0.0455932542681694,540.1461210854513
192,21:26:23:112,-0.002316284691914916,0.0,1.0,121.82319215739308,325.8367767974052,,-392.85052490234375,33.58833312988281,-0.020159529522061348,0.16598725318908691,0.18583926558494568,-0.0455932542681694,540.1461210854513
193,21:26:23:134,-0.0027191168628633022,0.0,1.0,120.73652762833039,324.7494849006195,,-391.7633361816406,33.58893585205078,-0.020232390612363815,0.16911546885967255,0.18306255340576172,-0.0372314490377903,539.0591416882797
194,21:26:23:162,-0.0027191168628633022,0.0,1.0,120.16420148309567,324.1767946880365,,-391.19073486328125,33.58942794799805,-0.02031700126826763,0.16586430370807648,0.17230147123336792,-0.0326538048684597,538.4866499122244
195,21:26:23:188,-0.0027191168628633022,0.0,1.0,119.85185245341408,323.86439513169574,,-390.87823486328125,33.58972930908203,-0.020373953506350517,0.16322101652622223,0.164364755153656,-0.03015136905014515,538.1742102094815
196,21:26:23:215,-0.0027191168628633022,0.0,1.0,119.18728867415625,323.1996095771701,,-390.2133483886719,33.590423583984375,-0.020512809976935387,0.15634985268115997,0.14371564984321594,-0.0249938927590847,537.5094523026066
197,21:26:23:242,-0.0027191168628633022,0.0,1.0,119.18728867415625,323.1996095771701,,-390.2133483886719,33.590423583984375,-0.020512809976935387,0.15634985268115997,0.14371564984321594,-0.0249938927590847,537.5094523026066
198,21:26:23:265,-0.0027191168628633022,0.0,1.0,119.18728867415625,323.1996095771701,,-390.2133483886719,33.590423583984375,-0.020512809976935387,0.15634985268115997,0.14371564984321594,-0.0249938927590847,537.5094523026066
199,21:26:23:287,-0.0028198249638080597,0.0,1.0,118.06979669990538,322.0814831615988,,-389.0953063964844,33.59160232543945,-0.020833168178796768,0.1461797058582306,0.09971702098846436,-0.01699829287827015,536.3916270098786
200,21:26:23:319,-0.0028198249638080597,0.0,1.0,117.51846970165532,321.5300042843369,,-388.543701171875,33.592124938964844,-0.021048735827207565,0.14370034635066986,0.07488451898097992,-0.01300048641860485,535.8401311349727
201,21:26:23:348,-0.003121949266642332,0.0,1.0,116.83913237897065,320.85043507524233,,-387.864013671875,33.59265899658203,-0.021340446546673775,0.141740083694458,0.04208102449774742,-0.007965086959302425,535.1605802317247
202,21:26:23:375,-0.003121949266642332,0.0,1.0,116.47564496566928,320.4868827480664,,-387.5003356933594,33.592891693115234,-0.021494979038834572,0.14148053526878357,0.02350926212966442,-0.006774901412427425,534.7969758977474
203,21:26:23:399,-0.003121949266642332,0.0,1.0,116.47564496566928,320.4868827480664,,-387.5003356933594,33.592891693115234,-0.021494979038834572,0.14148053526878357,0.02350926212966442,-0.006774901412427425,534.7969758977474
204,21:26:23:440,-0.005035405047237873,0.0,1.0,116.10669864066165,320.11717124985876,,-386.3094482421875,33.593040466308594,-0.021788710728287697,0.15380902588367462,-0.0524291917681694,-0.006805418990552425,534.4279087580977
205,21:26:23:449,-0.005841071717441082,0.0,1.0,115.0519258620208,319.0623956340088,,-386.0758361816406,33.59290313720703,-0.021810684353113174,0.15776370465755463,-0.0701293870806694,-0.0018005369929596782,533.3727678434205
206,21:26:23:473,-0.0060424888506531715,0.0,1.0,114.72685776486983,318.7372566358834,,-385.7505798339844,33.59263229370117,-0.021839674562215805,0.16287268698215485,-0.0962219089269638,0.004665577784180641,533.0475796436999
207,21:26:23:506,-0.0060424888506531715,0.0,1.0,114.05233514942948,318.06246279455996,,-385.0756530761719,33.59178161621094,-0.021901892498135567,0.17156067490577698,-0.1546630859375,0.014606148935854435,532.3727984099993
208,21:26:23:539,-0.0060424888506531715,0.0,1.0,114.05233514942948,318.06246279455996,,-385.0756530761719,33.59178161621094,-0.021901892498135567,0.17156067490577698,-0.1546630859375,0.014606148935854435,532.3727984099993
209,21:26:23:581,-0.0060424888506531715,0.0,1.0,112.84606931200938,316.8553880125974,,-383.8686218261719,33.589195251464844,-0.021812744438648224,0.17081619799137115,-0.269561767578125,0.021320631727576256,531.1660351102104
210,21:26:23:609,-0.0060424888506531715,0.0,1.0,112.19163721512193,316.20067706318156,,-383.2137451171875,33.58707046508789,-0.021690253168344498,0.16547498106956482,-0.3360595405101776,0.02958407811820507,530.5113105728502
211,21:26:23:635,-0.005538946948945522,0.0,1.0,111.83010501448351,315.8390283303001,,-382.8519592285156,33.58567428588867,-0.021633680909872055,0.16313906013965607,-0.3735350966453552,0.0334412045776844,530.1496099282865
212,21:26:23:676,-0.002517700893804431,0.0,1.0,111.17286885487432,315.1814842271186,,-382.1942443847656,33.58279037475586,-0.021554259583353996,0.1600586473941803,-0.4391174018383026,0.037714287638664246,529.4920559554721
213,21:26:23:695,-0.002517700893804431,0.0,1.0,111.17286885487432,315.1814842271186,,-382.1942443847656,33.58279037475586,-0.021554259583353996,0.1600586473941803,-0.4391174018383026,0.037714287638664246,529.4920559554721
214,21:26:23:736,-0.0015106202336028218,0.0,1.0,109.95459823329539,313.9623098997819,,-380.97503662109375,33.57639694213867,-0.02146320231258869,0.1566162258386612,-0.5405883193016052,0.039359577000141144,528.2731586617998
215,21:26:23:763,-0.0015106202336028218,0.0,1.0,109.3400155520273,313.34742532073346,,-380.3599548339844,33.57259750366211,-0.021435698494315147,0.15549607574939728,-0.583038330078125,0.03973625972867012,527.6582393588749
216,21:26:23:797,-0.0015106202336028218,0.0,1.0,108.99905303695418,313.0062533823415,,-379.6795959472656,33.56793212890625,-0.021414946764707565,0.15452618896961212,-0.6246642470359802,0.040303315967321396,527.3170838930466
217,21:26:23:822,-0.0015106202336028218,0.0,1.0,108.66023079767155,312.66737365188527,,-379.6795959472656,33.56793212890625,-0.021414946764707565,0.15452618896961212,-0.6246642470359802,0.040303315967321396,526.9780653716001
218,21:26:23:860,-0.0015106202336028218,0.0,1.0,108.66023106665735,312.66661285269726,,-378.4429626464844,33.558258056640625,-0.021394461393356323,0.15322846174240112,-0.6894224882125854,0.04139863699674606,526.9780656972923
219,21:26:23:865,-0.0015106202336028218,0.0,1.0,107.42469991829404,311.43083756303645,,-378.4429626464844,33.558258056640625,-0.021394461393356323,0.15322846174240112,-0.6894224882125854,0.04139863699674606,525.7417814391254
220,21:26:23:891,-0.0015106202336028218,0.0,1.0,107.03483577942939,311.04079634161695,,-378.052734375,33.554893493652344,-0.021391181275248528,0.15290743112564087,-0.7075499296188354,0.041653282940387726,525.351667204124
221,21:26:23:919,-0.0015106202336028218,0.0,1.0,106.36320756966988,310.36875941991957,,-377.3804626464844,33.54875183105469,-0.02138744294643402,0.15239517390727997,-0.7366637587547302,0.0419340580701828,524.6795940096505
222,21:26:23:946,-0.0015106202336028218,0.0,1.0,106.00497915289657,310.01035383642244,,-377.0218811035156,33.54530334472656,-0.021386070176959038,0.1521492898464203,-0.751251220703125,0.04198039695620537,524.3211208225878
223,21:26:23:976,-0.0015106202336028218,0.0,1.0,105.25772045532024,309.2625955871349,,-376.27386474609375,33.53774642944336,-0.021384544670581818,0.1517053246498108,-0.7800596952438354,0.041839003562927246,523.5733351856137
224,21:26:24:001,-0.0015106202336028218,0.0,1.0,105.25772045532024,309.2625955871349,,-376.27386474609375,33.53774642944336,-0.021384544670581818,0.1517053246498108,-0.7800596952438354,0.041839003562927246,523.5733351856137
225,21:26:24:024,-0.0015106202336028218,0.0,1.0,105.25772045532024,309.2625955871349,,-376.27386474609375,33.53774642944336,-0.021384544670581818,0.1517053246498108,-0.7800596952438354,0.041839003562927246,523.5733351856137
226,21:26:24:047,-0.0009063720935955644,0.0,1.0,103.98554015765886,307.9892389278248,,-375.0003356933594,33.523868560791016,-0.02137531153857708,0.1516370177268982,-0.8222045302391052,0.038258012384176254,522.3002083374771
227,21:26:24:076,0.001007080078125,0.0,1.0,103.27188112586467,307.2750715350784,,-374.285888671875,33.5156135559082,-0.021269645541906357,0.1579071283340454,-0.840606689453125,0.03267888352274895,521.5859918435403
228,21:26:24:097,0.001007080078125,0.0,1.0,102.92647435332353,306.9294627110773,,-373.9400939941406,33.511512756347656,-0.021180037409067154,0.16284535825252533,-0.8471068739891052,0.03024369291961193,521.24030864445
229,21:26:24:123,0.002517700893804431,0.0,1.0,102.56202034039909,306.5647871583982,,-373.5752258300781,33.50713348388672,-0.02106384187936783,0.16889691352844238,-0.8516845703125,0.027521317824721336,520.8755587030934
230,21:26:24:151,0.002517700893804431,0.0,1.0,101.77426831373076,305.77641089552594,,-372.78656005859375,33.49745559692383,-0.020787086337804794,0.1816830188035965,-0.8540955185890198,0.027701163664460182,520.0871514252506
231,21:26:24:175,0.002517700893804431,0.0,1.0,101.77426831373076,305.77641089552594,,-372.78656005859375,33.49745559692383,-0.020787086337804794,0.1816830188035965,-0.8540955185890198,0.027701163664460182,520.0871514252506
232,21:26:24:200,0.002517700893804431,0.0,1.0,101.77426831373076,305.77641089552594,,-372.78656005859375,33.49745559692383,-0.020787086337804794,0.1816830188035965,-0.8540955185890198,0.027701163664460182,520.0871514252506
233,21:26:24:224,0.002517700893804431,0.0,1.0,100.48357403253101,304.48439625316826,,-371.49432373046875,33.481258392333984,-0.020294303074479103,0.17938807606697083,-0.8398130536079407,0.024201083928346634,518.795343561035
234,21:26:24:285,0.002517700893804431,0.0,1.0,99.35483757671196,303.3545410539265,,-370.36419677734375,33.46685028076172,-0.019832763820886612,0.1613905280828476,-0.813629150390625,0.020020976662635803,517.6655938644255
235,21:26:24:312,0.002517700893804431,0.0,1.0,98.66527813019506,302.6642140894068,,-369.67376708984375,33.45800018310547,-0.01965351030230522,0.15359045565128326,-0.7933654189109802,0.018888510763645172,516.9753984064173
236,21:26:24:338,0.002517700893804431,0.0,1.0,98.66527813019506,302.6642140894068,,-369.67376708984375,33.45800018310547,-0.01965351030230522,0.15359045565128326,-0.7933654189109802,0.018888510763645172,516.9753984064173
237,21:26:24:362,0.002517700893804431,0.0,1.0,98.66527813019506,302.6642140894068,,-369.67376708984375,33.45800018310547,-0.01965351030230522,0.15359045565128326,-0.7933654189109802,0.018888510763645172,516.9753984064173
238,21:26:24:406,0.0003021240117959678,0.0,1.0,96.61780292366434,300.6139061107486,,-367.6236267089844,33.43178939819336,-0.019532127305865288,0.14678075909614563,-0.7300415635108948,0.010868094861507416,514.9259653898649
239,21:26:24:463,0.0,0.0,1.0,95.79709735393979,299.79247652174377,,-366.4748840332031,33.41717529296875,-0.01957084611058235,0.1466851383447647,-0.7021483182907104,0.007730363868176937,514.1044447045273
240,21:26:24:488,0.0,0.0,1.0,95.47060611878734,299.4658037688354,,-366.4748840332031,33.41717529296875,-0.01957084611058235,0.1466851383447647,-0.7021483182907104,0.007730363868176937,513.7776240900791
241,21:26:24:512,0.0,0.0,1.0,95.47060611878734,299.4658037688354,,-366.4748840332031,33.41717529296875,-0.01957084611058235,0.1466851383447647,-0.7021483182907104,0.007730363868176937,513.7776240900791
242,21:26:24:558,0.0,0.0,1.0,93.5200976842372,297.5208983806972,,-364.52166748046875,33.39263916015625,-0.019655264914035797,0.14778479933738708,-0.671142578125,0.0022059245966374874,511.8250904988493
243,21:26:24:589,0.0,0.0,1.0,93.08068835509629,297.0816054062667,,-364.0816345214844,33.38718795776367,-0.019655723124742508,0.149041548371315,-0.6662902235984802,0.0007931196596473455,511.38521168462427
244,21:26:24:670,0.0,0.0,1.0,92.26572622160565,296.26559418745046,,-362.3502502441406,33.365989685058594,-0.019557418301701546,0.1574016958475113,-0.6528931260108948,-0.003173828125,510.56936366707254
245,21:26:24:684,0.0,0.0,1.0,91.03985788349958,295.0387700486876,,-362.037841796875,33.36220932006836,-0.01952281966805458,0.15884970128536224,-0.651214599609375,-0.0038146970327943563,509.3421302722229
246,21:26:24:727,0.0,0.0,1.0,90.22661557484456,294.22452121523526,,-361.223388671875,33.3524169921875,-0.019395064562559128,0.16113781929016113,-0.6477966904640198,-0.005126952659338713,508.5279586862193
247,21:26:24:753,0.0,0.0,1.0,89.4530978954315,293.4500775642587,,-360.4486999511719,33.34317398071289,-0.019223861396312714,0.16307759284973145,-0.645477294921875,-0.0059814453125,507.7535384213433
248,21:26:24:779,0.0,0.0,1.0,89.4530978954315,293.4500775642587,,-360.4486999511719,33.34317398071289,-0.019223861396312714,0.16307759284973145,-0.645477294921875,-0.0059814453125,507.7535384213433
249,21:26:24:803,0.0,0.0,1.0,89.4530978954315,293.4500775642587,,-360.4486999511719,33.34317398071289,-0.019223861396312714,0.16307759284973145,-0.645477294921875,-0.0059814453125,507.7535384213433
250,21:26:24:811,0.0,0.0,1.0,89.4530978954315,293.4500775642587,,-360.4486999511719,33.34317398071289,-0.019223861396312714,0.16307759284973145,-0.645477294921875,-0.0059814453125,507.7535384213433
251,21:26:24:855,0.0,0.0,1.0,87.71640777437567,291.71124106498894,,-358.28955078125,33.31717300415039,-0.016453055664896965,0.2896000146865845,-0.6421202421188354,0.07779450714588165,506.0147374590416
252,21:26:24:953,0.0,0.0,1.0,86.0816258654306,290.07466355753274,,-356.12750244140625,33.292625427246094,-0.008530540391802788,0.4571855068206787,-0.6401366591453552,0.04376605153083801,504.37789861865474
253,21:26:24:960,0.0,0.0,1.0,85.13861738116286,289.13081919343523,,-356.12750244140625,33.292625427246094,-0.008530540391802788,0.4571855068206787,-0.6401366591453552,0.04376605153083801,503.4336621646279
254,21:26:25:010,0.0,0.0,1.0,83.96516752170763,287.95614691660603,,-354.9521789550781,33.279354095458984,-0.0024752425961196423,0.4672054052352905,-0.6408082246780396,0.027934450656175613,502.25863828497336
255,21:26:25:037,0.0,0.0,1.0,83.54997591166807,287.54052184413644,,-354.53631591796875,33.27470397949219,-0.0001926422119140625,0.4601976275444031,-0.641387939453125,0.01815509796142578,501.8428784810831
256,21:26:25:105,0.0,0.0,1.0,82.64454517787897,286.6341349750934,,-353.62939453125,33.26454544067383,0.004793243482708931,0.44007590413093567,-0.6428527235984802,-0.0008239745511673391,500.93618406224306
257,21:26:25:135,0.0,0.0,1.0,81.36989073388769,285.35807978742804,,-352.3525695800781,33.25009536743164,0.011466102674603462,0.4218802750110626,-0.6449584364891052,-0.008056639693677425,499.6596880913583
258,21:26:25:182,0.0003021240117959678,0.0,1.0,80.11740126990614,284.10419149523807,,-351.0978698730469,33.23588943481445,0.017660101875662804,0.4116964638233185,-0.64605712890625,-0.009002684615552425,498.40532000931654
259,21:26:25:207,0.0003021240117959678,0.0,1.0,80.11740126990614,284.10419149523807,,-351.0978698730469,33.23588943481445,0.017660101875662804,0.4116964638233185,-0.64605712890625,-0.009002684615552425,498.40532000931654
260,21:26:25:233,0.0003021240117959678,0.0,1.0,80.11740126990614,284.10419149523807,,-351.0978698730469,33.23588943481445,0.017660101875662804,0.4116964638233185,-0.64605712890625,-0.009002684615552425,498.40532000931654
261,21:26:25:282,0.0020141603890806437,0.0,0.0,77.80118254944263,281.7852412249472,,-348.7773742675781,33.209957122802734,0.028478164225816727,0.39899230003356934,-0.6318969130516052,-0.011169432662427425,496.0854507982868
262,21:26:25:309,0.0020141603890806437,0.0,0.0,77.35784494942575,281.34137023124833,,-348.33319091796875,33.205074310302734,0.030497930943965912,0.3950854539871216,-0.625823974609375,-0.011901854537427425,495.641388528917
263,21:26:25:407,0.0028198249638080597,0.0,0.0,75.12020915461973,279.10089148807356,,-346.0911560058594,33.18104553222656,0.04065105319023132,0.35755354166030884,-0.5748289823532104,-0.016693115234375,493.3999649674594
264,21:26:25:459,0.0028198249638080597,0.0,0.0,73.91578445892176,277.8948782169374,,-344.88427734375,33.16864013671875,0.04612895846366882,0.32672208547592163,-0.535125732421875,-0.01956176571547985,492.1934116101477
265,21:26:25:465,0.0028198249638080597,0.0,0.0,73.91578445892176,277.8948782169374,,-344.88427734375,33.16864013671875,0.04612895846366882,0.32672208547592163,-0.535125732421875,-0.01956176571547985,492.1934116101477
266,21:26:25:561,0.0028198249638080597,0.0,0.0,72.5838188178664,276.5610535662317,,-342.5908508300781,33.14641189575195,0.05654254928231239,0.2629827558994293,-0.4433593451976776,-0.0254516564309597,490.85902038691165
267,21:26:25:593,0.0028198249638080597,0.0,0.0,71.28630107607275,275.261695994926,,-341.80792236328125,33.13931655883789,0.06008819490671158,0.24238291382789612,-0.4085693061351776,-0.0276489220559597,489.5590684402892
268,21:26:25:633,0.002517700893804431,0.0,0.0,70.07281726435967,274.0464155904292,,-341.0331115722656,33.13258361816406,0.0641399398446083,0.25928762555122375,-0.3729552626609802,-0.0310058556497097,488.343246039388
269,21:26:25:659,0.002517700893804431,0.0,0.0,70.07281726435967,274.0464155904292,,-341.0331115722656,33.13258361816406,0.0641399398446083,0.25928762555122375,-0.3729552626609802,-0.0310058556497097,488.343246039388
270,21:26:25:728,0.002517700893804431,0.0,0.0,67.85604302355156,271.8261432998787,,-338.81146240234375,33.115013122558594,0.07924823462963104,0.44120287895202637,-0.266937255859375,-0.0382385216653347,486.12205576254553
271,21:26:25:839,0.002517700893804431,0.0,1.0,66.64183198319772,270.6099100400384,,-337.5945739746094,33.10664367675781,0.09025958925485611,0.4720138609409332,-0.209075927734375,-0.041717529296875,484.9053531857061
